# 
# Header Description:
# 
# Version: v3.0.6.4 Platform: 14 Manufacturer: samsung Model: SM-A528B
# 
# Raw,utcTimeMillis,TimeNanos,LeapSecond,TimeUncertaintyNanos,FullBiasNanos,BiasNanos,BiasUncertaintyNanos,DriftNanosPerSecond,DriftUncertaintyNanosPerSecond,HardwareClockDiscontinuityCount,Svid,TimeOffsetNanos,State,ReceivedSvTimeNanos,ReceivedSvTimeUncertaintyNanos,Cn0DbHz,PseudorangeRateMetersPerSecond,PseudorangeRateUncertaintyMetersPerSecond,AccumulatedDeltaRangeState,AccumulatedDeltaRangeMeters,AccumulatedDeltaRangeUncertaintyMeters,CarrierFrequencyHz,CarrierCycles,CarrierPhase,CarrierPhaseUncertainty,MultipathIndicator,SnrInDb,ConstellationType,AgcDb,BasebandCn0DbHz,FullInterSignalBiasNanos,FullInterSignalBiasUncertaintyNanos,SatelliteInterSignalBiasNanos,SatelliteInterSignalBiasUncertaintyNanos,CodeType,ChipsetElapsedRealtimeNanos
# 
# UncalAccel,utcTimeMillis,elapsedRealtimeNanos,UncalAccelXMps2,UncalAccelYMps2,UncalAccelZMps2,BiasXMps2,BiasYMps2,BiasZMps2
# 
# Accel,utcTimeMillis,elapsedRealtimeNanos,AccelXMps2,AccelYMps2,AccelZMps2
# 
# UncalGyro,utcTimeMillis,elapsedRealtimeNanos,UncalGyroXRadPerSec,UncalGyroYRadPerSec,UncalGyroZRadPerSec,DriftXRadPerSec,DriftYRadPerSec,DriftZRadPerSec
# 
# Gyro,utcTimeMillis,elapsedRealtimeNanos,GyroXRadPerSec,GyroYRadPerSec,GyroZRadPerSec
# 
# UncalMag,utcTimeMillis,elapsedRealtimeNanos,UncalMagXMicroT,UncalMagYMicroT,UncalMagZMicroT,BiasXMicroT,BiasYMicroT,BiasZMicroT
# 
# Mag,utcTimeMillis,elapsedRealtimeNanos,MagXMicroT,MagYMicroT,MagZMicroT
# 
# OrientationDeg,utcTimeMillis,elapsedRealtimeNanos,yawDeg,rollDeg,pitchDeg
# 
# Fix,Provider,LatitudeDegrees,LongitudeDegrees,AltitudeMeters,SpeedMps,AccuracyMeters,BearingDegrees,UnixTimeMillis,SpeedAccuracyMps,BearingAccuracyDegrees,elapsedRealtimeNanos,VerticalAccuracyMeters,MockLocation,NumberOfUsedSignals,VerticalSpeedAccuracyMps,SolutionType
# 
# Nav,Svid,Type,Status,MessageId,Sub-messageId,Data(Bytes)
# 
# Status,UnixTimeMillis,SignalCount,SignalIndex,ConstellationType,Svid,CarrierFrequencyHz,Cn0DbHz,AzimuthDegrees,ElevationDegrees,UsedInFix,HasAlmanacData,HasEphemerisData,BasebandCn0DbHz
# 
# Agc,utcTimeMillis,TimeNanos,LeapSecond,TimeUncertaintyNanos,FullBiasNanos,BiasNanos,BiasUncertaintyNanos,DriftNanosPerSecond,DriftUncertaintyNanosPerSecond,HardwareClockDiscontinuityCount,AgcDb,CarrierFrequencyHz,ConstellationType
# 
Fix,FLP,45.0650699000,7.6758541000,290.1999816894531,0.06418402,3.833,,1712436810857,0.099110395,,792535219241902,2.1957383,0,,,
Status,,32,0,1,1,1575420030,41.00,0.0,0.0,0,0,0,36.0
Status,,32,1,1,2,1575420030,26.90,149.0,20.0,1,1,1,21.9
Status,,32,2,1,3,1575420030,36.50,71.0,54.0,1,1,1,31.5
Status,,32,3,1,4,1575420030,45.60,100.0,81.0,1,1,1,40.6
Status,,32,4,1,6,1575420030,24.90,310.0,38.0,1,1,1,19.9
Status,,32,5,1,9,1575420030,38.30,222.0,48.0,1,1,1,33.3
Status,,32,6,1,17,1575420030,34.20,0.0,0.0,0,0,1,29.2
Status,,32,7,1,19,1575420030,30.30,265.0,35.0,1,1,1,25.3
Status,,32,8,1,21,1575420030,27.00,146.0,7.0,1,1,1,22.0
Status,,32,9,1,31,1575420030,29.90,52.0,23.0,1,1,1,24.9
Status,,32,10,2,127,1575420030,34.10,0.0,0.0,0,0,0,29.1
Status,,32,11,3,94,1598625020,35.50,0.0,0.0,0,0,0,30.5
Status,,32,12,3,22,1600312450,20.60,164.0,12.0,0,1,0,15.6
Status,,32,13,3,9,1600875010,22.50,57.0,15.0,1,1,0,17.5
Status,,32,14,3,1,1602562560,31.40,258.0,41.0,1,1,0,26.4
Status,,32,15,3,24,1603124990,32.40,313.0,48.0,1,1,0,27.4
Status,,32,16,3,23,1603687550,38.90,194.0,59.0,1,1,0,33.9
Status,,32,17,3,7,1604812540,25.40,49.0,21.0,1,1,0,20.4
Status,,32,18,3,8,1605374980,29.00,13.0,65.0,1,1,0,24.0
Status,,32,19,5,28,1561097980,40.10,206.0,45.0,0,1,0,35.1
Status,,32,20,5,27,1561097980,38.90,282.0,48.0,0,1,0,33.9
Status,,32,21,5,24,1561097980,35.60,91.0,16.0,0,1,0,30.6
Status,,32,22,5,16,1561097980,20.50,38.0,19.0,0,1,0,15.5
Status,,32,23,5,14,1561097980,27.70,62.0,34.0,1,1,0,22.7
Status,,32,24,5,6,1561097980,24.30,45.0,26.0,1,1,0,19.3
Status,,32,25,5,5,1561097980,39.30,118.0,19.0,1,1,0,34.3
Status,,32,26,6,4,1575420030,22.20,50.0,24.0,1,1,0,17.2
Status,,32,27,6,5,1575420030,32.10,219.0,45.0,1,1,0,27.1
Status,,32,28,6,9,1575420030,31.40,70.0,75.0,1,1,0,26.4
Status,,32,29,6,11,1575420030,34.40,143.0,25.0,0,1,0,29.4
Status,,32,30,6,34,1575420030,31.60,310.0,45.0,1,1,0,26.6
Status,,32,31,6,36,1575420030,44.60,172.0,75.0,1,1,0,39.6
Raw,1712436811417,744838698000000,18,,-1395727190719938252,0.09858202934265137,51.19084016769193,21.481626536196146,13.996247969667083,315,2,0.0,16399,593629338427806,40,31.9,629.0918579101562,0.7264999747276306,16,0.0,0.0,1575420030,,,,0,,1,1.35,26.9,0.0,0.0,,,C,792535633103516
Raw,1712436811417,744838698000000,18,,-1395727190719938252,0.09858202934265137,51.19084016769193,21.481626536196146,13.996247969667083,315,3,0.0,16399,593629348002236,13,41.5,335.30224609375,0.03989195078611374,16,0.0,0.0,1575420030,,,,0,,1,1.35,36.5,0.0,0.0,,,C,792535633103516
Raw,1712436811417,744838698000000,18,,-1395727190719938252,0.09858202934265137,51.19084016769193,21.481626536196146,13.996247969667083,315,4,0.0,16399,593629350574884,5,50.6,32.386322021484375,0.03150664269924164,16,0.0,0.0,1575420030,,,,0,,1,1.35,45.6,0.0,0.0,,,C,792535633103516
Raw,1712436811417,744838698000000,18,,-1395727190719938252,0.09858202934265137,51.19084016769193,21.481626536196146,13.996247969667083,315,6,0.0,16399,593629344269245,53,29.9,-499.61602783203125,0.8675000071525574,16,0.0,0.0,1575420030,,,,0,,1,1.35,24.9,0.0,0.0,,,C,792535633103516
Raw,1712436811417,744838698000000,18,,-1395727190719938252,0.09858202934265137,51.19084016769193,21.481626536196146,13.996247969667083,315,9,0.0,16399,593629346648734,11,43.3,-461.0345458984375,0.04119833931326866,16,0.0,0.0,1575420030,,,,0,,1,1.35,38.3,0.0,0.0,,,C,792535633103516
Raw,1712436811417,744838698000000,18,,-1395727190719938252,0.09858202934265137,51.19084016769193,21.481626536196146,13.996247969667083,315,19,0.0,16399,593629344747464,24,35.3,222.96383666992188,2.412027359008789,16,0.0,0.0,1575420030,,,,0,,1,1.35,30.299999999999997,0.0,0.0,,,C,792535633103516
Raw,1712436811417,744838698000000,18,,-1395727190719938252,0.09858202934265137,51.19084016769193,21.481626536196146,13.996247969667083,315,31,0.0,16399,593629340447863,27,34.9,283.58514404296875,0.6035000085830688,16,0.0,0.0,1575420030,,,,0,,1,1.35,29.9,0.0,0.0,,,C,792535633103516
Raw,1712436811417,744838698000000,18,,-1395727190719938252,0.09858202934265137,51.19084016769193,21.481626536196146,13.996247969667083,315,1,0.0,49359,86011348432119,21,35.4,-431.9698791503906,8.493024826049805,16,0.0,0.0,1602562560,,,,0,,3,-1.65,31.4,3770.327392578125,16.339584350585938,,,C,792535633103516
Raw,1712436811417,744838698000000,18,,-1395727190719938252,0.09858202934265137,51.19084016769193,21.481626536196146,13.996247969667083,315,23,0.0,49359,86011351780826,11,42.9,442.0745544433594,0.033580269664525986,16,0.0,0.0,1603687550,,,,0,,3,-1.65,38.9,3770.327392578125,16.339584350585938,,,C,792535633103516
Raw,1712436811417,744838698000000,18,,-1395727190719938252,0.09858202934265137,51.19084016769193,21.481626536196146,13.996247969667083,315,28,0.0,16399,593615341457218,9,44.4,455.17401123046875,0.04735790565609932,16,0.0,0.0,1561097980,,,,0,,5,1.39,40.1,-1570.7899169921875,19.245027542114258,,,I,792535633103516
Raw,1712436811417,744838698000000,18,,-1395727190719938252,0.09858202934265137,51.19084016769193,21.481626536196146,13.996247969667083,315,27,0.0,16399,593615342096601,11,43.2,-66.99221801757812,0.04725978896021843,16,0.0,0.0,1561097980,,,,0,,5,1.39,38.900000000000006,-1570.7899169921875,19.245027542114258,,,I,792535633103516
Raw,1712436811417,744838698000000,18,,-1395727190719938252,0.09858202934265137,51.19084016769193,21.481626536196146,13.996247969667083,315,24,0.0,16399,593615334185590,14,39.9,-355.6717224121094,0.03208277001976967,16,0.0,0.0,1561097980,,,,0,,5,1.39,35.6,-1570.7899169921875,19.245027542114258,,,I,792535633103516
Raw,1712436811417,744838698000000,18,,-1395727190719938252,0.09858202934265137,51.19084016769193,21.481626536196146,13.996247969667083,315,14,0.0,16399,593615339025170,35,32.0,463.0168151855469,0.6649999618530273,16,0.0,0.0,1561097980,,,,0,,5,1.39,27.7,-1570.7899169921875,19.245027542114258,,,I,792535633103516
Raw,1712436811417,744838698000000,18,,-1395727190719938252,0.09858202934265137,51.19084016769193,21.481626536196146,13.996247969667083,315,4,0.0,23567,593629329515725,70,26.5,490.4438781738281,2.5420000553131104,16,0.0,0.0,1575420030,,,,0,,6,1.16,22.2,-1464.1927490234375,13.418693542480469,,,C,792535633103516
Raw,1712436811417,744838698000000,18,,-1395727190719938252,0.09858202934265137,51.19084016769193,21.481626536196146,13.996247969667083,315,5,0.0,23567,593629340240692,19,36.4,-391.68524169921875,0.03409552574157715,16,0.0,0.0,1575420030,,,,0,,6,1.16,32.1,-1464.1927490234375,13.418693542480469,,,C,792535633103516
Raw,1712436811417,744838698000000,18,,-1395727190719938252,0.09858202934265137,51.19084016769193,21.481626536196146,13.996247969667083,315,9,0.0,23567,593629339484276,21,35.7,114.12126159667969,0.034105487167835236,16,0.0,0.0,1575420030,,,,0,,6,1.16,31.400000000000002,-1464.1927490234375,13.418693542480469,,,C,792535633103516
Raw,1712436811417,744838698000000,18,,-1395727190719938252,0.09858202934265137,51.19084016769193,21.481626536196146,13.996247969667083,315,11,0.0,23567,593629333309795,16,38.7,536.61279296875,0.028808681294322014,16,0.0,0.0,1575420030,,,,0,,6,1.16,34.400000000000006,-1464.1927490234375,13.418693542480469,,,C,792535633103516
Raw,1712436811417,744838698000000,18,,-1395727190719938252,0.09858202934265137,51.19084016769193,21.481626536196146,13.996247969667083,315,34,0.0,23567,593629335380160,21,35.9,-360.6974792480469,3.4593915939331055,16,0.0,0.0,1575420030,,,,0,,6,1.16,31.599999999999998,-1464.1927490234375,13.418693542480469,,,C,792535633103516
Raw,1712436811417,744838698000000,18,,-1395727190719938252,0.09858202934265137,51.19084016769193,21.481626536196146,13.996247969667083,315,36,0.0,23567,593629339656424,6,48.9,162.9873504638672,0.024292081594467163,16,0.0,0.0,1575420030,,,,0,,6,1.16,44.6,-1464.1927490234375,13.418693542480469,,,C,792535633103516
Fix,GPS,45.0650442200,7.6758783300,314.50244140625,0.0,3.7900925,,1712436812000,0.086023256,,792536219242110,4.328927,0,,,
Fix,FLP,45.0650704000,7.6758534000,290.1999816894531,0.048217613,3.754,,1712436811858,0.08694024,,792536219242110,2.2057383,0,,,
Status,1712436812000,32,0,1,1,1575420030,39.40,0.0,0.0,0,0,0,34.4
Status,1712436812000,32,1,1,2,1575420030,33.20,149.0,20.0,1,1,1,28.2
Status,1712436812000,32,2,1,3,1575420030,35.50,71.0,54.0,1,1,1,30.5
Status,1712436812000,32,3,1,4,1575420030,45.30,100.0,81.0,1,1,1,40.3
Status,1712436812000,32,4,1,6,1575420030,30.60,310.0,38.0,1,1,1,25.6
Status,1712436812000,32,5,1,9,1575420030,37.60,222.0,48.0,1,1,1,32.6
Status,1712436812000,32,6,1,17,1575420030,38.10,0.0,0.0,0,0,1,33.1
Status,1712436812000,32,7,1,21,1575420030,27.00,146.0,7.0,1,1,1,22.0
Status,1712436812000,32,8,1,31,1575420030,28.90,52.0,23.0,1,1,1,23.9
Status,1712436812000,32,9,2,127,1575420030,34.10,0.0,0.0,0,0,0,29.1
Status,1712436812000,32,10,3,94,1598625020,32.80,0.0,0.0,0,0,0,27.8
Status,1712436812000,32,11,3,22,1600312450,21.70,164.0,12.0,0,1,0,16.7
Status,1712436812000,32,12,3,9,1600875010,21.30,57.0,15.0,1,1,0,16.3
Status,1712436812000,32,13,3,1,1602562560,32.30,258.0,41.0,1,1,0,27.3
Status,1712436812000,32,14,3,24,1603124990,25.30,313.0,48.0,1,1,0,20.3
Status,1712436812000,32,15,3,23,1603687550,41.70,194.0,59.0,1,1,0,36.7
Status,1712436812000,32,16,3,7,1604812540,24.30,49.0,21.0,1,1,0,19.3
Status,1712436812000,32,17,3,8,1605374980,24.50,13.0,65.0,1,1,0,19.5
Status,1712436812000,32,18,5,28,1561097980,40.60,206.0,45.0,0,1,0,35.6
Status,1712436812000,32,19,5,27,1561097980,38.80,282.0,48.0,0,1,0,33.8
Status,1712436812000,32,20,5,24,1561097980,38.30,91.0,16.0,0,1,0,33.3
Status,1712436812000,32,21,5,16,1561097980,20.50,38.0,19.0,0,1,0,15.5
Status,1712436812000,32,22,5,14,1561097980,24.60,62.0,34.0,1,1,0,19.6
Status,1712436812000,32,23,5,9,1561097980,21.00,54.0,33.0,0,1,0,16.0
Status,1712436812000,32,24,5,6,1561097980,24.30,45.0,26.0,0,1,0,19.3
Status,1712436812000,32,25,5,5,1561097980,32.30,118.0,19.0,1,1,0,27.3
Status,1712436812000,32,26,6,4,1575420030,24.40,50.0,24.0,1,1,0,19.4
Status,1712436812000,32,27,6,5,1575420030,35.30,219.0,45.0,1,1,0,30.3
Status,1712436812000,32,28,6,9,1575420030,28.70,70.0,75.0,1,1,0,23.7
Status,1712436812000,32,29,6,11,1575420030,34.50,143.0,25.0,0,1,0,29.5
Status,1712436812000,32,30,6,34,1575420030,26.60,310.0,45.0,1,1,0,21.6
Status,1712436812000,32,31,6,36,1575420030,46.40,172.0,75.0,1,1,0,41.4
Raw,1712436812417,744839698000000,18,,-1395727190719938230,0.9755897521972656,53.86964403442107,20.723808571504176,10.646121810056504,315,2,0.0,16399,593630338425592,17,38.2,629.1351318359375,0.6031754016876221,16,0.0,0.0,1575420030,,,,0,,1,1.79,33.2,0.0,0.0,,,C,792536644179402
Raw,1712436812417,744839698000000,18,,-1395727190719938230,0.9755897521972656,53.86964403442107,20.723808571504176,10.646121810056504,315,3,0.0,16399,593630348001096,14,40.5,335.42010498046875,0.040995653718709946,16,0.0,0.0,1575420030,,,,0,,1,1.79,35.5,0.0,0.0,,,C,792536644179402
Raw,1712436812417,744839698000000,18,,-1395727190719938230,0.9755897521972656,53.86964403442107,20.723808571504176,10.646121810056504,315,4,0.0,16399,593630350574773,5,50.3,32.54421615600586,0.03150664269924164,16,0.0,0.0,1575420030,,,,0,,1,1.79,45.3,0.0,0.0,,,C,792536644179402
Raw,1712436812417,744839698000000,18,,-1395727190719938230,0.9755897521972656,53.86964403442107,20.723808571504176,10.646121810056504,315,6,0.0,16399,593630344270829,24,35.6,-500.218505859375,0.11350329220294952,16,0.0,0.0,1575420030,,,,0,,1,1.79,30.6,0.0,0.0,,,C,792536644179402
Raw,1712436812417,744839698000000,18,,-1395727190719938230,0.9755897521972656,53.86964403442107,20.723808571504176,10.646121810056504,315,9,0.0,16399,593630346650275,12,42.6,-460.9054260253906,0.041997574269771576,16,0.0,0.0,1575420030,,,,0,,1,1.79,37.6,0.0,0.0,,,C,792536644179402
Raw,1712436812417,744839698000000,18,,-1395727190719938230,0.9755897521972656,53.86964403442107,20.723808571504176,10.646121810056504,315,31,0.0,16399,593630340446968,31,33.9,283.9752502441406,0.643500030040741,16,0.0,0.0,1575420030,,,,0,,1,1.79,28.9,0.0,0.0,,,C,792536644179402
Raw,1712436812417,744839698000000,18,,-1395727190719938230,0.9755897521972656,53.86964403442107,20.723808571504176,10.646121810056504,315,22,0.0,49359,86012340283496,80,25.7,846.3268432617188,1.8565000295639038,16,0.0,0.0,1600312450,,,,0,,3,2.05,21.7,3770.0908203125,15.750825881958008,,,C,792536644179402
Raw,1712436812417,744839698000000,18,,-1395727190719938230,0.9755897521972656,53.86964403442107,20.723808571504176,10.646121810056504,315,9,0.0,49359,86012341056194,80,25.3,-234.85263061523438,1.8580000400543213,16,0.0,0.0,1600875010,,,,0,,3,2.05,21.3,3770.0908203125,15.750825881958008,,,C,792536644179402
Raw,1712436812417,744839698000000,18,,-1395727190719938230,0.9755897521972656,53.86964403442107,20.723808571504176,10.646121810056504,315,1,0.0,49359,86012348433579,19,36.3,-432.6607971191406,0.05677325278520584,16,0.0,0.0,1602562560,,,,0,,3,2.05,32.3,3770.0908203125,15.750825881958008,,,C,792536644179402
Raw,1712436812417,744839698000000,18,,-1395727190719938230,0.9755897521972656,53.86964403442107,20.723808571504176,10.646121810056504,315,24,0.0,49359,86012349915607,46,29.3,-402.5564270019531,1.5499999523162842,16,0.0,0.0,1603124990,,,,0,,3,2.05,25.3,3770.0908203125,15.750825881958008,,,C,792536644179402
Raw,1712436812417,744839698000000,18,,-1395727190719938230,0.9755897521972656,53.86964403442107,20.723808571504176,10.646121810056504,315,23,0.0,49359,86012351779319,8,45.7,442.29339599609375,0.031617406755685806,16,0.0,0.0,1603687550,,,,0,,3,2.05,41.7,3770.0908203125,15.750825881958008,,,C,792536644179402
Raw,1712436812417,744839698000000,18,,-1395727190719938230,0.9755897521972656,53.86964403442107,20.723808571504176,10.646121810056504,315,7,0.0,49359,86012342906770,53,28.3,645.3483276367188,1.6094999313354492,16,0.0,0.0,1604812540,,,,0,,3,2.05,24.3,3770.0908203125,15.750825881958008,,,C,792536644179402
Raw,1712436812417,744839698000000,18,,-1395727190719938230,0.9755897521972656,53.86964403442107,20.723808571504176,10.646121810056504,315,8,0.0,49359,86012352332859,53,28.5,250.59971618652344,1.624500036239624,16,0.0,0.0,1605374980,,,,0,,3,2.05,24.5,3770.0908203125,15.750825881958008,,,C,792536644179402
Raw,1712436812417,744839698000000,18,,-1395727190719938230,0.9755897521972656,53.86964403442107,20.723808571504176,10.646121810056504,315,28,0.0,16399,593616341455689,9,44.9,455.2886047363281,0.04735790565609932,16,0.0,0.0,1561097980,,,,0,,5,1.77,40.6,-1570.7899169921875,19.245027542114258,,,I,792536644179402
Raw,1712436812417,744839698000000,18,,-1395727190719938230,0.9755897521972656,53.86964403442107,20.723808571504176,10.646121810056504,315,27,0.0,16399,593616342096805,11,43.1,-66.81344604492188,0.04725978896021843,16,0.0,0.0,1561097980,,,,0,,5,1.77,38.800000000000004,-1570.7899169921875,19.245027542114258,,,I,792536644179402
Raw,1712436812417,744839698000000,18,,-1395727190719938230,0.9755897521972656,53.86964403442107,20.723808571504176,10.646121810056504,315,24,0.0,16399,593616334186766,11,42.6,-355.5527648925781,0.02925978973507881,16,0.0,0.0,1561097980,,,,0,,5,1.77,38.300000000000004,-1570.7899169921875,19.245027542114258,,,I,792536644179402
Raw,1712436812417,744839698000000,18,,-1395727190719938230,0.9755897521972656,53.86964403442107,20.723808571504176,10.646121810056504,315,14,0.0,16399,593616339023618,53,28.9,462.5847473144531,0.9149999618530273,16,0.0,0.0,1561097980,,,,0,,5,1.77,24.599999999999998,-1570.7899169921875,19.245027542114258,,,I,792536644179402
Raw,1712436812417,744839698000000,18,,-1395727190719938230,0.9755897521972656,53.86964403442107,20.723808571504176,10.646121810056504,315,9,0.0,16399,593616287811421,80,25.3,20.240962982177734,1.8519999980926514,16,0.0,0.0,1561097980,,,,0,,5,1.77,21.0,-1570.7899169921875,19.245027542114258,,,I,792536644179402
Raw,1712436812417,744839698000000,18,,-1395727190719938230,0.9755897521972656,53.86964403442107,20.723808571504176,10.646121810056504,315,5,0.0,16399,593616284811408,19,36.6,13.28913402557373,3.4962000846862793,16,0.0,0.0,1561097980,,,,0,,5,1.77,32.300000000000004,-1570.7899169921875,19.245027542114258,,,I,792536644179402
Raw,1712436812417,744839698000000,18,,-1395727190719938230,0.9755897521972656,53.86964403442107,20.723808571504176,10.646121810056504,315,4,0.0,23567,593630329514144,53,28.7,490.1839599609375,0.11758067458868027,16,0.0,0.0,1575420030,,,,0,,6,1.67,24.4,-1463.7239990234375,13.009915351867676,,,C,792536644179402
Raw,1712436812417,744839698000000,18,,-1395727190719938230,0.9755897521972656,53.86964403442107,20.723808571504176,10.646121810056504,315,5,0.0,23567,593630340241999,14,39.6,-391.5947265625,0.02901468425989151,16,0.0,0.0,1575420030,,,,0,,6,1.67,35.300000000000004,-1463.7239990234375,13.009915351867676,,,C,792536644179402
Raw,1712436812417,744839698000000,18,,-1395727190719938230,0.9755897521972656,53.86964403442107,20.723808571504176,10.646121810056504,315,9,0.0,23567,593630339483945,31,33.0,114.24224090576172,0.5990873575210571,16,0.0,0.0,1575420030,,,,0,,6,1.67,28.7,-1463.7239990234375,13.009915351867676,,,C,792536644179402
Raw,1712436812417,744839698000000,18,,-1395727190719938230,0.9755897521972656,53.86964403442107,20.723808571504176,10.646121810056504,315,11,0.0,23567,593630333308011,16,38.8,536.6896362304688,0.028808681294322014,16,0.0,0.0,1575420030,,,,0,,6,1.67,34.5,-1463.7239990234375,13.009915351867676,,,C,792536644179402
Raw,1712436812417,744839698000000,18,,-1395727190719938230,0.9755897521972656,53.86964403442107,20.723808571504176,10.646121810056504,315,34,0.0,23567,593630335381198,40,30.9,-358.9833068847656,2.890965223312378,16,0.0,0.0,1575420030,,,,0,,6,1.67,26.599999999999998,-1463.7239990234375,13.009915351867676,,,C,792536644179402
Raw,1712436812417,744839698000000,18,,-1395727190719938230,0.9755897521972656,53.86964403442107,20.723808571504176,10.646121810056504,315,36,0.0,23567,593630339655895,5,50.7,163.10374450683594,0.023702170699834824,16,0.0,0.0,1575420030,,,,0,,6,1.67,46.400000000000006,-1463.7239990234375,13.009915351867676,,,C,792536644179402
Fix,GPS,45.0650441900,7.6758782400,314.6435546875,0.0,3.9954624,,1712436813000,0.086023256,,792537219295391,4.7566686,0,,,
Fix,FLP,45.0650695000,7.6758546000,290.1999816894531,0.050880253,3.71,,1712436812858,0.09089308,,792537219295391,2.215739,0,,,
Fix,NLP,45.0651312000,7.6758904000,290.1999816894531,,11.479,,1712436809746,,,792534108000000,2.030628,0,,,
Fix,FLP,45.0650691000,7.6758551000,290.1999816894531,0.08568997,3.724,,1712436813388,0.1140822,,792537749026918,2.0617409,0,,,
Status,1712436813000,32,0,1,1,1575420030,39.30,0.0,0.0,0,0,0,34.3
Status,1712436813000,32,1,1,2,1575420030,31.30,149.0,20.0,1,1,1,26.3
Status,1712436813000,32,2,1,3,1575420030,36.40,71.0,54.0,1,1,1,31.4
Status,1712436813000,32,3,1,4,1575420030,46.20,100.0,81.0,1,1,1,41.2
Status,1712436813000,32,4,1,6,1575420030,32.50,310.0,38.0,1,1,1,27.5
Status,1712436813000,32,5,1,9,1575420030,39.20,222.0,48.0,1,1,1,34.2
Status,1712436813000,32,6,1,17,1575420030,36.20,0.0,0.0,0,0,1,31.2
Status,1712436813000,32,7,1,21,1575420030,27.00,146.0,7.0,1,1,1,22.0
Status,1712436813000,32,8,1,31,1575420030,30.90,52.0,23.0,1,1,1,25.9
Status,1712436813000,32,9,2,127,1575420030,34.20,0.0,0.0,0,0,0,29.2
Status,1712436813000,32,10,3,94,1598625020,36.80,0.0,0.0,0,0,0,31.8
Status,1712436813000,32,11,3,22,1600312450,21.70,164.0,12.0,0,1,0,16.7
Status,1712436813000,32,12,3,9,1600875010,21.30,57.0,15.0,1,1,0,16.3
Status,1712436813000,32,13,3,1,1602562560,33.10,258.0,41.0,1,1,0,28.1
Status,1712436813000,32,14,3,24,1603124990,29.90,313.0,48.0,1,1,0,24.9
Status,1712436813000,32,15,3,23,1603687550,42.00,194.0,59.0,1,1,0,37.0
Status,1712436813000,32,16,3,7,1604812540,26.70,49.0,21.0,1,1,0,21.7
Status,1712436813000,32,17,3,8,1605374980,28.40,13.0,65.0,1,1,0,23.4
Status,1712436813000,32,18,5,28,1561097980,41.00,206.0,45.0,0,1,0,36.0
Status,1712436813000,32,19,5,27,1561097980,37.80,282.0,48.0,0,1,0,32.8
Status,1712436813000,32,20,5,24,1561097980,35.80,91.0,16.0,0,1,0,30.8
Status,1712436813000,32,21,5,16,1561097980,19.20,38.0,19.0,0,1,0,14.2
Status,1712436813000,32,22,5,14,1561097980,24.90,62.0,34.0,1,1,0,19.9
Status,1712436813000,32,23,5,9,1561097980,21.00,54.0,33.0,0,1,0,16.0
Status,1712436813000,32,24,5,6,1561097980,24.30,45.0,26.0,0,1,0,19.3
Status,1712436813000,32,25,5,5,1561097980,35.00,118.0,19.0,1,1,0,30.0
Status,1712436813000,32,26,6,4,1575420030,24.10,50.0,24.0,1,1,0,19.1
Status,1712436813000,32,27,6,5,1575420030,33.10,219.0,45.0,1,1,0,28.1
Status,1712436813000,32,28,6,9,1575420030,28.20,70.0,75.0,1,1,0,23.2
Status,1712436813000,32,29,6,11,1575420030,35.20,143.0,25.0,0,1,0,30.2
Status,1712436813000,32,30,6,34,1575420030,25.50,310.0,45.0,1,1,0,20.5
Status,1712436813000,32,31,6,36,1575420030,46.10,172.0,75.0,1,1,0,41.1
Raw,1712436813417,744840698000000,18,,-1395727190719938205,0.37996649742126465,58.952737163053825,21.05074926694292,13.819931483876328,315,2,0.0,16399,593631338423543,21,36.3,629.9632568359375,0.060591042041778564,16,0.0,0.0,1575420030,,,,0,,1,1.4,31.299999999999997,0.0,0.0,,,C,792537635127474
Raw,1712436813417,744840698000000,18,,-1395727190719938205,0.37996649742126465,58.952737163053825,21.05074926694292,13.819931483876328,315,3,0.0,16399,593631348000005,13,41.4,336.221435546875,0.041391950100660324,16,0.0,0.0,1575420030,,,,0,,1,1.4,36.4,0.0,0.0,,,C,792537635127474
Raw,1712436813417,744840698000000,18,,-1395727190719938205,0.37996649742126465,58.952737163053825,21.05074926694292,13.819931483876328,315,4,0.0,16399,593631350574662,5,51.2,33.4129753112793,0.031202170997858047,16,0.0,0.0,1575420030,,,,0,,1,1.4,46.2,0.0,0.0,,,C,792537635127474
Raw,1712436813417,744840698000000,18,,-1395727190719938205,0.37996649742126465,58.952737163053825,21.05074926694292,13.819931483876328,315,6,0.0,16399,593631344272528,19,37.5,-499.39813232421875,0.0632086768746376,16,0.0,0.0,1575420030,,,,0,,1,1.4,32.5,0.0,0.0,,,C,792537635127474
Raw,1712436813417,744840698000000,18,,-1395727190719938205,0.37996649742126465,58.952737163053825,21.05074926694292,13.819931483876328,315,9,0.0,16399,593631346651804,10,44.2,-460.0707702636719,0.040399108082056046,16,0.0,0.0,1575420030,,,,0,,1,1.4,39.2,0.0,0.0,,,C,792537635127474
Raw,1712436813417,744840698000000,18,,-1395727190719938205,0.37996649742126465,58.952737163053825,21.05074926694292,13.819931483876328,315,31,0.0,16399,593631340445985,24,35.9,284.79815673828125,0.11950328946113586,16,0.0,0.0,1575420030,,,,0,,1,1.4,30.9,0.0,0.0,,,C,792537635127474
Raw,1712436813417,744840698000000,18,,-1395727190719938205,0.37996649742126465,58.952737163053825,21.05074926694292,13.819931483876328,315,1,0.0,49359,86013348435060,17,37.1,-431.8344421386719,0.0470268651843071,16,0.0,0.0,1602562560,,,,0,,3,1.9,33.1,3771.147216796875,15.326733589172363,,,C,792537635127474
Raw,1712436813417,744840698000000,18,,-1395727190719938205,0.37996649742126465,58.952737163053825,21.05074926694292,13.819931483876328,315,24,0.0,49359,86013349916982,27,33.9,-401.8925476074219,0.6299999952316284,16,0.0,0.0,1603124990,,,,0,,3,1.9,29.9,3771.147216796875,15.326733589172363,,,C,792537635127474
Raw,1712436813417,744840698000000,18,,-1395727190719938205,0.37996649742126465,58.952737163053825,21.05074926694292,13.819931483876328,315,23,0.0,49359,86013351777861,7,46.0,443.18719482421875,0.031131362542510033,16,0.0,0.0,1603687550,,,,0,,3,1.9,42.0,3771.147216796875,15.326733589172363,,,C,792537635127474
Raw,1712436813417,744840698000000,18,,-1395727190719938205,0.37996649742126465,58.952737163053825,21.05074926694292,13.819931483876328,315,7,0.0,49359,86013342904575,40,30.7,646.3944702148438,0.8104999661445618,16,0.0,0.0,1604812540,,,,0,,3,1.9,26.7,3771.147216796875,15.326733589172363,,,C,792537635127474
Raw,1712436813417,744840698000000,18,,-1395727190719938205,0.37996649742126465,58.952737163053825,21.05074926694292,13.819931483876328,315,8,0.0,49359,86013352331963,31,32.4,252.53250122070312,0.6754999756813049,16,0.0,0.0,1605374980,,,,0,,3,1.9,28.4,3771.147216796875,15.326733589172363,,,C,792537635127474
Raw,1712436813417,744840698000000,18,,-1395727190719938205,0.37996649742126465,58.952737163053825,21.05074926694292,13.819931483876328,315,28,0.0,16399,593617341454173,8,45.3,456.092529296875,0.046743378043174744,16,0.0,0.0,1561097980,,,,0,,5,1.57,41.0,-1570.7899169921875,19.245027542114258,,,I,792537635127474
Raw,1712436813417,744840698000000,18,,-1395727190719938205,0.37996649742126465,58.952737163053825,21.05074926694292,13.819931483876328,315,27,0.0,16399,593617342097014,12,42.1,-65.93783569335938,0.04806635528802872,16,0.0,0.0,1561097980,,,,0,,5,1.57,37.800000000000004,-1570.7899169921875,19.245027542114258,,,I,792537635127474
Raw,1712436813417,744840698000000,18,,-1395727190719938205,0.37996649742126465,58.952737163053825,21.05074926694292,13.819931483876328,315,24,0.0,16399,593617334187947,14,40.1,-354.71331787109375,0.03208277001976967,16,0.0,0.0,1561097980,,,,0,,5,1.57,35.800000000000004,-1570.7899169921875,19.245027542114258,,,I,792537635127474
Raw,1712436813417,744840698000000,18,,-1395727190719938205,0.37996649742126465,58.952737163053825,21.05074926694292,13.819931483876328,315,16,0.0,16399,593617284661769,106,23.5,141.341064453125,4.302500247955322,16,0.0,0.0,1561097980,,,,0,,5,1.57,19.2,-1570.7899169921875,19.245027542114258,,,I,792537635127474
Raw,1712436813417,744840698000000,18,,-1395727190719938205,0.37996649742126465,58.952737163053825,21.05074926694292,13.819931483876328,315,14,0.0,16399,593617339022095,53,29.2,463.7945861816406,0.8449999690055847,16,0.0,0.0,1561097980,,,,0,,5,1.57,24.9,-1570.7899169921875,19.245027542114258,,,I,792537635127474
Raw,1712436813417,744840698000000,18,,-1395727190719938205,0.37996649742126465,58.952737163053825,21.05074926694292,13.819931483876328,315,5,0.0,16399,593617284811356,14,39.3,13.68281364440918,1.4881000518798828,16,0.0,0.0,1561097980,,,,0,,5,1.57,35.0,-1570.7899169921875,19.245027542114258,,,I,792537635127474
Raw,1712436813417,744840698000000,18,,-1395727190719938205,0.37996649742126465,58.952737163053825,21.05074926694292,13.819931483876328,315,4,0.0,23567,593631329512450,53,28.4,491.0545654296875,2.9719855785369873,16,0.0,0.0,1575420030,,,,0,,6,1.34,24.099999999999998,-1463.7198486328125,13.034802436828613,,,C,792537635127474
Raw,1712436813417,744840698000000,18,,-1395727190719938205,0.37996649742126465,58.952737163053825,21.05074926694292,13.819931483876328,315,5,0.0,23567,593631340243284,17,37.4,-390.83905029296875,0.03190714865922928,16,0.0,0.0,1575420030,,,,0,,6,1.34,33.1,-1463.7198486328125,13.034802436828613,,,C,792537635127474
Raw,1712436813417,744840698000000,18,,-1395727190719938205,0.37996649742126465,58.952737163053825,21.05074926694292,13.819931483876328,315,9,0.0,23567,593631339483569,31,32.5,115.11386108398438,2.3117306232452393,16,0.0,0.0,1575420030,,,,0,,6,1.34,28.2,-1463.7198486328125,13.034802436828613,,,C,792537635127474
Raw,1712436813417,744840698000000,18,,-1395727190719938205,0.37996649742126465,58.952737163053825,21.05074926694292,13.819931483876328,315,11,0.0,23567,593631333306220,14,39.5,537.4889526367188,0.027514684945344925,16,0.0,0.0,1575420030,,,,0,,6,1.34,35.2,-1463.7198486328125,13.034802436828613,,,C,792537635127474
Raw,1712436813417,744840698000000,18,,-1395727190719938205,0.37996649742126465,58.952737163053825,21.05074926694292,13.819931483876328,315,34,0.0,23567,593631335382475,46,29.8,-359.4552307128906,0.8449999690055847,16,0.0,0.0,1575420030,,,,0,,6,1.34,25.5,-1463.7198486328125,13.034802436828613,,,C,792537635127474
Raw,1712436813417,744840698000000,18,,-1395727190719938205,0.37996649742126465,58.952737163053825,21.05074926694292,13.819931483876328,315,36,0.0,23567,593631339655340,5,50.4,163.96127319335938,0.023702170699834824,16,0.0,0.0,1575420030,,,,0,,6,1.34,46.1,-1463.7198486328125,13.034802436828613,,,C,792537635127474
Fix,GPS,45.0650494900,7.6758774400,314.109375,0.0,3.9091313,,1712436814000,0.086023256,,792538219410547,4.683915,0,,,
Fix,FLP,45.0650710000,7.6758598000,290.1999816894531,0.07415779,3.687,,1712436813858,0.09881821,,792538219410547,2.071742,0,,,
Status,1712436814000,32,0,1,1,1575420030,39.10,0.0,0.0,0,0,0,34.1
Status,1712436814000,32,1,1,2,1575420030,30.90,149.0,20.0,1,1,1,25.9
Status,1712436814000,32,2,1,3,1575420030,37.00,71.0,54.0,1,1,1,32.0
Status,1712436814000,32,3,1,4,1575420030,46.00,100.0,81.0,1,1,1,41.0
Status,1712436814000,32,4,1,6,1575420030,30.80,310.0,38.0,1,1,1,25.8
Status,1712436814000,32,5,1,9,1575420030,40.20,222.0,48.0,1,1,1,35.2
Status,1712436814000,32,6,1,17,1575420030,36.20,0.0,0.0,0,0,1,31.2
Status,1712436814000,32,7,1,21,1575420030,27.00,146.0,7.0,1,1,1,22.0
Status,1712436814000,32,8,1,31,1575420030,32.30,52.0,23.0,1,1,1,27.3
Status,1712436814000,32,9,2,127,1575420030,34.10,0.0,0.0,0,0,0,29.1
Status,1712436814000,32,10,3,94,1598625020,37.50,0.0,0.0,0,0,0,32.5
Status,1712436814000,32,11,3,22,1600312450,21.70,164.0,12.0,0,1,0,16.7
Status,1712436814000,32,12,3,9,1600875010,21.30,57.0,15.0,1,1,0,16.3
Status,1712436814000,32,13,3,1,1602562560,33.60,258.0,41.0,1,1,0,28.6
Status,1712436814000,32,14,3,24,1603124990,29.70,313.0,48.0,1,1,0,24.7
Status,1712436814000,32,15,3,23,1603687550,42.80,194.0,59.0,1,1,0,37.8
Status,1712436814000,32,16,3,7,1604812540,25.00,49.0,21.0,1,1,0,20.0
Status,1712436814000,32,17,3,8,1605374980,27.90,13.0,65.0,1,1,0,22.9
Status,1712436814000,32,18,5,28,1561097980,41.00,206.0,45.0,0,1,0,36.0
Status,1712436814000,32,19,5,27,1561097980,39.00,282.0,48.0,0,1,0,34.0
Status,1712436814000,32,20,5,24,1561097980,35.90,91.0,16.0,0,1,0,30.9
Status,1712436814000,32,21,5,16,1561097980,19.20,38.0,19.0,0,1,0,14.2
Status,1712436814000,32,22,5,14,1561097980,26.00,62.0,34.0,1,1,0,21.0
Status,1712436814000,32,23,5,9,1561097980,21.00,54.0,33.0,0,1,0,16.0
Status,1712436814000,32,24,5,6,1561097980,24.30,45.0,26.0,0,1,0,19.3
Status,1712436814000,32,25,5,5,1561097980,35.00,118.0,19.0,1,1,0,30.0
Status,1712436814000,32,26,6,4,1575420030,24.30,50.0,24.0,1,1,0,19.3
Status,1712436814000,32,27,6,5,1575420030,32.60,219.0,45.0,1,1,0,27.6
Status,1712436814000,32,28,6,9,1575420030,29.20,70.0,75.0,1,1,0,24.2
Status,1712436814000,32,29,6,11,1575420030,34.30,143.0,25.0,0,1,0,29.3
Status,1712436814000,32,30,6,34,1575420030,26.30,310.0,45.0,1,1,0,21.3
Status,1712436814000,32,31,6,36,1575420030,45.90,172.0,75.0,1,1,0,40.9
Raw,1712436814417,744841698000000,18,,-1395727190719938181,0.45651769638061523,54.788637498859316,23.36603800576018,10.822045428131835,315,2,0.0,16399,593632338421457,24,35.9,629.8528442382812,0.09250329434871674,16,0.0,0.0,1575420030,,,,0,,1,1.68,30.9,0.0,0.0,,,C,792538635550963
Raw,1712436814417,744841698000000,18,,-1395727190719938181,0.45651769638061523,54.788637498859316,23.36603800576018,10.822045428131835,315,3,0.0,16399,593632347998892,12,42.0,336.18304443359375,0.04049757122993469,16,0.0,0.0,1575420030,,,,0,,1,1.68,37.0,0.0,0.0,,,C,792538635550963
Raw,1712436814417,744841698000000,18,,-1395727190719938181,0.45651769638061523,54.788637498859316,23.36603800576018,10.822045428131835,315,4,0.0,16399,593632350574554,5,51.0,33.417579650878906,0.031202170997858047,16,0.0,0.0,1575420030,,,,0,,1,1.68,46.0,0.0,0.0,,,C,792538635550963
Raw,1712436814417,744841698000000,18,,-1395727190719938181,0.45651769638061523,54.788637498859316,23.36603800576018,10.822045428131835,315,6,0.0,16399,593632344274151,24,35.8,-499.4134216308594,0.11350329220294952,16,0.0,0.0,1575420030,,,,0,,1,1.68,30.799999999999997,0.0,0.0,,,C,792538635550963
Raw,1712436814417,744841698000000,18,,-1395727190719938181,0.45651769638061523,54.788637498859316,23.36603800576018,10.822045428131835,315,9,0.0,16399,593632346653336,9,45.2,-460.0841064453125,0.039809197187423706,16,0.0,0.0,1575420030,,,,0,,1,1.68,40.2,0.0,0.0,,,C,792538635550963
Raw,1712436814417,744841698000000,18,,-1395727190719938181,0.45651769638061523,54.788637498859316,23.36603800576018,10.822045428131835,315,31,0.0,16399,593632340444998,19,37.3,284.8468017578125,0.6400896906852722,16,0.0,0.0,1575420030,,,,0,,1,1.68,32.3,0.0,0.0,,,C,792538635550963
Raw,1712436814417,744841698000000,18,,-1395727190719938181,0.45651769638061523,54.788637498859316,23.36603800576018,10.822045428131835,315,1,0.0,49359,86014348436500,17,37.6,-431.8606262207031,0.0470268651843071,16,0.0,0.0,1602562560,,,,0,,3,2.19,33.6,3771.591064453125,14.970635414123535,,,C,792538635550963
Raw,1712436814417,744841698000000,18,,-1395727190719938181,0.45651769638061523,54.788637498859316,23.36603800576018,10.822045428131835,315,24,0.0,49359,86014349918360,27,33.7,-401.8832092285156,0.6299999952316284,16,0.0,0.0,1603124990,,,,0,,3,2.19,29.700000000000003,3771.591064453125,14.970635414123535,,,C,792538635550963
Raw,1712436814417,744841698000000,18,,-1395727190719938181,0.45651769638061523,54.788637498859316,23.36603800576018,10.822045428131835,315,23,0.0,49359,86014351776398,7,46.8,443.2443542480469,0.031131362542510033,16,0.0,0.0,1603687550,,,,0,,3,2.19,42.8,3771.591064453125,14.970635414123535,,,C,792538635550963
Raw,1712436814417,744841698000000,18,,-1395727190719938181,0.45651769638061523,54.788637498859316,23.36603800576018,10.822045428131835,315,7,0.0,49359,86014342902593,46,29.0,645.6285400390625,0.8704999685287476,16,0.0,0.0,1604812540,,,,0,,3,2.19,25.0,3771.591064453125,14.970635414123535,,,C,792538635550963
Raw,1712436814417,744841698000000,18,,-1395727190719938181,0.45651769638061523,54.788637498859316,23.36603800576018,10.822045428131835,315,8,0.0,49359,86014352331054,35,31.9,251.88821411132812,0.7354999780654907,16,0.0,0.0,1605374980,,,,0,,3,2.19,27.9,3771.591064453125,14.970635414123535,,,C,792538635550963
Raw,1712436814417,744841698000000,18,,-1395727190719938181,0.45651769638061523,54.788637498859316,23.36603800576018,10.822045428131835,315,28,0.0,16399,593618341452657,8,45.3,456.10345458984375,0.046743378043174744,16,0.0,0.0,1561097980,,,,0,,5,1.71,41.0,-1570.7899169921875,19.245027542114258,,,I,792538635550963
Raw,1712436814417,744841698000000,18,,-1395727190719938181,0.45651769638061523,54.788637498859316,23.36603800576018,10.822045428131835,315,27,0.0,16399,593618342097247,10,43.3,-65.90396118164062,0.04645322263240814,16,0.0,0.0,1561097980,,,,0,,5,1.71,39.0,-1570.7899169921875,19.245027542114258,,,I,792538635550963
Raw,1712436814417,744841698000000,18,,-1395727190719938181,0.45651769638061523,54.788637498859316,23.36603800576018,10.822045428131835,315,24,0.0,16399,593618334189146,14,40.2,-354.7529296875,0.03208277001976967,16,0.0,0.0,1561097980,,,,0,,5,1.71,35.900000000000006,-1570.7899169921875,19.245027542114258,,,I,792538635550963
Raw,1712436814417,744841698000000,18,,-1395727190719938181,0.45651769638061523,54.788637498859316,23.36603800576018,10.822045428131835,315,14,0.0,16399,593618339020548,40,30.3,463.0744323730469,0.7849999666213989,16,0.0,0.0,1561097980,,,,0,,5,1.71,26.0,-1570.7899169921875,19.245027542114258,,,I,792538635550963
Raw,1712436814417,744841698000000,18,,-1395727190719938181,0.45651769638061523,54.788637498859316,23.36603800576018,10.822045428131835,315,9,0.0,16399,593618287811321,80,25.3,21.460412979125977,1.8669999837875366,16,0.0,0.0,1561097980,,,,0,,5,1.71,21.0,-1570.7899169921875,19.245027542114258,,,I,792538635550963
Raw,1712436814417,744841698000000,18,,-1395727190719938181,0.45651769638061523,54.788637498859316,23.36603800576018,10.822045428131835,315,5,0.0,16399,593618284811335,14,39.3,13.298734664916992,1.4881000518798828,16,0.0,0.0,1561097980,,,,0,,5,1.71,35.0,-1570.7899169921875,19.245027542114258,,,I,792538635550963
Raw,1712436814417,744841698000000,18,,-1395727190719938181,0.45651769638061523,54.788637498859316,23.36603800576018,10.822045428131835,315,4,0.0,23567,593632329510777,53,28.6,490.88232421875,0.6884616613388062,16,0.0,0.0,1575420030,,,,0,,6,1.58,24.3,-1463.401123046875,12.75528621673584,,,C,792538635550963
Raw,1712436814417,744841698000000,18,,-1395727190719938181,0.45651769638061523,54.788637498859316,23.36603800576018,10.822045428131835,315,5,0.0,23567,593632340244603,19,36.9,-390.87750244140625,0.03409552574157715,16,0.0,0.0,1575420030,,,,0,,6,1.58,32.6,-1463.401123046875,12.75528621673584,,,C,792538635550963
Raw,1712436814417,744841698000000,18,,-1395727190719938181,0.45651769638061523,54.788637498859316,23.36603800576018,10.822045428131835,315,9,0.0,23567,593632339483146,27,33.5,114.95890808105469,0.5975269675254822,16,0.0,0.0,1575420030,,,,0,,6,1.58,29.2,-1463.401123046875,12.75528621673584,,,C,792538635550963
Raw,1712436814417,744841698000000,18,,-1395727190719938181,0.45651769638061523,54.788637498859316,23.36603800576018,10.822045428131835,315,11,0.0,23567,593632333304416,16,38.6,537.420654296875,0.028808681294322014,16,0.0,0.0,1575420030,,,,0,,6,1.58,34.300000000000004,-1463.401123046875,12.75528621673584,,,C,792538635550963
Raw,1712436814417,744841698000000,18,,-1395727190719938181,0.45651769638061523,54.788637498859316,23.36603800576018,10.822045428131835,315,34,0.0,23567,593632335383714,40,30.6,-359.8268737792969,0.03656027466058731,16,0.0,0.0,1575420030,,,,0,,6,1.58,26.3,-1463.401123046875,12.75528621673584,,,C,792538635550963
Raw,1712436814417,744841698000000,18,,-1395727190719938181,0.45651769638061523,54.788637498859316,23.36603800576018,10.822045428131835,315,36,0.0,23567,593632339654800,5,50.2,163.92181396484375,0.024006642401218414,16,0.0,0.0,1575420030,,,,0,,6,1.58,45.900000000000006,-1463.401123046875,12.75528621673584,,,C,792538635550963
Fix,GPS,45.0650506400,7.6758773700,314.048583984375,0.0,3.9515767,,1712436815000,0.086023256,,792539219429245,4.6380577,0,,,
Fix,FLP,45.0650721000,7.6758573000,290.1999816894531,0.023210397,3.687,,1712436814858,0.055897217,,792539219429245,2.0817423,0,,,
Status,1712436815000,32,0,1,1,1575420030,37.60,0.0,0.0,0,0,0,32.6
Status,1712436815000,32,1,1,2,1575420030,29.50,149.0,20.0,1,1,1,24.5
Status,1712436815000,32,2,1,3,1575420030,37.60,71.0,54.0,1,1,1,32.6
Status,1712436815000,32,3,1,4,1575420030,46.20,100.0,81.0,1,1,1,41.2
Status,1712436815000,32,4,1,6,1575420030,29.30,310.0,38.0,1,1,1,24.3
Status,1712436815000,32,5,1,9,1575420030,40.80,222.0,48.0,1,1,1,35.8
Status,1712436815000,32,6,1,17,1575420030,37.40,0.0,0.0,0,0,1,32.4
Status,1712436815000,32,7,1,21,1575420030,27.00,146.0,7.0,0,1,1,22.0
Status,1712436815000,32,8,1,31,1575420030,30.80,52.0,23.0,1,1,1,25.8
Status,1712436815000,32,9,2,127,1575420030,34.00,0.0,0.0,0,0,0,29.0
Status,1712436815000,32,10,3,94,1598625020,37.50,0.0,0.0,0,0,0,32.5
Status,1712436815000,32,11,3,22,1600312450,21.70,164.0,12.0,0,1,0,16.7
Status,1712436815000,32,12,3,9,1600875010,21.30,57.0,15.0,0,1,0,16.3
Status,1712436815000,32,13,3,1,1602562560,32.10,258.0,41.0,1,1,0,27.1
Status,1712436815000,32,14,3,24,1603124990,28.70,313.0,48.0,1,1,0,23.7
Status,1712436815000,32,15,3,23,1603687550,41.50,194.0,59.0,1,1,0,36.5
Status,1712436815000,32,16,3,7,1604812540,23.90,49.0,21.0,1,1,0,18.9
Status,1712436815000,32,17,3,8,1605374980,26.10,13.0,65.0,1,1,0,21.1
Status,1712436815000,32,18,5,28,1561097980,41.80,206.0,45.0,0,1,0,36.8
Status,1712436815000,32,19,5,27,1561097980,39.30,282.0,48.0,0,1,0,34.3
Status,1712436815000,32,20,5,24,1561097980,34.40,91.0,16.0,0,1,0,29.4
Status,1712436815000,32,21,5,16,1561097980,19.20,38.0,19.0,0,1,0,14.2
Status,1712436815000,32,22,5,14,1561097980,24.40,62.0,34.0,1,1,0,19.4
Status,1712436815000,32,23,5,9,1561097980,21.00,54.0,33.0,0,1,0,16.0
Status,1712436815000,32,24,5,6,1561097980,24.30,45.0,26.0,0,1,0,19.3
Status,1712436815000,32,25,5,5,1561097980,35.00,118.0,19.0,1,1,0,30.0
Status,1712436815000,32,26,6,4,1575420030,23.30,50.0,24.0,0,1,0,18.3
Status,1712436815000,32,27,6,5,1575420030,33.30,219.0,45.0,1,1,0,28.3
Status,1712436815000,32,28,6,9,1575420030,29.80,70.0,75.0,1,1,0,24.8
Status,1712436815000,32,29,6,11,1575420030,34.30,143.0,25.0,0,1,0,29.3
Status,1712436815000,32,30,6,34,1575420030,28.80,310.0,45.0,1,1,0,23.8
Status,1712436815000,32,31,6,36,1575420030,44.70,172.0,75.0,1,1,0,39.7
Raw,1712436815417,744842698000000,18,,-1395727190719938159,0.8976664543151855,54.24610571935773,23.23107124465732,10.812438460515768,315,2,0.0,16399,593633338419390,27,34.5,629.6912841796875,0.5764999985694885,16,0.0,0.0,1575420030,,,,0,,1,1.3,29.5,0.0,0.0,,,C,792539633658359
Raw,1712436815417,744842698000000,18,,-1395727190719938159,0.8976664543151855,54.24610571935773,23.23107124465732,10.812438460515768,315,3,0.0,16399,593633347997802,12,42.6,336.37860107421875,0.04049757122993469,16,0.0,0.0,1575420030,,,,0,,1,1.3,37.6,0.0,0.0,,,C,792539633658359
Raw,1712436815417,744842698000000,18,,-1395727190719938159,0.8976664543151855,54.24610571935773,23.23107124465732,10.812438460515768,315,4,0.0,16399,593633350574433,5,51.2,33.66836166381836,0.031202170997858047,16,0.0,0.0,1575420030,,,,0,,1,1.3,46.2,0.0,0.0,,,C,792539633658359
Raw,1712436815417,744842698000000,18,,-1395727190719938159,0.8976664543151855,54.24610571935773,23.23107124465732,10.812438460515768,315,6,0.0,16399,593633344275816,27,34.3,-498.7977600097656,0.5975000262260437,16,0.0,0.0,1575420030,,,,0,,1,1.3,29.299999999999997,0.0,0.0,,,C,792539633658359
Raw,1712436815417,744842698000000,18,,-1395727190719938159,0.8976664543151855,54.24610571935773,23.23107124465732,10.812438460515768,315,9,0.0,16399,593633346654879,9,45.8,-459.86639404296875,0.039809197187423706,16,0.0,0.0,1575420030,,,,0,,1,1.3,40.8,0.0,0.0,,,C,792539633658359
Raw,1712436815417,744842698000000,18,,-1395727190719938159,0.8976664543151855,54.24610571935773,23.23107124465732,10.812438460515768,315,31,0.0,16399,593633340444033,24,35.8,285.1040954589844,0.6903843283653259,16,0.0,0.0,1575420030,,,,0,,1,1.3,30.799999999999997,0.0,0.0,,,C,792539633658359
Raw,1712436815417,744842698000000,18,,-1395727190719938159,0.8976664543151855,54.24610571935773,23.23107124465732,10.812438460515768,315,1,0.0,49359,86015348437868,19,36.1,-431.65130615234375,0.05677325278520584,16,0.0,0.0,1602562560,,,,0,,3,2.02,32.1,3771.5703125,14.62389087677002,,,C,792539633658359
Raw,1712436815417,744842698000000,18,,-1395727190719938159,0.8976664543151855,54.24610571935773,23.23107124465732,10.812438460515768,315,24,0.0,49359,86015349919779,31,32.7,-401.08843994140625,0.6799999475479126,16,0.0,0.0,1603124990,,,,0,,3,2.02,28.700000000000003,3771.5703125,14.62389087677002,,,C,792539633658359
Raw,1712436815417,744842698000000,18,,-1395727190719938159,0.8976664543151855,54.24610571935773,23.23107124465732,10.812438460515768,315,23,0.0,49359,86015351774931,8,45.5,443.53533935546875,0.031617406755685806,16,0.0,0.0,1603687550,,,,0,,3,2.02,41.5,3771.5703125,14.62389087677002,,,C,792539633658359
Raw,1712436815417,744842698000000,18,,-1395727190719938159,0.8976664543151855,54.24610571935773,23.23107124465732,10.812438460515768,315,7,0.0,49359,86015342900511,61,27.9,645.82470703125,1.0205000638961792,16,0.0,0.0,1604812540,,,,0,,3,2.02,23.9,3771.5703125,14.62389087677002,,,C,792539633658359
Raw,1712436815417,744842698000000,18,,-1395727190719938159,0.8976664543151855,54.24610571935773,23.23107124465732,10.812438460515768,315,8,0.0,49359,86015352330179,40,30.1,252.1029815673828,0.7954999804496765,16,0.0,0.0,1605374980,,,,0,,3,2.02,26.1,3771.5703125,14.62389087677002,,,C,792539633658359
Raw,1712436815417,744842698000000,18,,-1395727190719938159,0.8976664543151855,54.24610571935773,23.23107124465732,10.812438460515768,315,28,0.0,16399,593619341451135,8,46.1,456.3106384277344,0.046743378043174744,16,0.0,0.0,1561097980,,,,0,,5,1.36,41.800000000000004,-1570.7899169921875,19.245027542114258,,,I,792539633658359
Raw,1712436815417,744842698000000,18,,-1395727190719938159,0.8976664543151855,54.24610571935773,23.23107124465732,10.812438460515768,315,27,0.0,16399,593619342097468,10,43.6,-65.69610595703125,0.04645322263240814,16,0.0,0.0,1561097980,,,,0,,5,1.36,39.300000000000004,-1570.7899169921875,19.245027542114258,,,I,792539633658359
Raw,1712436815417,744842698000000,18,,-1395727190719938159,0.8976664543151855,54.24610571935773,23.23107124465732,10.812438460515768,315,24,0.0,16399,593619334190329,16,38.7,-354.5146789550781,0.03703739121556282,16,0.0,0.0,1561097980,,,,0,,5,1.36,34.400000000000006,-1570.7899169921875,19.245027542114258,,,I,792539633658359
Raw,1712436815417,744842698000000,18,,-1395727190719938159,0.8976664543151855,54.24610571935773,23.23107124465732,10.812438460515768,315,14,0.0,16399,593619339018966,53,28.7,465.1868896484375,0.9149999618530273,16,0.0,0.0,1561097980,,,,0,,5,1.36,24.4,-1570.7899169921875,19.245027542114258,,,I,792539633658359
Raw,1712436815417,744842698000000,18,,-1395727190719938159,0.8976664543151855,54.24610571935773,23.23107124465732,10.812438460515768,315,4,0.0,23567,593633329509203,61,27.6,490.6246643066406,0.9980000257492065,16,0.0,0.0,1575420030,,,,0,,6,1.24,23.3,-1463.398193359375,12.78133487701416,,,C,792539633658359
Raw,1712436815417,744842698000000,18,,-1395727190719938159,0.8976664543151855,54.24610571935773,23.23107124465732,10.812438460515768,315,5,0.0,23567,593633340245913,17,37.6,-390.65966796875,0.03190714865922928,16,0.0,0.0,1575420030,,,,0,,6,1.24,33.300000000000004,-1463.398193359375,12.78133487701416,,,C,792539633658359
Raw,1712436815417,744842698000000,18,,-1395727190719938159,0.8976664543151855,54.24610571935773,23.23107124465732,10.812438460515768,315,9,0.0,23567,593633339482779,27,34.1,115.1773452758789,0.026645973324775696,16,0.0,0.0,1575420030,,,,0,,6,1.24,29.8,-1463.398193359375,12.78133487701416,,,C,792539633658359
Raw,1712436815417,744842698000000,18,,-1395727190719938159,0.8976664543151855,54.24610571935773,23.23107124465732,10.812438460515768,315,11,0.0,23567,593633333302614,16,38.6,537.6266479492188,0.028808681294322014,16,0.0,0.0,1575420030,,,,0,,6,1.24,34.300000000000004,-1463.398193359375,12.78133487701416,,,C,792539633658359
Raw,1712436815417,744842698000000,18,,-1395727190719938159,0.8976664543151855,54.24610571935773,23.23107124465732,10.812438460515768,315,34,0.0,23567,593633335384921,31,33.1,-359.58294677734375,0.02820638194680214,16,0.0,0.0,1575420030,,,,0,,6,1.24,28.8,-1463.398193359375,12.78133487701416,,,C,792539633658359
Raw,1712436815417,744842698000000,18,,-1395727190719938159,0.8976664543151855,54.24610571935773,23.23107124465732,10.812438460515768,315,36,0.0,23567,593633339654239,6,49.0,164.1485595703125,0.024292081594467163,16,0.0,0.0,1575420030,,,,0,,6,1.24,44.7,-1463.398193359375,12.78133487701416,,,C,792539633658359
Fix,GPS,45.0650508800,7.6758773200,314.05548095703125,0.0,3.870687,,1712436816000,0.086023256,,792540219514296,4.408474,0,,,
Fix,FLP,45.0650718000,7.6758584000,290.1999816894531,0.024184639,3.745,,1712436815857,0.05954653,,792540219514296,2.091743,0,,,
Status,1712436816000,33,0,1,1,1575420030,36.00,0.0,0.0,0,0,0,31.0
Status,1712436816000,33,1,1,2,1575420030,28.40,149.0,20.0,1,1,1,23.4
Status,1712436816000,33,2,1,3,1575420030,38.60,71.0,54.0,1,1,1,33.6
Status,1712436816000,33,3,1,4,1575420030,46.30,100.0,81.0,1,1,1,41.3
Status,1712436816000,33,4,1,6,1575420030,24.10,310.0,38.0,1,1,1,19.1
Status,1712436816000,33,5,1,9,1575420030,41.40,222.0,48.0,1,1,1,36.4
Status,1712436816000,33,6,1,17,1575420030,35.90,0.0,0.0,0,0,1,30.9
Status,1712436816000,33,7,1,19,1575420030,32.60,265.0,35.0,1,1,1,27.6
Status,1712436816000,33,8,1,21,1575420030,27.00,146.0,7.0,0,1,1,22.0
Status,1712436816000,33,9,1,31,1575420030,28.70,52.0,23.0,1,1,1,23.7
Status,1712436816000,33,10,2,127,1575420030,34.00,0.0,0.0,0,0,0,29.0
Status,1712436816000,33,11,3,94,1598625020,35.50,0.0,0.0,0,0,0,30.5
Status,1712436816000,33,12,3,22,1600312450,21.70,164.0,12.0,0,1,0,16.7
Status,1712436816000,33,13,3,9,1600875010,21.30,57.0,15.0,0,1,0,16.3
Status,1712436816000,33,14,3,1,1602562560,31.30,258.0,41.0,1,1,0,26.3
Status,1712436816000,33,15,3,24,1603124990,28.70,313.0,48.0,1,1,0,23.7
Status,1712436816000,33,16,3,23,1603687550,40.60,194.0,59.0,1,1,0,35.6
Status,1712436816000,33,17,3,7,1604812540,23.90,49.0,21.0,1,1,0,18.9
Status,1712436816000,33,18,3,8,1605374980,26.10,13.0,65.0,1,1,0,21.1
Status,1712436816000,33,19,5,28,1561097980,41.30,206.0,45.0,0,1,0,36.3
Status,1712436816000,33,20,5,27,1561097980,33.20,282.0,48.0,0,1,0,28.2
Status,1712436816000,33,21,5,24,1561097980,36.00,91.0,16.0,0,1,0,31.0
Status,1712436816000,33,22,5,16,1561097980,19.20,38.0,19.0,0,1,0,14.2
Status,1712436816000,33,23,5,14,1561097980,24.40,62.0,34.0,1,1,0,19.4
Status,1712436816000,33,24,5,9,1561097980,21.00,54.0,33.0,0,1,0,16.0
Status,1712436816000,33,25,5,6,1561097980,24.30,45.0,26.0,0,1,0,19.3
Status,1712436816000,33,26,5,5,1561097980,35.00,118.0,19.0,1,1,0,30.0
Status,1712436816000,33,27,6,4,1575420030,23.30,50.0,24.0,0,1,0,18.3
Status,1712436816000,33,28,6,5,1575420030,26.90,219.0,45.0,1,1,0,21.9
Status,1712436816000,33,29,6,9,1575420030,29.90,70.0,75.0,1,1,0,24.9
Status,1712436816000,33,30,6,11,1575420030,33.90,143.0,25.0,0,1,0,28.9
Status,1712436816000,33,31,6,34,1575420030,30.10,310.0,45.0,1,1,0,25.1
Status,1712436816000,33,32,6,36,1575420030,44.50,172.0,75.0,1,1,0,39.5
Raw,1712436816417,744843698000000,18,,-1395727190719938132,0.6787784099578857,51.92499520489946,23.587636074508186,10.822555997106132,315,2,0.0,16399,593634338417332,31,33.4,630.1004028320312,0.6165000200271606,16,0.0,0.0,1575420030,,,,0,,1,0.82,28.4,0.0,0.0,,,C,792540640519713
Raw,1712436816417,744843698000000,18,,-1395727190719938132,0.6787784099578857,51.92499520489946,23.587636074508186,10.822555997106132,315,3,0.0,16399,593634347996647,11,43.6,336.8447570800781,0.03969833627343178,16,0.0,0.0,1575420030,,,,0,,1,0.82,38.6,0.0,0.0,,,C,792540640519713
Raw,1712436816417,744843698000000,18,,-1395727190719938132,0.6787784099578857,51.92499520489946,23.587636074508186,10.822555997106132,315,4,0.0,16399,593634350574315,5,51.3,34.18820571899414,0.031202170997858047,16,0.0,0.0,1575420030,,,,0,,1,0.82,46.3,0.0,0.0,,,C,792540640519713
Raw,1712436816417,744843698000000,18,,-1395727190719938132,0.6787784099578857,51.92499520489946,23.587636074508186,10.822555997106132,315,6,0.0,16399,593634344277555,53,29.1,-499.1498107910156,0.8675000071525574,16,0.0,0.0,1575420030,,,,0,,1,0.82,24.1,0.0,0.0,,,C,792540640519713
Raw,1712436816417,744843698000000,18,,-1395727190719938132,0.6787784099578857,51.92499520489946,23.587636074508186,10.822555997106132,315,9,0.0,16399,593634346656408,8,46.4,-459.3697509765625,0.03920025750994682,16,0.0,0.0,1575420030,,,,0,,1,0.82,41.4,0.0,0.0,,,C,792540640519713
Raw,1712436816417,744843698000000,18,,-1395727190719938132,0.6787784099578857,51.92499520489946,23.587636074508186,10.822555997106132,315,19,0.0,16399,593634344743760,19,37.6,224.78842163085938,145.6528778076172,16,0.0,0.0,1575420030,,,,0,,1,0.82,32.6,0.0,0.0,,,C,792540640519713
Raw,1712436816417,744843698000000,18,,-1395727190719938132,0.6787784099578857,51.92499520489946,23.587636074508186,10.822555997106132,315,31,0.0,16399,593634340443100,31,33.7,285.231201171875,0.643500030040741,16,0.0,0.0,1575420030,,,,0,,1,0.82,28.700000000000003,0.0,0.0,,,C,792540640519713
Raw,1712436816417,744843698000000,18,,-1395727190719938132,0.6787784099578857,51.92499520489946,23.587636074508186,10.822555997106132,315,1,0.0,49359,86016348439353,21,35.3,-431.3538513183594,4.003328800201416,16,0.0,0.0,1602562560,,,,0,,3,-2.35,31.299999999999997,3771.318115234375,14.295051574707031,,,C,792540640519713
Raw,1712436816417,744843698000000,18,,-1395727190719938132,0.6787784099578857,51.92499520489946,23.587636074508186,10.822555997106132,315,23,0.0,49359,86016351773425,9,44.6,444.1108093261719,0.03221561014652252,16,0.0,0.0,1603687550,,,,0,,3,-2.35,40.6,3771.318115234375,14.295051574707031,,,C,792540640519713
Raw,1712436816417,744843698000000,18,,-1395727190719938132,0.6787784099578857,51.92499520489946,23.587636074508186,10.822555997106132,315,28,0.0,16399,593620341449609,8,45.6,456.7904357910156,0.046743378043174744,16,0.0,0.0,1561097980,,,,0,,5,1.29,41.300000000000004,-1570.7899169921875,19.245027542114258,,,I,792540640519713
Raw,1712436816417,744843698000000,18,,-1395727190719938132,0.6787784099578857,51.92499520489946,23.587636074508186,10.822555997106132,315,27,0.0,16399,593620342097700,17,37.5,-65.11058807373047,1.2086762189865112,16,0.0,0.0,1561097980,,,,0,,5,1.29,33.2,-1570.7899169921875,19.245027542114258,,,I,792540640519713
Raw,1712436816417,744843698000000,18,,-1395727190719938132,0.6787784099578857,51.92499520489946,23.587636074508186,10.822555997106132,315,24,0.0,16399,593620334191528,13,40.3,-354.0433654785156,0.030968941748142242,16,0.0,0.0,1561097980,,,,0,,5,1.29,36.0,-1570.7899169921875,19.245027542114258,,,I,792540640519713
Raw,1712436816417,744843698000000,18,,-1395727190719938132,0.6787784099578857,51.92499520489946,23.587636074508186,10.822555997106132,315,5,0.0,23567,593634340247229,40,31.2,-390.1125183105469,1.7537033557891846,16,0.0,0.0,1575420030,,,,0,,6,0.69,26.9,-1463.3941650390625,12.807287216186523,,,C,792540640519713
Raw,1712436816417,744843698000000,18,,-1395727190719938132,0.6787784099578857,51.92499520489946,23.587636074508186,10.822555997106132,315,9,0.0,23567,593634339482382,27,34.2,115.80962371826172,2.8810510635375977,16,0.0,0.0,1575420030,,,,0,,6,0.69,29.900000000000002,-1463.3941650390625,12.807287216186523,,,C,792540640519713
Raw,1712436816417,744843698000000,18,,-1395727190719938132,0.6787784099578857,51.92499520489946,23.587636074508186,10.822555997106132,315,11,0.0,23567,593634333300824,17,38.2,538.0693359375,0.030407149344682693,16,0.0,0.0,1575420030,,,,0,,6,0.69,33.900000000000006,-1463.3941650390625,12.807287216186523,,,C,792540640519713
Raw,1712436816417,744843698000000,18,,-1395727190719938132,0.6787784099578857,51.92499520489946,23.587636074508186,10.822555997106132,315,34,0.0,23567,593634335386161,24,34.4,-359.01666259765625,1.1671520471572876,16,0.0,0.0,1575420030,,,,0,,6,0.69,30.099999999999998,-1463.3941650390625,12.807287216186523,,,C,792540640519713
Raw,1712436816417,744843698000000,18,,-1395727190719938132,0.6787784099578857,51.92499520489946,23.587636074508186,10.822555997106132,315,36,0.0,23567,593634339653701,6,48.8,164.6438446044922,0.024292081594467163,16,0.0,0.0,1575420030,,,,0,,6,0.69,44.5,-1463.3941650390625,12.807287216186523,,,C,792540640519713
Fix,GPS,45.0650508700,7.6758772600,314.06744384765625,0.0,3.9037824,,1712436817000,0.086023256,,792541219323254,4.431874,0,,,
Fix,FLP,45.0650712000,7.6758592000,290.1999816894531,0.021679953,3.781,,1712436816857,0.053303413,,792541219323254,2.1017413,0,,,
Status,1712436817000,33,0,1,1,1575420030,37.70,0.0,0.0,0,0,0,32.7
Status,1712436817000,33,1,1,2,1575420030,24.90,149.0,20.0,1,1,1,19.9
Status,1712436817000,33,2,1,3,1575420030,41.10,71.0,54.0,1,1,1,36.1
Status,1712436817000,33,3,1,4,1575420030,47.60,100.0,81.0,1,1,1,42.6
Status,1712436817000,33,4,1,6,1575420030,24.10,310.0,38.0,1,1,1,19.1
Status,1712436817000,33,5,1,9,1575420030,40.30,222.0,48.0,1,1,1,35.3
Status,1712436817000,33,6,1,17,1575420030,37.00,0.0,0.0,0,0,1,32.0
Status,1712436817000,33,7,1,19,1575420030,34.10,265.0,35.0,1,1,1,29.1
Status,1712436817000,33,8,1,21,1575420030,27.00,146.0,7.0,0,1,1,22.0
Status,1712436817000,33,9,1,31,1575420030,29.90,52.0,23.0,1,1,1,24.9
Status,1712436817000,33,10,2,127,1575420030,34.00,0.0,0.0,0,0,0,29.0
Status,1712436817000,33,11,3,94,1598625020,36.80,0.0,0.0,0,0,0,31.8
Status,1712436817000,33,12,3,22,1600312450,21.70,164.0,12.0,0,1,0,16.7
Status,1712436817000,33,13,3,9,1600875010,21.30,57.0,15.0,0,1,0,16.3
Status,1712436817000,33,14,3,1,1602562560,33.40,258.0,41.0,1,1,0,28.4
Status,1712436817000,33,15,3,24,1603124990,28.70,313.0,48.0,1,1,0,23.7
Status,1712436817000,33,16,3,23,1603687550,40.40,194.0,59.0,1,1,0,35.4
Status,1712436817000,33,17,3,7,1604812540,20.80,49.0,21.0,1,1,0,15.8
Status,1712436817000,33,18,3,8,1605374980,26.10,13.0,65.0,1,1,0,21.1
Status,1712436817000,33,19,5,28,1561097980,42.60,206.0,45.0,0,1,0,37.6
Status,1712436817000,33,20,5,27,1561097980,36.60,282.0,48.0,0,1,0,31.6
Status,1712436817000,33,21,5,24,1561097980,35.30,91.0,16.0,0,1,0,30.3
Status,1712436817000,33,22,5,16,1561097980,20.10,38.0,19.0,0,1,0,15.1
Status,1712436817000,33,23,5,14,1561097980,22.70,62.0,34.0,1,1,0,17.7
Status,1712436817000,33,24,5,9,1561097980,21.00,54.0,33.0,0,1,0,16.0
Status,1712436817000,33,25,5,6,1561097980,24.30,45.0,26.0,0,1,0,19.3
Status,1712436817000,33,26,5,5,1561097980,28.40,118.0,19.0,1,1,0,23.4
Status,1712436817000,33,27,6,4,1575420030,21.90,50.0,24.0,0,1,0,16.9
Status,1712436817000,33,28,6,5,1575420030,25.90,219.0,45.0,1,1,0,20.9
Status,1712436817000,33,29,6,9,1575420030,31.90,70.0,75.0,1,1,0,26.9
Status,1712436817000,33,30,6,11,1575420030,36.40,143.0,25.0,0,1,0,31.4
Status,1712436817000,33,31,6,34,1575420030,31.00,310.0,45.0,1,1,0,26.0
Status,1712436817000,33,32,6,36,1575420030,45.60,172.0,75.0,1,1,0,40.6
Raw,1712436817417,744844698000000,18,,-1395727190719938103,0.07666635513305664,52.84863436827436,24.8976097312609,10.845686680310875,315,2,0.0,16399,593635338415237,53,29.9,630.1384887695312,0.8464999794960022,16,0.0,0.0,1575420030,,,,0,,1,1.6,24.9,0.0,0.0,,,C,792541637037681
Raw,1712436817417,744844698000000,18,,-1395727190719938103,0.07666635513305664,52.84863436827436,24.8976097312609,10.845686680310875,315,3,0.0,16399,593635347995523,8,46.1,335.81060791015625,0.03770025447010994,16,0.0,0.0,1575420030,,,,0,,1,1.6,41.1,0.0,0.0,,,C,792541637037681
Raw,1712436817417,744844698000000,18,,-1395727190719938103,0.07666635513305664,52.84863436827436,24.8976097312609,10.845686680310875,315,4,0.0,16399,593635350574214,4,52.6,33.207759857177734,0.03080255538225174,16,0.0,0.0,1575420030,,,,0,,1,1.6,47.6,0.0,0.0,,,C,792541637037681
Raw,1712436817417,744844698000000,18,,-1395727190719938103,0.07666635513305664,52.84863436827436,24.8976097312609,10.845686680310875,315,9,0.0,16399,593635346657943,9,45.3,-460.3979797363281,0.039809197187423706,16,0.0,0.0,1575420030,,,,0,,1,1.6,40.3,0.0,0.0,,,C,792541637037681
Raw,1712436817417,744844698000000,18,,-1395727190719938103,0.07666635513305664,52.84863436827436,24.8976097312609,10.845686680310875,315,19,0.0,16399,593635344743004,16,39.1,223.8151397705078,0.05190523341298103,16,0.0,0.0,1575420030,,,,0,,1,1.6,34.1,0.0,0.0,,,C,792541637037681
