# 
# Header Description:
# 
# Version: v3.0.6.4 Platform: 14 Manufacturer: samsung Model: SM-A528B
# 
# Raw,utcTimeMillis,TimeNanos,LeapSecond,TimeUncertaintyNanos,FullBiasNanos,BiasNanos,BiasUncertaintyNanos,DriftNanosPerSecond,DriftUncertaintyNanosPerSecond,HardwareClockDiscontinuityCount,Svid,TimeOffsetNanos,State,ReceivedSvTimeNanos,ReceivedSvTimeUncertaintyNanos,Cn0DbHz,PseudorangeRateMetersPerSecond,PseudorangeRateUncertaintyMetersPerSecond,AccumulatedDeltaRangeState,AccumulatedDeltaRangeMeters,AccumulatedDeltaRangeUncertaintyMeters,CarrierFrequencyHz,CarrierCycles,CarrierPhase,CarrierPhaseUncertainty,MultipathIndicator,SnrInDb,ConstellationType,AgcDb,BasebandCn0DbHz,FullInterSignalBiasNanos,FullInterSignalBiasUncertaintyNanos,SatelliteInterSignalBiasNanos,SatelliteInterSignalBiasUncertaintyNanos,CodeType,ChipsetElapsedRealtimeNanos
# 
# UncalAccel,utcTimeMillis,elapsedRealtimeNanos,UncalAccelXMps2,UncalAccelYMps2,UncalAccelZMps2,BiasXMps2,BiasYMps2,BiasZMps2
# 
# Accel,utcTimeMillis,elapsedRealtimeNanos,AccelXMps2,AccelYMps2,AccelZMps2
# 
# UncalGyro,utcTimeMillis,elapsedRealtimeNanos,UncalGyroXRadPerSec,UncalGyroYRadPerSec,UncalGyroZRadPerSec,DriftXRadPerSec,DriftYRadPerSec,DriftZRadPerSec
# 
# Gyro,utcTimeMillis,elapsedRealtimeNanos,GyroXRadPerSec,GyroYRadPerSec,GyroZRadPerSec
# 
# UncalMag,utcTimeMillis,elapsedRealtimeNanos,UncalMagXMicroT,UncalMagYMicroT,UncalMagZMicroT,BiasXMicroT,BiasYMicroT,BiasZMicroT
# 
# Mag,utcTimeMillis,elapsedRealtimeNanos,MagXMicroT,MagYMicroT,MagZMicroT
# 
# OrientationDeg,utcTimeMillis,elapsedRealtimeNanos,yawDeg,rollDeg,pitchDeg
# 
# Fix,Provider,LatitudeDegrees,LongitudeDegrees,AltitudeMeters,SpeedMps,AccuracyMeters,BearingDegrees,UnixTimeMillis,SpeedAccuracyMps,BearingAccuracyDegrees,elapsedRealtimeNanos,VerticalAccuracyMeters,MockLocation,NumberOfUsedSignals,VerticalSpeedAccuracyMps,SolutionType
# 
# Nav,Svid,Type,Status,MessageId,Sub-messageId,Data(Bytes)
# 
# Status,UnixTimeMillis,SignalCount,SignalIndex,ConstellationType,Svid,CarrierFrequencyHz,Cn0DbHz,AzimuthDegrees,ElevationDegrees,UsedInFix,HasAlmanacData,HasEphemerisData,BasebandCn0DbHz
# 
# Agc,utcTimeMillis,TimeNanos,LeapSecond,TimeUncertaintyNanos,FullBiasNanos,BiasNanos,BiasUncertaintyNanos,DriftNanosPerSecond,DriftUncertaintyNanosPerSecond,HardwareClockDiscontinuityCount,AgcDb,CarrierFrequencyHz,ConstellationType
# 
Fix,FLP,45.0687198000,7.6825155000,289.6999816894531,0.31111398,13.854,129.16006,1712439660850,1.0568349,79.97975,795385212821047,1.0195782,0,,,
Status,,23,0,1,3,1575420030,38.90,92.0,37.0,1,1,1,33.9
Status,,23,1,1,4,1575420030,40.30,53.0,62.0,1,1,1,35.3
Status,,23,2,1,6,1575420030,40.30,295.0,56.0,1,1,1,35.3
Status,,23,3,1,7,1575420030,38.40,175.0,18.0,1,1,1,33.4
Status,,23,4,1,9,1575420030,29.50,242.0,70.0,1,1,1,24.5
Status,,23,5,1,11,1575420030,25.90,314.0,21.0,1,1,1,20.9
Status,,23,6,1,19,1575420030,27.70,243.0,23.0,1,1,1,22.7
Status,,23,7,3,2,1599750020,24.90,258.0,13.0,0,1,0,19.9
Status,,23,8,3,1,1602562560,36.60,292.0,57.0,1,1,0,31.6
Status,,23,9,3,24,1603124990,24.40,270.0,58.0,1,1,0,19.4
Status,,23,10,3,23,1603687550,31.80,189.0,31.0,1,1,1,26.8
Status,,23,11,3,17,1604249980,27.00,329.0,22.0,1,1,0,22.0
Status,,23,12,5,33,1561097980,28.60,66.0,44.0,0,1,0,23.6
Status,,23,13,5,30,1561097980,35.20,310.0,24.0,0,1,0,30.2
Status,,23,14,5,28,1561097980,30.90,198.0,25.0,1,1,1,25.9
Status,,23,15,5,27,1561097980,31.00,252.0,44.0,1,1,1,26.0
Status,,23,16,5,25,1561097980,38.00,130.0,20.0,0,1,0,33.0
Status,,23,17,5,5,1561097980,36.80,119.0,19.0,1,1,0,31.8
Status,,23,18,6,5,1575420030,27.80,235.0,62.0,0,1,0,22.8
Status,,23,19,6,9,1575420030,38.80,53.0,59.0,1,1,0,33.8
Status,,23,20,6,11,1575420030,22.80,151.0,9.0,0,1,1,17.8
Status,,23,21,6,34,1575420030,40.40,294.0,59.0,1,1,0,35.4
Status,,23,22,6,36,1575420030,32.40,173.0,54.0,1,1,0,27.4
Raw,1712439661417,747634614000000,18,,-1395727244803960702,0.8994717597961426,153.48989109043032,-6.351918227064204,15.461173743167674,319,3,0.0,16399,596479344186962,11,43.9,472.5346374511719,0.04419833794236183,16,0.0,0.0,1575420030,,,,0,,1,0.74,38.9,0.0,0.0,,,C,795385630018911
Raw,1712439661417,747634614000000,18,,-1395727244803960702,0.8994717597961426,153.48989109043032,-6.351918227064204,15.461173743167674,319,4,0.0,16399,596479349005898,9,45.3,294.4652099609375,0.03530919551849365,16,0.0,0.0,1575420030,,,,0,,1,0.74,40.3,0.0,0.0,,,C,795385630018911
Raw,1712439661417,747634614000000,18,,-1395727244803960702,0.8994717597961426,153.48989109043032,-6.351918227064204,15.461173743167674,319,6,0.0,16399,596479347991638,9,45.3,-250.9218292236328,0.03830919414758682,16,0.0,0.0,1575420030,,,,0,,1,0.74,40.3,0.0,0.0,,,C,795385630018911
Raw,1712439661417,747634614000000,18,,-1395727244803960702,0.8994717597961426,153.48989109043032,-6.351918227064204,15.461173743167674,319,7,0.0,16399,596479338003637,11,43.4,-627.3521728515625,0.023198336362838745,16,0.0,0.0,1575420030,,,,0,,1,0.74,38.4,0.0,0.0,,,C,795385630018911
Raw,1712439661417,747634614000000,18,,-1395727244803960702,0.8994717597961426,153.48989109043032,-6.351918227064204,15.461173743167674,319,9,0.0,16399,596479349950522,27,34.5,-217.54373168945312,0.5900000333786011,16,0.0,0.0,1575420030,,,,0,,1,0.74,29.5,0.0,0.0,,,C,795385630018911
Raw,1712439661417,747634614000000,18,,-1395727244803960702,0.8994717597961426,153.48989109043032,-6.351918227064204,15.461173743167674,319,11,0.0,16399,596479338659553,46,30.9,-611.3469848632812,0.7864999771118164,16,0.0,0.0,1575420030,,,,0,,1,0.74,25.9,0.0,0.0,,,C,795385630018911
Raw,1712439661417,747634614000000,18,,-1395727244803960702,0.8994717597961426,153.48989109043032,-6.351918227064204,15.461173743167674,319,2,0.0,49359,2461340158003,53,28.9,-582.6908569335938,0.9434999823570251,16,0.0,0.0,1599750020,,,,0,,3,-0.84,24.9,3776.3046875,16.504472732543945,,,C,795385630018911
Raw,1712439661417,747634614000000,18,,-1395727244803960702,0.8994717597961426,153.48989109043032,-6.351918227064204,15.461173743167674,319,1,0.0,49359,2461351562796,13,40.6,-215.49798583984375,1.718885898590088,16,0.0,0.0,1602562560,,,,0,,3,-0.84,36.6,3776.3046875,16.504472732543945,,,C,795385630018911
Raw,1712439661417,747634614000000,18,,-1395727244803960702,0.8994717597961426,153.48989109043032,-6.351918227064204,15.461173743167674,319,24,0.0,49359,2461351701509,53,28.4,54.0257568359375,0.9269999861717224,16,0.0,0.0,1603124990,,,,0,,3,-0.84,24.4,3776.3046875,16.504472732543945,,,C,795385630018911
Raw,1712439661417,747634614000000,18,,-1395727244803960702,0.8994717597961426,153.48989109043032,-6.351918227064204,15.461173743167674,319,23,0.0,49359,2461345937699,21,35.8,763.9219360351562,7.369952201843262,16,0.0,0.0,1603687550,,,,0,,3,-0.84,31.799999999999997,3776.3046875,16.504472732543945,,,C,795385630018911
Raw,1712439661417,747634614000000,18,,-1395727244803960702,0.8994717597961426,153.48989109043032,-6.351918227064204,15.461173743167674,319,33,0.0,16399,596465340040070,31,32.9,368.3605651855469,1.3865000009536743,16,0.0,0.0,1561097980,,,,0,,5,0.15,28.599999999999998,-1566.226318359375,16.478408813476562,,,I,795385630018911
Raw,1712439661417,747634614000000,18,,-1395727244803960702,0.8994717597961426,153.48989109043032,-6.351918227064204,15.461173743167674,319,30,0.0,16399,596465335548789,14,39.5,-285.94012451171875,1.758938193321228,16,0.0,0.0,1561097980,,,,0,,5,0.15,35.2,-1566.226318359375,16.478408813476562,,,I,795385630018911
Raw,1712439661417,747634614000000,18,,-1395727244803960702,0.8994717597961426,153.48989109043032,-6.351918227064204,15.461173743167674,319,28,0.0,16399,596465336340849,24,35.2,609.64794921875,1.8245559930801392,16,0.0,0.0,1561097980,,,,0,,5,0.15,30.900000000000002,-1566.226318359375,16.478408813476562,,,I,795385630018911
Raw,1712439661417,747634614000000,18,,-1395727244803960702,0.8994717597961426,153.48989109043032,-6.351918227064204,15.461173743167674,319,27,0.0,16399,596465341323550,21,35.3,235.79701232910156,4.695443153381348,16,0.0,0.0,1561097980,,,,0,,5,0.15,30.999999999999996,-1566.226318359375,16.478408813476562,,,I,795385630018911
Raw,1712439661417,747634614000000,18,,-1395727244803960702,0.8994717597961426,153.48989109043032,-6.351918227064204,15.461173743167674,319,25,0.0,16399,596465334992346,11,42.3,-532.7313232421875,0.6053782105445862,16,0.0,0.0,1561097980,,,,0,,5,0.15,38.0,-1566.226318359375,16.478408813476562,,,I,795385630018911
Raw,1712439661417,747634614000000,18,,-1395727244803960702,0.8994717597961426,153.48989109043032,-6.351918227064204,15.461173743167674,319,5,0.0,16399,596465284775093,13,41.1,5.972428321838379,1.2364000082015991,16,0.0,0.0,1561097980,,,,0,,5,0.15,36.800000000000004,-1566.226318359375,16.478408813476562,,,I,795385630018911
Raw,1712439661417,747634614000000,18,,-1395727244803960702,0.8994717597961426,153.48989109043032,-6.351918227064204,15.461173743167674,319,5,0.0,23567,596479343289940,35,32.1,-239.83631896972656,3.455338478088379,16,0.0,0.0,1575420030,,,,0,,6,1.06,27.8,-1468.73681640625,13.196309089660645,,,C,795385630018911
Raw,1712439661417,747634614000000,18,,-1395727244803960702,0.8994717597961426,153.48989109043032,-6.351918227064204,15.461173743167674,319,9,0.0,23567,596479337658802,11,43.1,269.57440185546875,0.02469833754003048,16,0.0,0.0,1575420030,,,,0,,6,1.06,38.800000000000004,-1468.73681640625,13.196309089660645,,,C,795385630018911
Raw,1712439661417,747634614000000,18,,-1395727244803960702,0.8994717597961426,153.48989109043032,-6.351918227064204,15.461173743167674,319,11,0.0,23567,596479327897051,70,27.1,600.129150390625,1.0010000467300415,16,0.0,0.0,1575420030,,,,0,,6,1.06,22.8,-1468.73681640625,13.196309089660645,,,C,795385630018911
Raw,1712439661417,747634614000000,18,,-1395727244803960702,0.8994717597961426,153.48989109043032,-6.351918227064204,15.461173743167674,319,34,0.0,23567,596479338057791,9,44.7,-178.65591430664062,0.02180919423699379,16,0.0,0.0,1575420030,,,,0,,6,1.06,40.400000000000006,-1468.73681640625,13.196309089660645,,,C,795385630018911
Raw,1712439661417,747634614000000,18,,-1395727244803960702,0.8994717597961426,153.48989109043032,-6.351918227064204,15.461173743167674,319,36,0.0,23567,596479337149624,19,36.7,371.335693359375,3.457881450653076,16,0.0,0.0,1575420030,,,,0,,6,1.06,32.400000000000006,-1468.73681640625,13.196309089660645,,,C,795385630018911
Fix,GPS,45.0687025200,7.6825167700,282.7535400390625,0.52,8.56164,129.0,1712439662000,0.99201816,67.913124,795386212612349,15.190901,0,,,
Fix,FLP,45.0687083000,7.6825176000,289.6999816894531,0.4897364,12.09,129.55043,1712439661850,0.99201816,67.913124,795386212612349,1.0295762,0,,,
Status,1712439662000,25,0,1,3,1575420030,39.90,92.0,37.0,1,1,1,34.9
Status,1712439662000,25,1,1,4,1575420030,44.00,53.0,62.0,1,1,1,39.0
Status,1712439662000,25,2,1,6,1575420030,38.00,295.0,56.0,1,1,1,33.0
Status,1712439662000,25,3,1,7,1575420030,38.10,175.0,18.0,1,1,1,33.1
Status,1712439662000,25,4,1,9,1575420030,28.00,242.0,70.0,1,1,1,23.0
Status,1712439662000,25,5,1,11,1575420030,24.10,314.0,21.0,1,1,1,19.1
Status,1712439662000,25,6,1,17,1575420030,22.90,221.0,12.0,0,1,1,17.9
Status,1712439662000,25,7,1,19,1575420030,25.50,243.0,23.0,1,1,1,20.5
Status,1712439662000,25,8,3,2,1599750020,24.90,258.0,13.0,0,1,0,19.9
Status,1712439662000,25,9,3,1,1602562560,33.70,292.0,57.0,1,1,0,28.7
Status,1712439662000,25,10,3,24,1603124990,24.90,270.0,58.0,1,1,0,19.9
Status,1712439662000,25,11,3,23,1603687550,27.20,189.0,31.0,1,1,1,22.2
Status,1712439662000,25,12,3,17,1604249980,27.00,329.0,22.0,1,1,0,22.0
Status,1712439662000,25,13,3,8,1605374980,23.60,42.0,45.0,0,1,0,18.6
Status,1712439662000,25,14,5,33,1561097980,28.80,66.0,44.0,0,1,0,23.8
Status,1712439662000,25,15,5,30,1561097980,31.20,310.0,24.0,0,1,0,26.2
Status,1712439662000,25,16,5,28,1561097980,28.00,198.0,25.0,1,1,1,23.0
Status,1712439662000,25,17,5,27,1561097980,29.00,252.0,44.0,1,1,1,24.0
Status,1712439662000,25,18,5,25,1561097980,30.80,130.0,20.0,0,1,0,25.8
Status,1712439662000,25,19,5,5,1561097980,35.80,119.0,19.0,1,1,0,30.8
Status,1712439662000,25,20,6,5,1575420030,25.60,235.0,62.0,1,1,0,20.6
Status,1712439662000,25,21,6,9,1575420030,38.40,53.0,59.0,1,1,0,33.4
Status,1712439662000,25,22,6,11,1575420030,22.80,151.0,9.0,0,1,1,17.8
Status,1712439662000,25,23,6,34,1575420030,37.10,294.0,59.0,1,1,0,32.1
Status,1712439662000,25,24,6,36,1575420030,30.80,173.0,54.0,1,1,0,25.8
Raw,1712439662417,747635614000000,18,,-1395727244803960716,0.5459282398223877,139.81973461341113,-2.674503835189696,16.041480713347088,319,3,0.0,16399,596480344185417,10,44.9,471.9076843261719,0.6142801642417908,16,0.0,0.0,1575420030,,,,0,,1,0.77,39.9,0.0,0.0,,,C,795386632818130
Raw,1712439662417,747635614000000,18,,-1395727244803960716,0.5459282398223877,139.81973461341113,-2.674503835189696,16.041480713347088,319,4,0.0,16399,596480349004927,6,49.0,293.7599182128906,0.03329208120703697,16,0.0,0.0,1575420030,,,,0,,1,0.77,44.0,0.0,0.0,,,C,795386632818130
Raw,1712439662417,747635614000000,18,,-1395727244803960716,0.5459282398223877,139.81973461341113,-2.674503835189696,16.041480713347088,319,6,0.0,16399,596480347992477,11,43.0,-251.63136291503906,0.03969833627343178,16,0.0,0.0,1575420030,,,,0,,1,0.77,38.0,0.0,0.0,,,C,795386632818130
Raw,1712439662417,747635614000000,18,,-1395727244803960716,0.5459282398223877,139.81973461341113,-2.674503835189696,16.041480713347088,319,7,0.0,16399,596480338005681,11,43.1,-628.199951171875,0.023198336362838745,16,0.0,0.0,1575420030,,,,0,,1,0.77,38.1,0.0,0.0,,,C,795386632818130
Raw,1712439662417,747635614000000,18,,-1395727244803960716,0.5459282398223877,139.81973461341113,-2.674503835189696,16.041480713347088,319,9,0.0,16399,596480349951246,31,33.0,-218.8472442626953,0.6299999952316284,16,0.0,0.0,1575420030,,,,0,,1,0.77,28.0,0.0,0.0,,,C,795386632818130
Raw,1712439662417,747635614000000,18,,-1395727244803960716,0.5459282398223877,139.81973461341113,-2.674503835189696,16.041480713347088,319,11,0.0,16399,596480338661560,53,29.1,-613.459228515625,0.8464999794960022,16,0.0,0.0,1575420030,,,,0,,1,0.77,24.1,0.0,0.0,,,C,795386632818130
Raw,1712439662417,747635614000000,18,,-1395727244803960716,0.5459282398223877,139.81973461341113,-2.674503835189696,16.041480713347088,319,17,0.0,16399,596480337245147,70,27.9,566.4281616210938,2.312000274658203,16,0.0,0.0,1575420030,,,,0,,1,0.77,22.9,0.0,0.0,,,C,795386632818130
Raw,1712439662417,747635614000000,18,,-1395727244803960716,0.5459282398223877,139.81973461341113,-2.674503835189696,16.041480713347088,319,19,0.0,16399,596480341187199,46,30.5,509.0260314941406,1.4780000448226929,16,0.0,0.0,1575420030,,,,0,,1,0.77,25.5,0.0,0.0,,,C,795386632818130
Raw,1712439662417,747635614000000,18,,-1395727244803960716,0.5459282398223877,139.81973461341113,-2.674503835189696,16.041480713347088,319,1,0.0,49359,2462351563552,17,37.7,-216.21617126464844,5.093435287475586,16,0.0,0.0,1602562560,,,,0,,3,-3.97,33.7,3776.32666015625,16.524126052856445,,,C,795386632818130
Raw,1712439662417,747635614000000,18,,-1395727244803960716,0.5459282398223877,139.81973461341113,-2.674503835189696,16.041480713347088,319,24,0.0,49359,2462351701350,53,28.9,53.86680603027344,0.9269999861717224,16,0.0,0.0,1603124990,,,,0,,3,-3.97,24.9,3776.32666015625,16.524126052856445,,,C,795386632818130
Raw,1712439662417,747635614000000,18,,-1395727244803960716,0.5459282398223877,139.81973461341113,-2.674503835189696,16.041480713347088,319,23,0.0,49359,2462345935189,35,31.2,763.1990356445312,0.7459999918937683,16,0.0,0.0,1603687550,,,,0,,3,-3.97,27.2,3776.32666015625,16.524126052856445,,,C,795386632818130
Raw,1712439662417,747635614000000,18,,-1395727244803960716,0.5459282398223877,139.81973461341113,-2.674503835189696,16.041480713347088,319,8,0.0,49359,2462349089009,61,27.6,422.9727783203125,2.3000001907348633,16,0.0,0.0,1605374980,,,,0,,3,-3.97,23.6,3776.32666015625,16.524126052856445,,,C,795386632818130
Raw,1712439662417,747635614000000,18,,-1395727244803960716,0.5459282398223877,139.81973461341113,-2.674503835189696,16.041480713347088,319,33,0.0,16399,596466340038864,31,33.1,368.101318359375,0.6585000157356262,16,0.0,0.0,1561097980,,,,0,,5,0.18,28.8,-1566.2222900390625,16.497133255004883,,,I,795386632818130
Raw,1712439662417,747635614000000,18,,-1395727244803960716,0.5459282398223877,139.81973461341113,-2.674503835189696,16.041480713347088,319,30,0.0,16399,596466335549732,21,35.5,-287.1031799316406,5.250561714172363,16,0.0,0.0,1561097980,,,,0,,5,0.18,31.2,-1566.2222900390625,16.497133255004883,,,I,795386632818130
Raw,1712439662417,747635614000000,18,,-1395727244803960716,0.5459282398223877,139.81973461341113,-2.674503835189696,16.041480713347088,319,28,0.0,16399,596466336338861,31,32.3,608.9380493164062,0.6694999933242798,16,0.0,0.0,1561097980,,,,0,,5,0.18,27.999999999999996,-1566.2222900390625,16.497133255004883,,,I,795386632818130
Raw,1712439662417,747635614000000,18,,-1395727244803960716,0.5459282398223877,139.81973461341113,-2.674503835189696,16.041480713347088,319,27,0.0,16399,596466341322745,27,33.3,236.00694274902344,0.6420000195503235,16,0.0,0.0,1561097980,,,,0,,5,0.18,28.999999999999996,-1566.2222900390625,16.497133255004883,,,I,795386632818130
Raw,1712439662417,747635614000000,18,,-1395727244803960716,0.5459282398223877,139.81973461341113,-2.674503835189696,16.041480713347088,319,25,0.0,16399,596466334994138,24,35.1,-533.005615234375,0.5324999690055847,16,0.0,0.0,1561097980,,,,0,,5,0.18,30.8,-1566.2222900390625,16.497133255004883,,,I,795386632818130
Raw,1712439662417,747635614000000,18,,-1395727244803960716,0.5459282398223877,139.81973461341113,-2.674503835189696,16.041480713347088,319,5,0.0,16399,596466284775068,14,40.1,3.2166614532470703,1.3622000217437744,16,0.0,0.0,1561097980,,,,0,,5,0.18,35.800000000000004,-1566.2222900390625,16.497133255004883,,,I,795386632818130
Raw,1712439662417,747635614000000,18,,-1395727244803960716,0.5459282398223877,139.81973461341113,-2.674503835189696,16.041480713347088,319,5,0.0,23567,596480343290739,46,29.9,-238.30477905273438,0.8449999690055847,16,0.0,0.0,1575420030,,,,0,,6,0.98,25.599999999999998,-1468.7855224609375,12.875207901000977,,,C,795386632818130
Raw,1712439662417,747635614000000,18,,-1395727244803960716,0.5459282398223877,139.81973461341113,-2.674503835189696,16.041480713347088,319,9,0.0,23567,596480337657910,11,42.7,268.8200378417969,0.02469833754003048,16,0.0,0.0,1575420030,,,,0,,6,0.98,38.400000000000006,-1468.7855224609375,12.875207901000977,,,C,795386632818130
Raw,1712439662417,747635614000000,18,,-1395727244803960716,0.5459282398223877,139.81973461341113,-2.674503835189696,16.041480713347088,319,34,0.0,23567,596480338058386,12,41.4,-179.44773864746094,0.02399757131934166,16,0.0,0.0,1575420030,,,,0,,6,0.98,37.1,-1468.7855224609375,12.875207901000977,,,C,795386632818130
Raw,1712439662417,747635614000000,18,,-1395727244803960716,0.5459282398223877,139.81973461341113,-2.674503835189696,16.041480713347088,319,36,0.0,23567,596480337148380,24,35.1,370.4169006347656,2.329915761947632,16,0.0,0.0,1575420030,,,,0,,6,0.98,30.8,-1468.7855224609375,12.875207901000977,,,C,795386632818130
Fix,GPS,45.0686824300,7.6825241700,281.55029296875,0.62,6.759114,135.2,1712439663000,0.9720082,61.62494,795387212381931,11.991864,0,,,
Fix,FLP,45.0686905000,7.6825236000,289.6999816894531,0.6025826,10.757,134.55627,1712439662850,0.9720082,61.62494,795387212381931,1.0395738,0,,,
Status,1712439663000,25,0,1,3,1575420030,38.60,92.0,37.0,1,1,1,33.6
Status,1712439663000,25,1,1,4,1575420030,45.10,53.0,62.0,1,1,1,40.1
Status,1712439663000,25,2,1,6,1575420030,40.10,295.0,56.0,1,1,1,35.1
Status,1712439663000,25,3,1,7,1575420030,37.90,175.0,18.0,1,1,1,32.9
Status,1712439663000,25,4,1,9,1575420030,30.90,242.0,70.0,1,1,1,25.9
Status,1712439663000,25,5,1,11,1575420030,24.10,314.0,21.0,1,1,1,19.1
Status,1712439663000,25,6,1,17,1575420030,25.00,221.0,12.0,0,1,1,20.0
Status,1712439663000,25,7,1,19,1575420030,25.90,243.0,23.0,1,1,1,20.9
Status,1712439663000,25,8,3,2,1599750020,22.10,258.0,13.0,0,1,0,17.1
Status,1712439663000,25,9,3,1,1602562560,32.00,292.0,57.0,1,1,0,27.0
Status,1712439663000,25,10,3,24,1603124990,29.20,270.0,58.0,1,1,0,24.2
Status,1712439663000,25,11,3,23,1603687550,26.70,189.0,31.0,1,1,1,21.7
Status,1712439663000,25,12,3,17,1604249980,27.00,329.0,22.0,1,1,0,22.0
Status,1712439663000,25,13,3,8,1605374980,23.60,42.0,45.0,0,1,0,18.6
Status,1712439663000,25,14,5,33,1561097980,28.10,66.0,44.0,0,1,0,23.1
Status,1712439663000,25,15,5,30,1561097980,34.50,310.0,24.0,0,1,0,29.5
Status,1712439663000,25,16,5,28,1561097980,27.00,198.0,25.0,1,1,1,22.0
Status,1712439663000,25,17,5,27,1561097980,27.90,252.0,44.0,1,1,1,22.9
Status,1712439663000,25,18,5,25,1561097980,32.50,130.0,20.0,0,1,0,27.5
Status,1712439663000,25,19,5,5,1561097980,32.50,119.0,19.0,1,1,0,27.5
Status,1712439663000,25,20,6,5,1575420030,26.30,235.0,62.0,1,1,0,21.3
Status,1712439663000,25,21,6,9,1575420030,36.70,53.0,59.0,1,1,0,31.7
Status,1712439663000,25,22,6,11,1575420030,22.80,151.0,9.0,0,1,1,17.8
Status,1712439663000,25,23,6,34,1575420030,36.70,294.0,59.0,1,1,0,31.7
Status,1712439663000,25,24,6,36,1575420030,35.80,173.0,54.0,1,1,0,30.8
Fix,GPS,45.0686726700,7.6825251700,281.0919189453125,0.0,5.511075,,1712439664000,0.9720082,,795388212363129,9.424814,0,,,
Raw,1712439663417,747636614000000,18,,-1395727244803960730,0.9299921989440918,111.38264380861074,-5.27047707234826,15.311619978752402,319,3,0.0,16399,596481344183814,11,43.6,475.207763671875,0.04419833794236183,16,0.0,0.0,1575420030,,,,0,,1,0.99,38.6,0.0,0.0,,,C,795387632688963
Raw,1712439663417,747636614000000,18,,-1395727244803960730,0.9299921989440918,111.38264380861074,-5.27047707234826,15.311619978752402,319,4,0.0,16399,596481349003944,5,50.1,296.7565002441406,0.03300664201378822,16,0.0,0.0,1575420030,,,,0,,1,0.99,45.1,0.0,0.0,,,C,795387632688963
Raw,1712439663417,747636614000000,18,,-1395727244803960730,0.9299921989440918,111.38264380861074,-5.27047707234826,15.311619978752402,319,6,0.0,16399,596481347993303,9,45.1,-248.77635192871094,0.03830919414758682,16,0.0,0.0,1575420030,,,,0,,1,0.99,40.1,0.0,0.0,,,C,795387632688963
Raw,1712439663417,747636614000000,18,,-1395727244803960730,0.9299921989440918,111.38264380861074,-5.27047707234826,15.311619978752402,319,7,0.0,16399,596481338007762,12,42.9,-625.1400756835938,0.5948785543441772,16,0.0,0.0,1575420030,,,,0,,1,0.99,37.9,0.0,0.0,,,C,795387632688963
Raw,1712439663417,747636614000000,18,,-1395727244803960730,0.9299921989440918,111.38264380861074,-5.27047707234826,15.311619978752402,319,9,0.0,16399,596481349952033,24,35.9,-215.58047485351562,3.5312893390655518,16,0.0,0.0,1575420030,,,,0,,1,0.99,30.9,0.0,0.0,,,C,795387632688963
Raw,1712439663417,747636614000000,18,,-1395727244803960730,0.9299921989440918,111.38264380861074,-5.27047707234826,15.311619978752402,319,17,0.0,16399,596481337243198,46,30.0,567.969482421875,0.7879999876022339,16,0.0,0.0,1575420030,,,,0,,1,0.99,25.0,0.0,0.0,,,C,795387632688963
Raw,1712439663417,747636614000000,18,,-1395727244803960730,0.9299921989440918,111.38264380861074,-5.27047707234826,15.311619978752402,319,19,0.0,16399,596481341185489,46,30.9,512.023193359375,0.8119999766349792,16,0.0,0.0,1575420030,,,,0,,1,0.99,25.9,0.0,0.0,,,C,795387632688963
Raw,1712439663417,747636614000000,18,,-1395727244803960730,0.9299921989440918,111.38264380861074,-5.27047707234826,15.311619978752402,319,2,0.0,49359,2463340161870,70,26.1,-582.428466796875,1.7664999961853027,16,0.0,0.0,1599750020,,,,0,,3,-0.77,22.1,3778.206298828125,16.293296813964844,,,C,795387632688963
Raw,1712439663417,747636614000000,18,,-1395727244803960730,0.9299921989440918,111.38264380861074,-5.27047707234826,15.311619978752402,319,1,0.0,49359,2463351564249,19,36.0,-213.48934936523438,0.05227325111627579,16,0.0,0.0,1602562560,,,,0,,3,-0.77,32.0,3778.206298828125,16.293296813964844,,,C,795387632688963
Raw,1712439663417,747636614000000,18,,-1395727244803960730,0.9299921989440918,111.38264380861074,-5.27047707234826,15.311619978752402,319,24,0.0,49359,2463351701177,27,33.2,55.71815490722656,0.6270000338554382,16,0.0,0.0,1603124990,,,,0,,3,-0.77,29.200000000000003,3778.206298828125,16.293296813964844,,,C,795387632688963
Raw,1712439663417,747636614000000,18,,-1395727244803960730,0.9299921989440918,111.38264380861074,-5.27047707234826,15.311619978752402,319,23,0.0,49359,2463345932837,40,30.7,766.4144287109375,0.8059999942779541,16,0.0,0.0,1603687550,,,,0,,3,-0.77,26.7,3778.206298828125,16.293296813964844,,,C,795387632688963
Raw,1712439663417,747636614000000,18,,-1395727244803960730,0.9299921989440918,111.38264380861074,-5.27047707234826,15.311619978752402,319,33,0.0,16399,596467340037574,31,32.4,370.3865661621094,0.6934999823570251,16,0.0,0.0,1561097980,,,,0,,5,0.33,28.099999999999998,-1566.2213134765625,16.515905380249023,,,I,795387632688963
Raw,1712439663417,747636614000000,18,,-1395727244803960730,0.9299921989440918,111.38264380861074,-5.27047707234826,15.311619978752402,319,30,0.0,16399,596467335550648,16,38.8,-284.0987548828125,1.7638927698135376,16,0.0,0.0,1561097980,,,,0,,5,0.33,34.5,-1566.2213134765625,16.515905380249023,,,I,795387632688963
Raw,1712439663417,747636614000000,18,,-1395727244803960730,0.9299921989440918,111.38264380861074,-5.27047707234826,15.311619978752402,319,28,0.0,16399,596467336336804,35,31.3,611.7610473632812,0.7294999957084656,16,0.0,0.0,1561097980,,,,0,,5,0.33,27.0,-1566.2213134765625,16.515905380249023,,,I,795387632688963
Raw,1712439663417,747636614000000,18,,-1395727244803960730,0.9299921989440918,111.38264380861074,-5.27047707234826,15.311619978752402,319,27,0.0,16399,596467341322062,35,32.2,237.82171630859375,0.6919999718666077,16,0.0,0.0,1561097980,,,,0,,5,0.33,27.900000000000002,-1566.2213134765625,16.515905380249023,,,I,795387632688963
Raw,1712439663417,747636614000000,18,,-1395727244803960730,0.9299921989440918,111.38264380861074,-5.27047707234826,15.311619978752402,319,25,0.0,16399,596467334995918,19,36.8,-530.542724609375,2.929036855697632,16,0.0,0.0,1561097980,,,,0,,5,0.33,32.5,-1566.2213134765625,16.515905380249023,,,I,795387632688963
Raw,1712439663417,747636614000000,18,,-1395727244803960730,0.9299921989440918,111.38264380861074,-5.27047707234826,15.311619978752402,319,5,0.0,16399,596467284775047,19,36.8,11.12868881225586,2.0292000770568848,16,0.0,0.0,1561097980,,,,0,,5,0.33,32.5,-1566.2213134765625,16.515905380249023,,,I,795387632688963
Raw,1712439663417,747636614000000,18,,-1395727244803960730,0.9299921989440918,111.38264380861074,-5.27047707234826,15.311619978752402,319,5,0.0,23567,596481343291528,40,30.6,-235.49136352539062,0.607441246509552,16,0.0,0.0,1575420030,,,,0,,6,1.3,26.3,-1468.774658203125,12.574260711669922,,,C,795387632688963
Raw,1712439663417,747636614000000,18,,-1395727244803960730,0.9299921989440918,111.38264380861074,-5.27047707234826,15.311619978752402,319,9,0.0,23567,596481337656997,13,41.0,271.7047119140625,0.026391953229904175,16,0.0,0.0,1575420030,,,,0,,6,1.3,36.7,-1468.774658203125,12.574260711669922,,,C,795387632688963
Raw,1712439663417,747636614000000,18,,-1395727244803960730,0.9299921989440918,111.38264380861074,-5.27047707234826,15.311619978752402,319,34,0.0,23567,596481338058983,13,41.0,-176.67823791503906,0.02489195019006729,16,0.0,0.0,1575420030,,,,0,,6,1.3,36.7,-1468.774658203125,12.574260711669922,,,C,795387632688963
Raw,1712439663417,747636614000000,18,,-1395727244803960730,0.9299921989440918,111.38264380861074,-5.27047707234826,15.311619978752402,319,36,0.0,23567,596481337147148,14,40.1,373.2415771484375,0.027514684945344925,16,0.0,0.0,1575420030,,,,0,,6,1.3,35.800000000000004,-1468.774658203125,12.574260711669922,,,C,795387632688963
Fix,FLP,45.0686771000,7.6825264000,289.6999816894531,0.6154591,9.708,136.33417,1712439663851,0.9720082,45.0,795388212363129,1.0495737,0,,,
Status,1712439664000,26,0,1,3,1575420030,41.80,92.0,37.0,1,1,1,36.8
Status,1712439664000,26,1,1,4,1575420030,46.80,53.0,62.0,1,1,1,41.8
Status,1712439664000,26,2,1,6,1575420030,36.80,295.0,56.0,1,1,1,31.8
Status,1712439664000,26,3,1,7,1575420030,35.20,175.0,18.0,1,1,1,30.2
Status,1712439664000,26,4,1,9,1575420030,31.60,242.0,70.0,1,1,1,26.6
Status,1712439664000,26,5,1,11,1575420030,24.10,314.0,21.0,1,1,1,19.1
Status,1712439664000,26,6,1,17,1575420030,25.00,221.0,12.0,0,1,1,20.0
Status,1712439664000,26,7,1,19,1575420030,30.00,243.0,23.0,1,1,1,25.0
Status,1712439664000,26,8,3,2,1599750020,26.50,258.0,13.0,0,1,0,21.5
Status,1712439664000,26,9,3,1,1602562560,26.40,292.0,57.0,1,1,0,21.4
Status,1712439664000,26,10,3,24,1603124990,24.40,270.0,58.0,1,1,0,19.4
Status,1712439664000,26,11,3,23,1603687550,28.40,189.0,31.0,1,1,1,23.4
Status,1712439664000,26,12,3,17,1604249980,27.00,329.0,22.0,1,1,0,22.0
Status,1712439664000,26,13,3,8,1605374980,23.60,42.0,45.0,0,1,0,18.6
Status,1712439664000,26,14,5,33,1561097980,27.00,66.0,44.0,0,1,0,22.0
Status,1712439664000,26,15,5,30,1561097980,34.80,310.0,24.0,0,1,0,29.8
Status,1712439664000,26,16,5,28,1561097980,27.30,198.0,25.0,1,1,1,22.3
Status,1712439664000,26,17,5,27,1561097980,27.10,252.0,44.0,1,1,1,22.1
Status,1712439664000,26,18,5,25,1561097980,34.60,130.0,20.0,0,1,0,29.6
Status,1712439664000,26,19,5,9,1561097980,19.60,48.0,31.0,0,1,0,14.6
Status,1712439664000,26,20,5,5,1561097980,34.60,119.0,19.0,1,1,0,29.6
Status,1712439664000,26,21,6,5,1575420030,25.40,235.0,62.0,1,1,0,20.4
Status,1712439664000,26,22,6,9,1575420030,39.90,53.0,59.0,1,1,0,34.9
Status,1712439664000,26,23,6,11,1575420030,22.80,151.0,9.0,0,1,1,17.8
Status,1712439664000,26,24,6,34,1575420030,33.90,294.0,59.0,1,1,0,28.9
Status,1712439664000,26,25,6,36,1575420030,28.90,173.0,54.0,1,1,0,23.9
Raw,1712439664417,747637614000000,18,,-1395727244803960717,0.405989408493042,88.48603465594351,4.780503830156422,13.911738465796748,319,3,0.0,16399,596482344182216,8,46.8,474.9482727050781,0.04220025613903999,16,0.0,0.0,1575420030,,,,0,,1,0.97,41.8,0.0,0.0,,,C,795388636408337
Raw,1712439664417,747637614000000,18,,-1395727244803960717,0.405989408493042,88.48603465594351,4.780503830156422,13.911738465796748,319,4,0.0,16399,596482349002952,5,51.8,296.8162536621094,0.03270217031240463,16,0.0,0.0,1575420030,,,,0,,1,0.97,46.8,0.0,0.0,,,C,795388636408337
Raw,1712439664417,747637614000000,18,,-1395727244803960717,0.405989408493042,88.48603465594351,4.780503830156422,13.911738465796748,319,6,0.0,16399,596482347994142,13,41.8,-248.7406768798828,0.041391950100660324,16,0.0,0.0,1575420030,,,,0,,1,0.97,36.8,0.0,0.0,,,C,795388636408337
Raw,1712439664417,747637614000000,18,,-1395727244803960717,0.405989408493042,88.48603465594351,4.780503830156422,13.911738465796748,319,7,0.0,16399,596482338009870,14,40.2,-625.0872192382812,1.1677576303482056,16,0.0,0.0,1575420030,,,,0,,1,0.97,35.2,0.0,0.0,,,C,795388636408337
Raw,1712439664417,747637614000000,18,,-1395727244803960717,0.405989408493042,88.48603465594351,4.780503830156422,13.911738465796748,319,9,0.0,16399,596482349952664,21,36.6,-215.0853729248047,3.4993770122528076,16,0.0,0.0,1575420030,,,,0,,1,0.97,31.6,0.0,0.0,,,C,795388636408337
Raw,1712439664417,747637614000000,18,,-1395727244803960717,0.405989408493042,88.48603465594351,4.780503830156422,13.911738465796748,319,19,0.0,16399,596482341183826,24,35.0,512.133544921875,1.8306463956832886,16,0.0,0.0,1575420030,,,,0,,1,0.97,30.0,0.0,0.0,,,C,795388636408337
Raw,1712439664417,747637614000000,18,,-1395727244803960717,0.405989408493042,88.48603465594351,4.780503830156422,13.911738465796748,319,2,0.0,49359,2464340163757,40,30.5,-581.2010498046875,0.8134999871253967,16,0.0,0.0,1599750020,,,,0,,3,-0.76,26.5,3778.21875,16.313289642333984,,,C,795388636408337
Raw,1712439664417,747637614000000,18,,-1395727244803960717,0.405989408493042,88.48603465594351,4.780503830156422,13.911738465796748,319,1,0.0,49359,2464351565165,40,30.4,-213.2886505126953,0.796999990940094,16,0.0,0.0,1602562560,,,,0,,3,-0.76,26.4,3778.21875,16.313289642333984,,,C,795388636408337
Raw,1712439664417,747637614000000,18,,-1395727244803960717,0.405989408493042,88.48603465594351,4.780503830156422,13.911738465796748,319,24,0.0,49359,2464351700721,53,28.4,57.09264373779297,0.9269999861717224,16,0.0,0.0,1603124990,,,,0,,3,-0.76,24.4,3778.21875,16.313289642333984,,,C,795388636408337
Raw,1712439664417,747637614000000,18,,-1395727244803960717,0.405989408493042,88.48603465594351,4.780503830156422,13.911738465796748,319,23,0.0,49359,2464345930077,31,32.4,766.5919189453125,0.6859999895095825,16,0.0,0.0,1603687550,,,,0,,3,-0.76,28.4,3778.21875,16.313289642333984,,,C,795388636408337
Raw,1712439664417,747637614000000,18,,-1395727244803960717,0.405989408493042,88.48603465594351,4.780503830156422,13.911738465796748,319,33,0.0,16399,596468340036379,35,31.3,369.9640808105469,0.7534999847412109,16,0.0,0.0,1561097980,,,,0,,5,0.27,27.0,-1566.2225341796875,16.535404205322266,,,I,795388636408337
Raw,1712439664417,747637614000000,18,,-1395727244803960717,0.405989408493042,88.48603465594351,4.780503830156422,13.911738465796748,319,30,0.0,16399,596468335551627,16,39.1,-283.6605224609375,2.3400111198425293,16,0.0,0.0,1561097980,,,,0,,5,0.27,34.800000000000004,-1566.2225341796875,16.535404205322266,,,I,795388636408337
Raw,1712439664417,747637614000000,18,,-1395727244803960717,0.405989408493042,88.48603465594351,4.780503830156422,13.911738465796748,319,28,0.0,16399,596468336334796,35,31.6,612.1738891601562,0.7294999957084656,16,0.0,0.0,1561097980,,,,0,,5,0.27,27.3,-1566.2225341796875,16.535404205322266,,,I,795388636408337
Raw,1712439664417,747637614000000,18,,-1395727244803960717,0.405989408493042,88.48603465594351,4.780503830156422,13.911738465796748,319,27,0.0,16399,596468341321202,35,31.4,237.62005615234375,0.7519999742507935,16,0.0,0.0,1561097980,,,,0,,5,0.27,27.099999999999998,-1566.2225341796875,16.535404205322266,,,I,795388636408337
Raw,1712439664417,747637614000000,18,,-1395727244803960717,0.405989408493042,88.48603465594351,4.780503830156422,13.911738465796748,319,25,0.0,16399,596468334997679,16,38.9,-530.0396118164062,1.1892743110656738,16,0.0,0.0,1561097980,,,,0,,5,0.27,34.6,-1566.2225341796875,16.535404205322266,,,I,795388636408337
Raw,1712439664417,747637614000000,18,,-1395727244803960717,0.405989408493042,88.48603465594351,4.780503830156422,13.911738465796748,319,9,0.0,16399,596468287339287,106,23.9,88.61662292480469,4.1570000648498535,16,0.0,0.0,1561097980,,,,0,,5,0.27,19.599999999999998,-1566.2225341796875,16.535404205322266,,,I,795388636408337
Raw,1712439664417,747637614000000,18,,-1395727244803960717,0.405989408493042,88.48603465594351,4.780503830156422,13.911738465796748,319,5,0.0,16399,596468284775015,16,38.9,11.426349639892578,1.6589000225067139,16,0.0,0.0,1561097980,,,,0,,5,0.27,34.6,-1566.2225341796875,16.535404205322266,,,I,795388636408337
Raw,1712439664417,747637614000000,18,,-1395727244803960717,0.405989408493042,88.48603465594351,4.780503830156422,13.911738465796748,319,5,0.0,23567,596482343292228,46,29.7,-235.31715393066406,0.8449999690055847,16,0.0,0.0,1575420030,,,,0,,6,1.29,25.4,-1468.559814453125,12.277862548828125,,,C,795388636408337
Raw,1712439664417,747637614000000,18,,-1395727244803960717,0.405989408493042,88.48603465594351,4.780503830156422,13.911738465796748,319,9,0.0,23567,596482337656098,10,44.2,271.84686279296875,0.023899104446172714,16,0.0,0.0,1575420030,,,,0,,6,1.29,39.900000000000006,-1468.559814453125,12.277862548828125,,,C,795388636408337
Raw,1712439664417,747637614000000,18,,-1395727244803960717,0.405989408493042,88.48603465594351,4.780503830156422,13.911738465796748,319,34,0.0,23567,596482338059551,17,38.2,-176.603271484375,0.02890714630484581,16,0.0,0.0,1575420030,,,,0,,6,1.29,33.900000000000006,-1468.559814453125,12.277862548828125,,,C,795388636408337
Raw,1712439664417,747637614000000,18,,-1395727244803960717,0.405989408493042,88.48603465594351,4.780503830156422,13.911738465796748,319,36,0.0,23567,596482337145921,31,33.2,373.1754150390625,0.6180000305175781,16,0.0,0.0,1575420030,,,,0,,6,1.29,28.900000000000002,-1468.559814453125,12.277862548828125,,,C,795388636408337
Fix,GPS,45.0686622300,7.6825227800,281.99786376953125,0.28,5.243674,158.4,1712439665000,1.106752,88.40624,795389212085733,8.756007,0,,,
Fix,FLP,45.0686658000,7.6825249000,289.6999816894531,0.3235255,7.129,158.83147,1712439664851,1.106752,88.40624,795389212085733,1.0595709,0,,,
Fix,NLP,45.0684900000,7.6825803000,289.6999816894531,,18.278,,1712439661763,,,795386124000000,1.0,0,,,
Status,1712439665000,26,0,1,3,1575420030,39.80,92.0,37.0,1,1,1,34.8
Status,1712439665000,26,1,1,4,1575420030,42.50,53.0,62.0,1,1,1,37.5
Status,1712439665000,26,2,1,6,1575420030,35.10,295.0,56.0,1,1,1,30.1
Status,1712439665000,26,3,1,7,1575420030,32.80,175.0,18.0,1,1,1,27.8
Status,1712439665000,26,4,1,9,1575420030,23.30,242.0,70.0,1,1,1,18.3
Status,1712439665000,26,5,1,11,1575420030,24.10,314.0,21.0,1,1,1,19.1
Status,1712439665000,26,6,1,17,1575420030,23.20,221.0,12.0,0,1,1,18.2
Status,1712439665000,26,7,1,19,1575420030,25.90,243.0,23.0,1,1,1,20.9
Status,1712439665000,26,8,3,2,1599750020,26.50,258.0,13.0,1,1,0,21.5
Status,1712439665000,26,9,3,1,1602562560,27.90,292.0,57.0,1,1,0,22.9
Status,1712439665000,26,10,3,24,1603124990,26.30,270.0,58.0,1,1,0,21.3
Status,1712439665000,26,11,3,23,1603687550,34.00,189.0,31.0,1,1,1,29.0
Status,1712439665000,26,12,3,17,1604249980,19.40,329.0,22.0,1,1,0,14.4
Status,1712439665000,26,13,3,8,1605374980,20.50,42.0,45.0,0,1,0,15.5
Status,1712439665000,26,14,5,33,1561097980,27.00,66.0,44.0,0,1,0,22.0
Status,1712439665000,26,15,5,30,1561097980,32.20,310.0,24.0,0,1,0,27.2
Status,1712439665000,26,16,5,28,1561097980,33.50,198.0,25.0,1,1,1,28.5
Status,1712439665000,26,17,5,27,1561097980,28.60,252.0,44.0,1,1,1,23.6
Status,1712439665000,26,18,5,25,1561097980,33.90,130.0,20.0,0,1,0,28.9
Status,1712439665000,26,19,5,9,1561097980,19.60,48.0,31.0,0,1,0,14.6
Status,1712439665000,26,20,5,5,1561097980,33.00,119.0,19.0,1,1,0,28.0
Status,1712439665000,26,21,6,5,1575420030,26.60,235.0,62.0,1,1,0,21.6
Status,1712439665000,26,22,6,9,1575420030,37.60,53.0,59.0,1,1,0,32.6
Status,1712439665000,26,23,6,11,1575420030,20.10,151.0,9.0,0,1,1,15.1
Status,1712439665000,26,24,6,34,1575420030,33.20,294.0,59.0,1,1,0,28.2
Status,1712439665000,26,25,6,36,1575420030,28.70,173.0,54.0,1,1,0,23.7
Raw,1712439665417,747638614000000,18,,-1395727244803960711,0.2844974994659424,82.5267270556651,4.3083066591694115,13.907967253840177,319,3,0.0,16399,596483344180661,10,44.8,474.9508972167969,1.1851611137390137,16,0.0,0.0,1575420030,,,,0,,1,0.87,39.8,0.0,0.0,,,C,795389626623649
Raw,1712439665417,747638614000000,18,,-1395727244803960711,0.2844974994659424,82.5267270556651,4.3083066591694115,13.907967253840177,319,4,0.0,16399,596483349001966,7,47.5,296.9450378417969,0.034205492585897446,16,0.0,0.0,1575420030,,,,0,,1,0.87,42.5,0.0,0.0,,,C,795389626623649
Raw,1712439665417,747638614000000,18,,-1395727244803960711,0.2844974994659424,82.5267270556651,4.3083066591694115,13.907967253840177,319,6,0.0,16399,596483347994962,14,40.1,-248.59324645996094,1.1842576265335083,16,0.0,0.0,1575420030,,,,0,,1,0.87,35.1,0.0,0.0,,,C,795389626623649
Raw,1712439665417,747638614000000,18,,-1395727244803960711,0.2844974994659424,82.5267270556651,4.3083066591694115,13.907967253840177,319,7,0.0,16399,596483338011957,19,37.8,-625.1888427734375,2.325732707977295,16,0.0,0.0,1575420030,,,,0,,1,0.87,32.8,0.0,0.0,,,C,795389626623649
Raw,1712439665417,747638614000000,18,,-1395727244803960711,0.2844974994659424,82.5267270556651,4.3083066591694115,13.907967253840177,319,9,0.0,16399,596483349953503,61,28.3,-216.0404052734375,0.9299999475479126,16,0.0,0.0,1575420030,,,,0,,1,0.87,23.3,0.0,0.0,,,C,795389626623649
Raw,1712439665417,747638614000000,18,,-1395727244803960711,0.2844974994659424,82.5267270556651,4.3083066591694115,13.907967253840177,319,17,0.0,16399,596483337239558,61,28.2,568.9400024414062,1.6319999694824219,16,0.0,0.0,1575420030,,,,0,,1,0.87,23.2,0.0,0.0,,,C,795389626623649
Raw,1712439665417,747638614000000,18,,-1395727244803960711,0.2844974994659424,82.5267270556651,4.3083066591694115,13.907967253840177,319,19,0.0,16399,596483341182097,46,30.9,511.5950012207031,0.8119999766349792,16,0.0,0.0,1575420030,,,,0,,1,0.87,25.9,0.0,0.0,,,C,795389626623649
Raw,1712439665417,747638614000000,18,,-1395727244803960711,0.2844974994659424,82.5267270556651,4.3083066591694115,13.907967253840177,319,1,0.0,49359,2465351565790,35,31.9,-213.52247619628906,0.7369999885559082,16,0.0,0.0,1602562560,,,,0,,3,-0.8,27.9,3778.230224609375,16.33453369140625,,,C,795389626623649
Raw,1712439665417,747638614000000,18,,-1395727244803960711,0.2844974994659424,82.5267270556651,4.3083066591694115,13.907967253840177,319,24,0.0,49359,2465351700709,40,30.3,56.48487854003906,0.796999990940094,16,0.0,0.0,1603124990,,,,0,,3,-0.8,26.3,3778.230224609375,16.33453369140625,,,C,795389626623649
Raw,1712439665417,747638614000000,18,,-1395727244803960711,0.2844974994659424,82.5267270556651,4.3083066591694115,13.907967253840177,319,23,0.0,49359,2465345927627,16,38.0,765.7401123046875,1.7326064109802246,16,0.0,0.0,1603687550,,,,0,,3,-0.8,34.0,3778.230224609375,16.33453369140625,,,C,795389626623649
Raw,1712439665417,747638614000000,18,,-1395727244803960711,0.2844974994659424,82.5267270556651,4.3083066591694115,13.907967253840177,319,17,0.0,49359,2465343261881,106,23.4,-653.2550659179688,4.301000118255615,16,0.0,0.0,1604249980,,,,0,,3,-0.8,19.4,3778.230224609375,16.33453369140625,,,C,795389626623649
Raw,1712439665417,747638614000000,18,,-1395727244803960711,0.2844974994659424,82.5267270556651,4.3083066591694115,13.907967253840177,319,8,0.0,49359,2465349085022,92,24.5,425.279052734375,2.7100000381469727,16,0.0,0.0,1605374980,,,,0,,3,-0.8,20.5,3778.230224609375,16.33453369140625,,,C,795389626623649
Raw,1712439665417,747638614000000,18,,-1395727244803960711,0.2844974994659424,82.5267270556651,4.3083066591694115,13.907967253840177,319,33,0.0,16399,596469340035120,35,31.3,371.40435791015625,0.7534999847412109,16,0.0,0.0,1561097980,,,,0,,5,0.22,27.0,-1566.2415771484375,16.31332778930664,,,I,795389626623649
Raw,1712439665417,747638614000000,18,,-1395727244803960711,0.2844974994659424,82.5267270556651,4.3083066591694115,13.907967253840177,319,30,0.0,16399,596469335552554,19,36.5,-283.7489318847656,5.232010841369629,16,0.0,0.0,1561097980,,,,0,,5,0.22,32.2,-1566.2415771484375,16.31332778930664,,,I,795389626623649
Raw,1712439665417,747638614000000,18,,-1395727244803960711,0.2844974994659424,82.5267270556651,4.3083066591694115,13.907967253840177,319,28,0.0,16399,596469336332743,17,37.8,611.7951049804688,0.6115577816963196,16,0.0,0.0,1561097980,,,,0,,5,0.22,33.5,-1566.2415771484375,16.31332778930664,,,I,795389626623649
Raw,1712439665417,747638614000000,18,,-1395727244803960711,0.2844974994659424,82.5267270556651,4.3083066591694115,13.907967253840177,319,27,0.0,16399,596469341320397,31,32.9,238.2441864013672,0.6919999718666077,16,0.0,0.0,1561097980,,,,0,,5,0.22,28.599999999999998,-1566.2415771484375,16.31332778930664,,,I,795389626623649
Raw,1712439665417,747638614000000,18,,-1395727244803960711,0.2844974994659424,82.5267270556651,4.3083066591694115,13.907967253840177,319,25,0.0,16399,596469334999441,17,38.2,-530.5049438476562,2.9190316200256348,16,0.0,0.0,1561097980,,,,0,,5,0.22,33.900000000000006,-1566.2415771484375,16.31332778930664,,,I,795389626623649
Raw,1712439665417,747638614000000,18,,-1395727244803960711,0.2844974994659424,82.5267270556651,4.3083066591694115,13.907967253840177,319,5,0.0,16399,596469284774993,17,37.3,1.7667632102966309,1.829800009727478,16,0.0,0.0,1561097980,,,,0,,5,0.22,33.0,-1566.2415771484375,16.31332778930664,,,I,795389626623649
Raw,1712439665417,747638614000000,18,,-1395727244803960711,0.2844974994659424,82.5267270556651,4.3083066591694115,13.907967253840177,319,5,0.0,23567,596483343293076,40,30.9,-235.3540802001953,3.461846351623535,16,0.0,0.0,1575420030,,,,0,,6,1.19,26.599999999999998,-1468.393310546875,12.045510292053223,,,C,795389626623649
Raw,1712439665417,747638614000000,18,,-1395727244803960711,0.2844974994659424,82.5267270556651,4.3083066591694115,13.907967253840177,319,9,0.0,23567,596483337655194,12,41.9,271.8670349121094,0.025497570633888245,16,0.0,0.0,1575420030,,,,0,,6,1.19,37.6,-1468.393310546875,12.045510292053223,,,C,795389626623649
Raw,1712439665417,747638614000000,18,,-1395727244803960711,0.2844974994659424,82.5267270556651,4.3083066591694115,13.907967253840177,319,11,0.0,23567,596483327888970,92,24.4,603.1262817382812,3.4690001010894775,16,0.0,0.0,1575420030,,,,0,,6,1.19,20.099999999999998,-1468.393310546875,12.045510292053223,,,C,795389626623649
Raw,1712439665417,747638614000000,18,,-1395727244803960711,0.2844974994659424,82.5267270556651,4.3083066591694115,13.907967253840177,319,34,0.0,23567,596483338060172,17,37.5,-176.43540954589844,0.02890714630484581,16,0.0,0.0,1575420030,,,,0,,6,1.19,33.2,-1468.393310546875,12.045510292053223,,,C,795389626623649
Raw,1712439665417,747638614000000,18,,-1395727244803960711,0.2844974994659424,82.5267270556651,4.3083066591694115,13.907967253840177,319,36,0.0,23567,596483337144686,31,33.0,373.5230712890625,0.6020873785018921,16,0.0,0.0,1575420030,,,,0,,6,1.19,28.7,-1468.393310546875,12.045510292053223,,,C,795389626623649
Fix,GPS,45.0686274600,7.6825243200,289.33465576171875,0.0,4.8614526,,1712439666000,0.21260291,,795390212782920,8.204582,0,,,
Fix,FLP,45.0686382000,7.6825249000,289.6999816894531,0.4350305,6.751,164.65388,1712439665851,0.21260291,45.0,795390212782920,1.0408878,0,,,
Status,1712439666000,26,0,1,3,1575420030,40.90,92.0,37.0,1,1,1,35.9
Status,1712439666000,26,1,1,4,1575420030,43.20,53.0,62.0,1,1,1,38.2
Status,1712439666000,26,2,1,6,1575420030,32.70,295.0,56.0,1,1,1,27.7
Status,1712439666000,26,3,1,7,1575420030,39.60,175.0,18.0,1,1,1,34.6
Status,1712439666000,26,4,1,9,1575420030,28.60,242.0,70.0,1,1,1,23.6
Status,1712439666000,26,5,1,11,1575420030,24.10,314.0,21.0,1,1,1,19.1
Status,1712439666000,26,6,1,17,1575420030,23.20,221.0,12.0,0,1,1,18.2
Status,1712439666000,26,7,3,2,1599750020,26.50,258.0,13.0,1,1,0,21.5
Status,1712439666000,26,8,3,11,1602000000,19.70,129.0,7.0,0,1,0,14.7
Status,1712439666000,26,9,3,1,1602562560,22.80,292.0,57.0,1,1,0,17.8
Status,1712439666000,26,10,3,24,1603124990,26.90,270.0,58.0,1,1,0,21.9
Status,1712439666000,26,11,3,23,1603687550,30.50,189.0,31.0,1,1,1,25.5
Status,1712439666000,26,12,3,17,1604249980,19.40,329.0,22.0,1,1,0,14.4
Status,1712439666000,26,13,3,8,1605374980,20.50,42.0,45.0,0,1,0,15.5
Status,1712439666000,26,14,5,33,1561097980,27.80,66.0,44.0,0,1,0,22.8
Status,1712439666000,26,15,5,30,1561097980,27.60,310.0,24.0,0,1,0,22.6
Status,1712439666000,26,16,5,28,1561097980,30.10,198.0,25.0,1,1,1,25.1
Status,1712439666000,26,17,5,27,1561097980,31.60,252.0,44.0,1,1,1,26.6
Status,1712439666000,26,18,5,25,1561097980,36.00,130.0,20.0,0,1,0,31.0
Status,1712439666000,26,19,5,9,1561097980,19.60,48.0,31.0,0,1,0,14.6
Status,1712439666000,26,20,5,5,1561097980,33.00,119.0,19.0,1,1,0,28.0
Status,1712439666000,26,21,6,5,1575420030,24.30,235.0,62.0,1,1,0,19.3
Status,1712439666000,26,22,6,9,1575420030,41.70,53.0,59.0,1,1,0,36.7
Status,1712439666000,26,23,6,11,1575420030,20.10,151.0,9.0,0,1,1,15.1
Status,1712439666000,26,24,6,34,1575420030,30.40,294.0,59.0,1,1,0,25.4
Status,1712439666000,26,25,6,36,1575420030,31.90,173.0,54.0,1,1,0,26.9
Raw,1712439666417,747639614000000,18,,-1395727244803960692,0.030158281326293945,74.18936002068222,3.8601917224428237,14.593775906465561,319,3,0.0,16399,596484344179089,9,45.9,474.98223876953125,0.042809195816516876,16,0.0,0.0,1575420030,,,,0,,1,0.82,40.9,0.0,0.0,,,C,795390632620056
Raw,1712439666417,747639614000000,18,,-1395727244803960692,0.030158281326293945,74.18936002068222,3.8601917224428237,14.593775906465561,319,4,0.0,16399,596484349000966,6,48.2,297.11328125,0.03380587324500084,16,0.0,0.0,1575420030,,,,0,,1,0.82,43.2,0.0,0.0,,,C,795390632620056
Raw,1712439666417,747639614000000,18,,-1395727244803960692,0.030158281326293945,74.18936002068222,3.8601917224428237,14.593775906465561,319,6,0.0,16399,596484347995789,19,37.7,-248.0652618408203,2.3422327041625977,16,0.0,0.0,1575420030,,,,0,,1,0.82,32.7,0.0,0.0,,,C,795390632620056
Raw,1712439666417,747639614000000,18,,-1395727244803960692,0.030158281326293945,74.18936002068222,3.8601917224428237,14.593775906465561,319,7,0.0,16399,596484338014028,10,44.6,-624.9531860351562,0.5932801365852356,16,0.0,0.0,1575420030,,,,0,,1,0.82,39.6,0.0,0.0,,,C,795390632620056
Raw,1712439666417,747639614000000,18,,-1395727244803960692,0.030158281326293945,74.18936002068222,3.8601917224428237,14.593775906465561,319,9,0.0,16399,596484349954114,31,33.6,-215.04136657714844,0.6299999952316284,16,0.0,0.0,1575420030,,,,0,,1,0.82,28.6,0.0,0.0,,,C,795390632620056
Raw,1712439666417,747639614000000,18,,-1395727244803960692,0.030158281326293945,74.18936002068222,3.8601917224428237,14.593775906465561,319,11,0.0,49359,2466338365971,106,23.7,-747.8343505859375,4.323500156402588,16,0.0,0.0,1602000000,,,,0,,3,-0.87,19.7,3778.23779296875,16.355287551879883,,,C,795390632620056
Raw,1712439666417,747639614000000,18,,-1395727244803960692,0.030158281326293945,74.18936002068222,3.8601917224428237,14.593775906465561,319,1,0.0,49359,2466351566433,70,26.8,-211.6611328125,1.0869998931884766,16,0.0,0.0,1602562560,,,,0,,3,-0.87,22.8,3778.23779296875,16.355287551879883,,,C,795390632620056
Raw,1712439666417,747639614000000,18,,-1395727244803960692,0.030158281326293945,74.18936002068222,3.8601917224428237,14.593775906465561,319,24,0.0,49359,2466351700515,40,30.9,57.270294189453125,0.796999990940094,16,0.0,0.0,1603124990,,,,0,,3,-0.87,26.9,3778.23779296875,16.355287551879883,,,C,795390632620056
Raw,1712439666417,747639614000000,18,,-1395727244803960692,0.030158281326293945,74.18936002068222,3.8601917224428237,14.593775906465561,319,23,0.0,49359,2466345925031,24,34.5,766.8260498046875,1.7931187152862549,16,0.0,0.0,1603687550,,,,0,,3,-0.87,30.5,3778.23779296875,16.355287551879883,,,C,795390632620056
Raw,1712439666417,747639614000000,18,,-1395727244803960692,0.030158281326293945,74.18936002068222,3.8601917224428237,14.593775906465561,319,33,0.0,16399,596470340033892,35,32.1,371.2891540527344,0.6934999823570251,16,0.0,0.0,1561097980,,,,0,,5,0.24,27.8,-1566.24267578125,16.333036422729492,,,I,795390632620056
Raw,1712439666417,747639614000000,18,,-1395727244803960692,0.030158281326293945,74.18936002068222,3.8601917224428237,14.593775906465561,319,30,0.0,16399,596470335553507,35,31.9,-283.5079040527344,0.7310000061988831,16,0.0,0.0,1561097980,,,,0,,5,0.24,27.599999999999998,-1566.24267578125,16.333036422729492,,,I,795390632620056
Raw,1712439666417,747639614000000,18,,-1395727244803960692,0.030158281326293945,74.18936002068222,3.8601917224428237,14.593775906465561,319,28,0.0,16399,596470336330676,24,34.4,612.0889282226562,4.705148220062256,16,0.0,0.0,1561097980,,,,0,,5,0.24,30.099999999999998,-1566.24267578125,16.333036422729492,,,I,795390632620056
Raw,1712439666417,747639614000000,18,,-1395727244803960692,0.030158281326293945,74.18936002068222,3.8601917224428237,14.593775906465561,319,27,0.0,16399,596470341319574,21,35.9,238.52012634277344,2.967087984085083,16,0.0,0.0,1561097980,,,,0,,5,0.24,31.599999999999998,-1566.24267578125,16.333036422729492,,,I,795390632620056
Raw,1712439666417,747639614000000,18,,-1395727244803960692,0.030158281326293945,74.18936002068222,3.8601917224428237,14.593775906465561,319,25,0.0,16399,596470335001184,13,40.3,-530.264404296875,1.1817059516906738,16,0.0,0.0,1561097980,,,,0,,5,0.24,36.0,-1566.24267578125,16.333036422729492,,,I,795390632620056
Raw,1712439666417,747639614000000,18,,-1395727244803960692,0.030158281326293945,74.18936002068222,3.8601917224428237,14.593775906465561,319,5,0.0,23567,596484343293853,53,28.6,-234.47987365722656,0.9149999618530273,16,0.0,0.0,1575420030,,,,0,,6,1.12,24.3,-1468.391845703125,12.073474884033203,,,C,795390632620056
Raw,1712439666417,747639614000000,18,,-1395727244803960692,0.030158281326293945,74.18936002068222,3.8601917224428237,14.593775906465561,319,9,0.0,23567,596484337654283,8,46.0,272.0592346191406,0.022700253874063492,16,0.0,0.0,1575420030,,,,0,,6,1.12,41.7,-1468.391845703125,12.073474884033203,,,C,795390632620056
Raw,1712439666417,747639614000000,18,,-1395727244803960692,0.030158281326293945,74.18936002068222,3.8601917224428237,14.593775906465561,319,34,0.0,23567,596484338060709,24,34.7,-176.1393585205078,0.6157728433609009,16,0.0,0.0,1575420030,,,,0,,6,1.12,30.400000000000002,-1468.391845703125,12.073474884033203,,,C,795390632620056
Raw,1712439666417,747639614000000,18,,-1395727244803960692,0.030158281326293945,74.18936002068222,3.8601917224428237,14.593775906465561,319,36,0.0,23567,596484337143426,21,36.2,373.27880859375,2.891510248184204,16,0.0,0.0,1575420030,,,,0,,6,1.12,31.900000000000002,-1468.391845703125,12.073474884033203,,,C,795390632620056
Fix,GPS,45.0686188300,7.6825303700,287.65283203125,0.53,4.625419,145.2,1712439667000,1.2416924,76.634705,795391212622764,7.344253,0,,,
Fix,FLP,45.0686234000,7.6825295000,289.6999816894531,0.54237896,5.4,148.22763,1712439666851,1.2416924,76.634705,795391212622764,1.0508863,0,,,
Status,1712439667000,25,0,1,3,1575420030,41.60,92.0,37.0,1,1,1,36.6
Status,1712439667000,25,1,1,4,1575420030,43.20,53.0,62.0,1,1,1,38.2
Status,1712439667000,25,2,1,7,1575420030,38.90,175.0,18.0,1,1,1,33.9
Status,1712439667000,25,3,1,9,1575420030,25.80,242.0,70.0,1,1,1,20.8
Status,1712439667000,25,4,1,11,1575420030,19.20,314.0,21.0,1,1,1,14.2
Status,1712439667000,25,5,1,17,1575420030,23.20,221.0,12.0,0,1,1,18.2
Status,1712439667000,25,6,3,2,1599750020,21.60,258.0,13.0,1,1,0,16.6
Status,1712439667000,25,7,3,11,1602000000,19.70,129.0,7.0,0,1,0,14.7
Status,1712439667000,25,8,3,1,1602562560,22.80,292.0,57.0,1,1,0,17.8
Status,1712439667000,25,9,3,24,1603124990,25.00,270.0,58.0,1,1,0,20.0
Status,1712439667000,25,10,3,23,1603687550,30.60,189.0,31.0,1,1,1,25.6
Status,1712439667000,25,11,3,17,1604249980,19.40,329.0,22.0,0,1,0,14.4
Status,1712439667000,25,12,3,8,1605374980,20.50,42.0,45.0,0,1,0,15.5
Status,1712439667000,25,13,5,33,1561097980,27.90,66.0,44.0,0,1,0,22.9
Status,1712439667000,25,14,5,30,1561097980,29.10,310.0,24.0,0,1,0,24.1
Status,1712439667000,25,15,5,28,1561097980,29.80,198.0,25.0,1,1,1,24.8
Status,1712439667000,25,16,5,27,1561097980,28.90,252.0,44.0,1,1,1,23.9
Status,1712439667000,25,17,5,25,1561097980,28.60,130.0,20.0,0,1,0,23.6
Status,1712439667000,25,18,5,9,1561097980,19.60,48.0,31.0,0,1,0,14.6
Status,1712439667000,25,19,5,5,1561097980,33.00,119.0,19.0,1,1,0,28.0
Status,1712439667000,25,20,6,5,1575420030,27.30,235.0,62.0,1,1,0,22.3
Status,1712439667000,25,21,6,9,1575420030,42.20,53.0,59.0,1,1,0,37.2
Status,1712439667000,25,22,6,11,1575420030,20.10,151.0,9.0,0,1,1,15.1
Status,1712439667000,25,23,6,34,1575420030,30.40,294.0,59.0,1,1,0,25.4
Status,1712439667000,25,24,6,36,1575420030,32.60,173.0,54.0,1,1,0,27.6
Raw,1712439667417,747640614000000,18,,-1395727244803960692,0.7975680828094482,68.12202627770603,4.320471243329623,15.328470345461774,319,3,0.0,16399,596485344177496,8,46.6,475.9122009277344,0.04220025613903999,16,0.0,0.0,1575420030,,,,0,,1,0.82,41.6,0.0,0.0,,,C,795391625309534
Raw,1712439667417,747640614000000,18,,-1395727244803960692,0.7975680828094482,68.12202627770603,4.320471243329623,15.328470345461774,319,4,0.0,16399,596485348999986,6,48.2,298.0009765625,0.035305872559547424,16,0.0,0.0,1575420030,,,,0,,1,0.82,43.2,0.0,0.0,,,C,795391625309534
Raw,1712439667417,747640614000000,18,,-1395727244803960692,0.7975680828094482,68.12202627770603,4.320471243329623,15.328470345461774,319,7,0.0,16399,596485338016118,11,43.9,-624.8078002929688,1.1649603843688965,16,0.0,0.0,1575420030,,,,0,,1,0.82,38.9,0.0,0.0,,,C,795391625309534
Raw,1712439667417,747640614000000,18,,-1395727244803960692,0.7975680828094482,68.12202627770603,4.320471243329623,15.328470345461774,319,9,0.0,16399,596485349954841,46,30.8,-214.74639892578125,0.7999999523162842,16,0.0,0.0,1575420030,,,,0,,1,0.82,25.8,0.0,0.0,,,C,795391625309534
Raw,1712439667417,747640614000000,18,,-1395727244803960692,0.7975680828094482,68.12202627770603,4.320471243329623,15.328470345461774,319,11,0.0,16399,596485338671599,106,24.2,-609.1015014648438,4.2235002517700195,16,0.0,0.0,1575420030,,,,0,,1,0.82,19.2,0.0,0.0,,,C,795391625309534
Raw,1712439667417,747640614000000,18,,-1395727244803960692,0.7975680828094482,68.12202627770603,4.320471243329623,15.328470345461774,319,2,0.0,49359,2467340169578,80,25.6,-581.013671875,2.6065001487731934,16,0.0,0.0,1599750020,,,,0,,3,-0.86,21.6,3778.254638671875,16.375747680664062,,,C,795391625309534
Raw,1712439667417,747640614000000,18,,-1395727244803960692,0.7975680828094482,68.12202627770603,4.320471243329623,15.328470345461774,319,24,0.0,49359,2467351700498,46,29.0,58.046363830566406,0.8569999933242798,16,0.0,0.0,1603124990,,,,0,,3,-0.86,25.0,3778.254638671875,16.375747680664062,,,C,795391625309534
Raw,1712439667417,747640614000000,18,,-1395727244803960692,0.7975680828094482,68.12202627770603,4.320471243329623,15.328470345461774,319,23,0.0,49359,2467345922521,24,34.6,767.0797119140625,3.475573778152466,16,0.0,0.0,1603687550,,,,0,,3,-0.86,30.6,3778.254638671875,16.375747680664062,,,C,795391625309534
Raw,1712439667417,747640614000000,18,,-1395727244803960692,0.7975680828094482,68.12202627770603,4.320471243329623,15.328470345461774,319,33,0.0,16399,596471340032662,35,32.2,372.25897216796875,0.6934999823570251,16,0.0,0.0,1561097980,,,,0,,5,0.27,27.900000000000002,-1566.23974609375,16.352005004882812,,,I,795391625309534
Raw,1712439667417,747640614000000,18,,-1395727244803960692,0.7975680828094482,68.12202627770603,4.320471243329623,15.328470345461774,319,30,0.0,16399,596471335554455,27,33.4,-282.77813720703125,0.6210000514984131,16,0.0,0.0,1561097980,,,,0,,5,0.27,29.099999999999998,-1566.23974609375,16.352005004882812,,,I,795391625309534
Raw,1712439667417,747640614000000,18,,-1395727244803960692,0.7975680828094482,68.12202627770603,4.320471243329623,15.328470345461774,319,28,0.0,16399,596471336328635,27,34.1,612.6732177734375,0.5795000195503235,16,0.0,0.0,1561097980,,,,0,,5,0.27,29.8,-1566.23974609375,16.352005004882812,,,I,795391625309534
Raw,1712439667417,747640614000000,18,,-1395727244803960692,0.7975680828094482,68.12202627770603,4.320471243329623,15.328470345461774,319,27,0.0,16399,596471341318759,31,33.2,239.37722778320312,0.6420000195503235,16,0.0,0.0,1561097980,,,,0,,5,0.27,28.900000000000002,-1566.23974609375,16.352005004882812,,,I,795391625309534
Raw,1712439667417,747640614000000,18,,-1395727244803960692,0.7975680828094482,68.12202627770603,4.320471243329623,15.328470345461774,319,25,0.0,16399,596471335002938,31,32.9,-529.5200805664062,0.6710000038146973,16,0.0,0.0,1561097980,,,,0,,5,0.27,28.599999999999998,-1566.23974609375,16.352005004882812,,,I,795391625309534
Raw,1712439667417,747640614000000,18,,-1395727244803960692,0.7975680828094482,68.12202627770603,4.320471243329623,15.328470345461774,319,5,0.0,23567,596485343294637,35,31.6,-234.54647827148438,0.7249999642372131,16,0.0,0.0,1575420030,,,,0,,6,1.12,27.3,-1468.1959228515625,11.80252456665039,,,C,795391625309534
Raw,1712439667417,747640614000000,18,,-1395727244803960692,0.7975680828094482,68.12202627770603,4.320471243329623,15.328470345461774,319,9,0.0,23567,596485337653386,7,46.5,272.9113464355469,0.022205490618944168,16,0.0,0.0,1575420030,,,,0,,6,1.12,42.2,-1468.1959228515625,11.80252456665039,,,C,795391625309534
Raw,1712439667417,747640614000000,18,,-1395727244803960692,0.7975680828094482,68.12202627770603,4.320471243329623,15.328470345461774,319,36,0.0,23567,596485337142168,19,36.9,374.4298400878906,1.7452385425567627,16,0.0,0.0,1575420030,,,,0,,6,1.12,32.6,-1468.1959228515625,11.80252456665039,,,C,795391625309534
Fix,GPS,45.0686175200,7.6825355400,285.3265380859375,0.45,4.1477466,144.5,1712439668000,1.3507035,83.85654,795392212093284,6.003177,0,,,
Fix,FLP,45.0686181000,7.6825348000,289.6999816894531,0.47315913,5.191,145.31117,1712439667851,1.3507035,83.85654,795392212093284,1.0608809,0,,,
Status,1712439668000,25,0,1,3,1575420030,37.30,92.0,37.0,1,1,1,32.3
Status,1712439668000,25,1,1,4,1575420030,41.90,53.0,62.0,1,1,1,36.9
Status,1712439668000,25,2,1,7,1575420030,42.60,175.0,18.0,1,1,1,37.6
Status,1712439668000,25,3,1,9,1575420030,24.70,242.0,70.0,1,1,1,19.7
Status,1712439668000,25,4,1,11,1575420030,19.20,314.0,21.0,0,1,1,14.2
