# 
# Header Description:
# 
# Version: v3.0.6.4 Platform: 14 Manufacturer: samsung Model: SM-A528B
# 
# Raw,utcTimeMillis,TimeNanos,LeapSecond,TimeUncertaintyNanos,FullBiasNanos,BiasNanos,BiasUncertaintyNanos,DriftNanosPerSecond,DriftUncertaintyNanosPerSecond,HardwareClockDiscontinuityCount,Svid,TimeOffsetNanos,State,ReceivedSvTimeNanos,ReceivedSvTimeUncertaintyNanos,Cn0DbHz,PseudorangeRateMetersPerSecond,PseudorangeRateUncertaintyMetersPerSecond,AccumulatedDeltaRangeState,AccumulatedDeltaRangeMeters,AccumulatedDeltaRangeUncertaintyMeters,CarrierFrequencyHz,CarrierCycles,CarrierPhase,CarrierPhaseUncertainty,MultipathIndicator,SnrInDb,ConstellationType,AgcDb,BasebandCn0DbHz,FullInterSignalBiasNanos,FullInterSignalBiasUncertaintyNanos,SatelliteInterSignalBiasNanos,SatelliteInterSignalBiasUncertaintyNanos,CodeType,ChipsetElapsedRealtimeNanos
# 
# UncalAccel,utcTimeMillis,elapsedRealtimeNanos,UncalAccelXMps2,UncalAccelYMps2,UncalAccelZMps2,BiasXMps2,BiasYMps2,BiasZMps2
# 
# Accel,utcTimeMillis,elapsedRealtimeNanos,AccelXMps2,AccelYMps2,AccelZMps2
# 
# UncalGyro,utcTimeMillis,elapsedRealtimeNanos,UncalGyroXRadPerSec,UncalGyroYRadPerSec,UncalGyroZRadPerSec,DriftXRadPerSec,DriftYRadPerSec,DriftZRadPerSec
# 
# Gyro,utcTimeMillis,elapsedRealtimeNanos,GyroXRadPerSec,GyroYRadPerSec,GyroZRadPerSec
# 
# UncalMag,utcTimeMillis,elapsedRealtimeNanos,UncalMagXMicroT,UncalMagYMicroT,UncalMagZMicroT,BiasXMicroT,BiasYMicroT,BiasZMicroT
# 
# Mag,utcTimeMillis,elapsedRealtimeNanos,MagXMicroT,MagYMicroT,MagZMicroT
# 
# OrientationDeg,utcTimeMillis,elapsedRealtimeNanos,yawDeg,rollDeg,pitchDeg
# 
# Fix,Provider,LatitudeDegrees,LongitudeDegrees,AltitudeMeters,SpeedMps,AccuracyMeters,BearingDegrees,UnixTimeMillis,SpeedAccuracyMps,BearingAccuracyDegrees,elapsedRealtimeNanos,VerticalAccuracyMeters,MockLocation,NumberOfUsedSignals,VerticalSpeedAccuracyMps,SolutionType
# 
# Nav,Svid,Type,Status,MessageId,Sub-messageId,Data(Bytes)
# 
# Status,UnixTimeMillis,SignalCount,SignalIndex,ConstellationType,Svid,CarrierFrequencyHz,Cn0DbHz,AzimuthDegrees,ElevationDegrees,UsedInFix,HasAlmanacData,HasEphemerisData,BasebandCn0DbHz
# 
# Agc,utcTimeMillis,TimeNanos,LeapSecond,TimeUncertaintyNanos,FullBiasNanos,BiasNanos,BiasUncertaintyNanos,DriftNanosPerSecond,DriftUncertaintyNanosPerSecond,HardwareClockDiscontinuityCount,AgcDb,CarrierFrequencyHz,ConstellationType
# 
Fix,FLP,45.0651187000,7.6758394000,290.1999816894531,0.904274,6.565,351.83212,1712437168969,0.20406243,45.0,792893330715828,2.6814916,0,,,
Status,,23,0,1,1,1575420030,33.00,0.0,0.0,0,0,0,28.0
Status,,23,1,1,3,1575420030,43.80,74.0,52.0,1,1,1,38.8
Status,,23,2,1,4,1575420030,49.40,83.0,80.0,1,1,1,44.4
Status,,23,3,1,6,1575420030,38.80,309.0,40.0,1,1,1,33.8
Status,,23,4,1,9,1575420030,33.70,224.0,51.0,1,1,1,28.7
Status,,23,5,1,17,1575420030,35.80,233.0,28.0,1,1,1,30.8
Status,,23,6,1,31,1575420030,23.20,49.0,22.0,1,1,1,18.2
Status,,23,7,3,22,1600312450,21.20,165.0,9.0,0,1,0,16.2
Status,,23,8,3,1,1602562560,24.00,262.0,43.0,1,1,1,19.0
Status,,23,9,3,24,1603124990,44.00,309.0,51.0,1,1,1,39.0
Status,,23,10,3,23,1603687550,25.90,193.0,56.0,1,1,1,20.9
Status,,23,11,3,7,1604812540,21.10,51.0,19.0,0,1,0,16.1
Status,,23,12,3,8,1605374980,37.30,18.0,63.0,1,1,0,32.3
Status,,23,13,5,33,1561097980,40.90,52.0,59.0,0,1,0,35.9
Status,,23,14,5,28,1561097980,33.80,205.0,43.0,1,1,1,28.8
Status,,23,15,5,27,1561097980,29.60,278.0,48.0,1,1,1,24.6
Status,,23,16,5,24,1561097980,23.40,89.0,17.0,0,1,0,18.4
Status,,23,17,5,16,1561097980,22.30,38.0,19.0,0,1,0,17.3
Status,,23,18,5,9,1561097980,20.40,53.0,33.0,0,1,0,15.4
Status,,23,19,5,5,1561097980,29.30,119.0,19.0,1,1,0,24.3
Status,,23,20,6,5,1575420030,27.30,221.0,47.0,1,1,0,22.3
Status,,23,21,6,9,1575420030,47.20,65.0,73.0,1,1,0,42.2
Status,,23,22,6,34,1575420030,43.60,309.0,47.0,1,1,0,38.6
Raw,1712437169416,745196696000000,18,,-1395727190720975856,0.9344903230667114,55.53239316213876,21.362314042523302,14.925033375101327,317,3,0.0,16399,593987346635060,6,48.8,353.43682861328125,0.03830587491393089,16,0.0,0.0,1575420030,,,,0,,1,0.44,43.8,0.0,0.0,,,C,792893628936400
Raw,1712437169416,745196696000000,18,,-1395727190720975856,0.9344903230667114,55.53239316213876,21.362314042523302,14.925033375101327,317,4,0.0,16399,593987349558501,4,54.4,69.02330780029297,0.03190293908119202,16,0.0,0.0,1575420030,,,,0,,1,0.44,49.4,0.0,0.0,,,C,792893628936400
Raw,1712437169416,745196696000000,18,,-1395727190720975856,0.9344903230667114,55.53239316213876,21.362314042523302,14.925033375101327,317,6,0.0,16399,593987343897034,11,43.8,-475.8731384277344,0.04569833725690842,16,0.0,0.0,1575420030,,,,0,,1,0.44,38.8,0.0,0.0,,,C,792893628936400
Raw,1712437169416,745196696000000,18,,-1395727190720975856,0.9344903230667114,55.53239316213876,21.362314042523302,14.925033375101327,317,9,0.0,16399,593987346227016,17,38.7,-433.1294860839844,1.19205641746521,16,0.0,0.0,1575420030,,,,0,,1,0.44,33.7,0.0,0.0,,,C,792893628936400
Raw,1712437169416,745196696000000,18,,-1395727190720975856,0.9344903230667114,55.53239316213876,21.362314042523302,14.925033375101327,317,17,0.0,16399,593987340646395,14,40.8,470.7164306640625,1.7656385898590088,16,0.0,0.0,1575420030,,,,0,,1,0.44,35.8,0.0,0.0,,,C,792893628936400
Raw,1712437169416,745196696000000,18,,-1395727190720975856,0.9344903230667114,55.53239316213876,21.362314042523302,14.925033375101327,317,1,0.0,49359,86369347977394,53,28.0,-406.01824951171875,0.9329999685287476,16,0.0,0.0,1602562560,,,,0,,3,-3.61,24.0,3784.897216796875,8.329755783081055,,,C,792893628936400
Raw,1712437169416,745196696000000,18,,-1395727190720975856,0.9344903230667114,55.53239316213876,21.362314042523302,14.925033375101327,317,24,0.0,49359,86369349409879,6,48.0,-351.9289245605469,0.03323518857359886,16,0.0,0.0,1603124990,,,,0,,3,-3.61,44.0,3784.897216796875,8.329755783081055,,,C,792893628936400
Raw,1712437169416,745196696000000,18,,-1395727190720975856,0.9344903230667114,55.53239316213876,21.362314042523302,14.925033375101327,317,23,0.0,49359,86369350266888,46,29.9,492.25830078125,0.8585000038146973,16,0.0,0.0,1603687550,,,,0,,3,-3.61,25.9,3784.897216796875,8.329755783081055,,,C,792893628936400
Raw,1712437169416,745196696000000,18,,-1395727190720975856,0.9344903230667114,55.53239316213876,21.362314042523302,14.925033375101327,317,8,0.0,49359,86369351061249,12,41.3,278.8502197265625,2.275272846221924,16,0.0,0.0,1605374980,,,,0,,3,-3.61,37.3,3784.897216796875,8.329755783081055,,,C,792893628936400
Raw,1712437169416,745196696000000,18,,-1395727190720975856,0.9344903230667114,55.53239316213876,21.362314042523302,14.925033375101327,317,33,0.0,16399,593973341769503,9,45.2,283.19268798828125,0.04735790565609932,16,0.0,0.0,1561097980,,,,0,,5,0.56,40.900000000000006,-1566.1861572265625,7.244825839996338,,,I,792893628936400
Raw,1712437169416,745196696000000,18,,-1395727190720975856,0.9344903230667114,55.53239316213876,21.362314042523302,14.925033375101327,317,28,0.0,16399,593973339942303,17,38.1,480.7288513183594,2.365413188934326,16,0.0,0.0,1561097980,,,,0,,5,0.56,33.800000000000004,-1566.1861572265625,7.244825839996338,,,I,792893628936400
Raw,1712437169416,745196696000000,18,,-1395727190720975856,0.9344903230667114,55.53239316213876,21.362314042523302,14.925033375101327,317,27,0.0,16399,593973341198008,27,33.9,-28.988359451293945,0.6420000195503235,16,0.0,0.0,1561097980,,,,0,,5,0.56,29.599999999999998,-1566.1861572265625,7.244825839996338,,,I,792893628936400
Raw,1712437169416,745196696000000,18,,-1395727190720975856,0.9344903230667114,55.53239316213876,21.362314042523302,14.925033375101327,317,5,0.0,23567,593987339741988,35,31.6,-373.9361572265625,1.7486952543258667,16,0.0,0.0,1575420030,,,,0,,6,0.3,27.3,-1468.1817626953125,7.0034284591674805,,,C,792893628936400
Raw,1712437169416,745196696000000,18,,-1395727190720975856,0.9344903230667114,55.53239316213876,21.362314042523302,14.925033375101327,317,9,0.0,23567,593987338378685,4,51.5,136.73143005371094,0.018802553415298462,16,0.0,0.0,1575420030,,,,0,,6,0.3,47.2,-1468.1817626953125,7.0034284591674805,,,C,792893628936400
Raw,1712437169416,745196696000000,18,,-1395727190720975856,0.9344903230667114,55.53239316213876,21.362314042523302,14.925033375101327,317,34,0.0,23567,593987334844570,6,47.9,-342.0348205566406,0.020305873826146126,16,0.0,0.0,1575420030,,,,0,,6,0.3,43.6,-1468.1817626953125,7.0034284591674805,,,C,792893628936400
Fix,GPS,45.0651378200,7.6759544300,305.13714599609375,1.02,4.1307173,105.7,1712437170000,1.1783463,53.39818,792894218346869,4.379038,0,,,
Fix,FLP,45.0651245000,7.6758454000,290.1999816894531,0.9182975,6.241,356.4302,1712437169857,0.23391803,45.0,792894218346869,2.691488,0,,,
Fix,FLP,45.0651210000,7.6758436000,290.1999816894531,0.9079624,6.139,359.37784,1712437170029,0.18792425,45.0,792894390380723,2.691488,0,,,
Status,1712437170000,24,0,1,1,1575420030,29.00,0.0,0.0,0,0,0,24.0
Status,1712437170000,24,1,1,3,1575420030,40.50,74.0,52.0,1,1,1,35.5
Status,1712437170000,24,2,1,4,1575420030,51.10,83.0,80.0,1,1,1,46.1
Status,1712437170000,24,3,1,6,1575420030,40.70,309.0,40.0,1,1,1,35.7
Status,1712437170000,24,4,1,9,1575420030,32.30,224.0,51.0,1,1,1,27.3
Status,1712437170000,24,5,1,17,1575420030,33.60,233.0,28.0,1,1,1,28.6
Status,1712437170000,24,6,1,31,1575420030,23.20,49.0,22.0,1,1,1,18.2
Status,1712437170000,24,7,3,22,1600312450,21.70,165.0,9.0,0,1,0,16.7
Status,1712437170000,24,8,3,1,1602562560,27.30,262.0,43.0,1,1,1,22.3
Status,1712437170000,24,9,3,24,1603124990,44.80,309.0,51.0,1,1,1,39.8
Status,1712437170000,24,10,3,23,1603687550,30.50,193.0,56.0,1,1,1,25.5
Status,1712437170000,24,11,3,7,1604812540,21.10,51.0,19.0,0,1,0,16.1
Status,1712437170000,24,12,3,8,1605374980,41.40,18.0,63.0,1,1,0,36.4
Status,1712437170000,24,13,5,33,1561097980,46.90,52.0,59.0,0,1,0,41.9
Status,1712437170000,24,14,5,28,1561097980,34.00,205.0,43.0,1,1,1,29.0
Status,1712437170000,24,15,5,27,1561097980,30.80,278.0,48.0,1,1,1,25.8
Status,1712437170000,24,16,5,24,1561097980,24.10,89.0,17.0,0,1,0,19.1
Status,1712437170000,24,17,5,16,1561097980,22.30,38.0,19.0,0,1,0,17.3
Status,1712437170000,24,18,5,5,1561097980,29.30,119.0,19.0,1,1,0,24.3
Status,1712437170000,24,19,6,5,1575420030,31.70,221.0,47.0,1,1,0,26.7
Status,1712437170000,24,20,6,9,1575420030,46.20,65.0,73.0,1,1,0,41.2
Status,1712437170000,24,21,6,11,1575420030,27.20,145.0,23.0,1,1,1,22.2
Status,1712437170000,24,22,6,34,1575420030,44.20,309.0,47.0,1,1,0,39.2
Status,1712437170000,24,23,6,36,1575420030,30.80,172.0,72.0,1,1,0,25.8
Raw,1712437170416,745197696000000,18,,-1395727190720975836,0.5965725183486938,53.2824888068717,17.299360429145928,16.362227777677063,317,3,0.0,16399,593988346633890,9,45.5,351.70159912109375,1.1815712451934814,16,0.0,0.0,1575420030,,,,0,,1,0.58,40.5,0.0,0.0,,,C,792894639377702
Raw,1712437170416,745197696000000,18,,-1395727190720975836,0.5965725183486938,53.2824888068717,17.299360429145928,16.362227777677063,317,4,0.0,16399,593988349558269,5,56.1,67.16223907470703,0.03150331974029541,16,0.0,0.0,1575420030,,,,0,,1,0.58,51.1,0.0,0.0,,,C,792894639377702
Raw,1712437170416,745197696000000,18,,-1395727190720975836,0.5965725183486938,53.2824888068717,17.299360429145928,16.362227777677063,317,6,0.0,16399,593988343898624,9,45.7,-477.84783935546875,0.04430919513106346,16,0.0,0.0,1575420030,,,,0,,1,0.58,40.7,0.0,0.0,,,C,792894639377702
Raw,1712437170416,745197696000000,18,,-1395727190720975836,0.5965725183486938,53.2824888068717,17.299360429145928,16.362227777677063,317,9,0.0,16399,593988346228496,19,37.3,-435.5006408691406,3.485494613647461,16,0.0,0.0,1575420030,,,,0,,1,0.58,32.3,0.0,0.0,,,C,792894639377702
Raw,1712437170416,745197696000000,18,,-1395727190720975836,0.5965725183486938,53.2824888068717,17.299360429145928,16.362227777677063,317,17,0.0,16399,593988340644843,17,38.6,468.9731140136719,2.342818260192871,16,0.0,0.0,1575420030,,,,0,,1,0.58,33.6,0.0,0.0,,,C,792894639377702
Raw,1712437170416,745197696000000,18,,-1395727190720975836,0.5965725183486938,53.2824888068717,17.299360429145928,16.362227777677063,317,22,0.0,49359,86370338312419,80,25.7,852.5556640625,2.633500099182129,16,0.0,0.0,1600312450,,,,0,,3,-0.07,21.7,3784.896484375,8.372701644897461,,,C,792894639377702
Raw,1712437170416,745197696000000,18,,-1395727190720975836,0.5965725183486938,53.2824888068717,17.299360429145928,16.362227777677063,317,1,0.0,49359,86370347978806,35,31.3,-407.9356994628906,0.7429999709129333,16,0.0,0.0,1602562560,,,,0,,3,-0.07,27.3,3784.896484375,8.372701644897461,,,C,792894639377702
Raw,1712437170416,745197696000000,18,,-1395727190720975836,0.5965725183486938,53.2824888068717,17.299360429145928,16.362227777677063,317,24,0.0,49359,86370349411053,6,48.8,-353.7764892578125,0.03323518857359886,16,0.0,0.0,1603124990,,,,0,,3,-0.07,44.8,3784.896484375,8.372701644897461,,,C,792894639377702
Raw,1712437170416,745197696000000,18,,-1395727190720975836,0.5965725183486938,53.2824888068717,17.299360429145928,16.362227777677063,317,23,0.0,49359,86370350265313,24,34.5,490.5704040527344,3.468073844909668,16,0.0,0.0,1603687550,,,,0,,3,-0.07,30.5,3784.896484375,8.372701644897461,,,C,792894639377702
Raw,1712437170416,745197696000000,18,,-1395727190720975836,0.5965725183486938,53.2824888068717,17.299360429145928,16.362227777677063,317,8,0.0,49359,86370351060400,8,45.4,276.9513854980469,0.03161255270242691,16,0.0,0.0,1605374980,,,,0,,3,-0.07,41.4,3784.896484375,8.372701644897461,,,C,792894639377702
Raw,1712437170416,745197696000000,18,,-1395727190720975836,0.5965725183486938,53.2824888068717,17.299360429145928,16.362227777677063,317,33,0.0,16399,593974341768566,5,51.2,281.2993469238281,0.044726964086294174,16,0.0,0.0,1561097980,,,,0,,5,0.67,46.900000000000006,-1566.1842041015625,7.295154571533203,,,I,792894639377702
Raw,1712437170416,745197696000000,18,,-1395727190720975836,0.5965725183486938,53.2824888068717,17.299360429145928,16.362227777677063,317,28,0.0,16399,593974339940716,16,38.3,479.03955078125,2.364011287689209,16,0.0,0.0,1561097980,,,,0,,5,0.67,34.0,-1566.1842041015625,7.295154571533203,,,I,792894639377702
Raw,1712437170416,745197696000000,18,,-1395727190720975836,0.5965725183486938,53.2824888068717,17.299360429145928,16.362227777677063,317,27,0.0,16399,593974341198100,24,35.1,-30.546791076660156,5.879885196685791,16,0.0,0.0,1561097980,,,,0,,5,0.67,30.8,-1566.1842041015625,7.295154571533203,,,I,792894639377702
Raw,1712437170416,745197696000000,18,,-1395727190720975836,0.5965725183486938,53.2824888068717,17.299360429145928,16.362227777677063,317,24,0.0,16399,593974333641638,53,28.4,-333.9086608886719,1.6260000467300415,16,0.0,0.0,1561097980,,,,0,,5,0.67,24.099999999999998,-1566.1842041015625,7.295154571533203,,,I,792894639377702
Raw,1712437170416,745197696000000,18,,-1395727190720975836,0.5965725183486938,53.2824888068717,17.299360429145928,16.362227777677063,317,5,0.0,23567,593988339743233,21,36.0,-375.771240234375,1.7527484893798828,16,0.0,0.0,1575420030,,,,0,,6,0.58,31.7,-1468.006103515625,6.974625587463379,,,C,792894639377702
Raw,1712437170416,745197696000000,18,,-1395727190720975836,0.5965725183486938,53.2824888068717,17.299360429145928,16.362227777677063,317,9,0.0,23567,593988338378228,5,50.5,134.76113891601562,0.01920216903090477,16,0.0,0.0,1575420030,,,,0,,6,0.58,46.2,-1468.006103515625,6.974625587463379,,,C,792894639377702
Raw,1712437170416,745197696000000,18,,-1395727190720975836,0.5965725183486938,53.2824888068717,17.299360429145928,16.362227777677063,317,11,0.0,23567,593988331704589,35,31.5,545.455810546875,1.1928142309188843,16,0.0,0.0,1575420030,,,,0,,6,0.58,27.2,-1468.006103515625,6.974625587463379,,,C,792894639377702
Raw,1712437170416,745197696000000,18,,-1395727190720975836,0.5965725183486938,53.2824888068717,17.299360429145928,16.362227777677063,317,34,0.0,23567,593988334845717,6,48.5,-343.9945068359375,0.01979207992553711,16,0.0,0.0,1575420030,,,,0,,6,0.58,44.2,-1468.006103515625,6.974625587463379,,,C,792894639377702
Raw,1712437170416,745197696000000,18,,-1395727190720975836,0.5965725183486938,53.2824888068717,17.299360429145928,16.362227777677063,317,36,0.0,23567,593988338489593,24,35.1,187.7993927001953,5.768701553344727,16,0.0,0.0,1575420030,,,,0,,6,0.58,30.8,-1468.006103515625,6.974625587463379,,,C,792894639377702
Fix,FLP,45.0651262000,7.6758546000,290.1999816894531,0.9194341,6.059,7.8974714,1712437170856,0.23431633,45.0,792895218397182,2.7014885,0,,,
Fix,GPS,45.0651348900,7.6759673900,303.944091796875,0.99,3.7900925,110.1,1712437171000,0.9160786,43.287605,792895218397182,3.9640388,0,,,
Fix,FLP,45.0651235000,7.6758527000,290.1999816894531,0.8905665,6.163,9.081679,1712437171052,0.19702183,45.0,792895413304629,2.7014885,0,,,
Fix,FLP,45.0651249000,7.6758517000,290.1999816894531,0.8973775,6.31,4.3702655,1712437171727,0.24024904,45.0,792896088775097,2.7014885,0,,,
Status,1712437171000,23,0,1,1,1575420030,35.50,0.0,0.0,0,0,0,30.5
Status,1712437171000,23,1,1,3,1575420030,41.10,74.0,52.0,1,1,1,36.1
Status,1712437171000,23,2,1,4,1575420030,50.90,83.0,80.0,1,1,1,45.9
Status,1712437171000,23,3,1,6,1575420030,36.00,309.0,40.0,1,1,1,31.0
Status,1712437171000,23,4,1,9,1575420030,31.70,224.0,51.0,1,1,1,26.7
Status,1712437171000,23,5,1,17,1575420030,33.80,233.0,28.0,1,1,1,28.8
Status,1712437171000,23,6,1,31,1575420030,21.10,49.0,22.0,0,1,1,16.1
Status,1712437171000,23,7,3,22,1600312450,21.70,165.0,9.0,0,1,0,16.7
Status,1712437171000,23,8,3,1,1602562560,26.10,262.0,43.0,1,1,1,21.1
Status,1712437171000,23,9,3,24,1603124990,43.40,309.0,51.0,1,1,1,38.4
Status,1712437171000,23,10,3,23,1603687550,26.10,193.0,56.0,1,1,1,21.1
Status,1712437171000,23,11,3,7,1604812540,21.10,51.0,19.0,0,1,0,16.1
Status,1712437171000,23,12,3,8,1605374980,37.80,18.0,63.0,1,1,0,32.8
Status,1712437171000,23,13,5,33,1561097980,36.10,52.0,59.0,0,1,0,31.1
Status,1712437171000,23,14,5,28,1561097980,35.20,205.0,43.0,1,1,1,30.2
Status,1712437171000,23,15,5,27,1561097980,28.00,278.0,48.0,1,1,1,23.0
Status,1712437171000,23,16,5,24,1561097980,27.80,89.0,17.0,0,1,0,22.8
Status,1712437171000,23,17,5,16,1561097980,22.30,38.0,19.0,0,1,0,17.3
Status,1712437171000,23,18,6,5,1575420030,30.40,221.0,47.0,1,1,0,25.4
Status,1712437171000,23,19,6,9,1575420030,45.70,65.0,73.0,1,1,0,40.7
Status,1712437171000,23,20,6,11,1575420030,26.70,145.0,23.0,1,1,1,21.7
Status,1712437171000,23,21,6,34,1575420030,40.20,309.0,47.0,1,1,0,35.2
Status,1712437171000,23,22,6,36,1575420030,30.80,172.0,72.0,1,1,0,25.8
Raw,1712437171416,745198696000000,18,,-1395727190720975833,0.3383861780166626,48.888352466747165,9.898044419814997,15.185477630949858,317,3,0.0,16399,593989346632710,8,46.1,350.5752868652344,0.6100812554359436,16,0.0,0.0,1575420030,,,,0,,1,0.41,41.1,0.0,0.0,,,C,792895633583847
Raw,1712437171416,745198696000000,18,,-1395727190720975833,0.3383861780166626,48.888352466747165,9.898044419814997,15.185477630949858,317,4,0.0,16399,593989349558046,4,55.9,66.13253784179688,0.03169361501932144,16,0.0,0.0,1575420030,,,,0,,1,0.41,50.9,0.0,0.0,,,C,792895633583847
Raw,1712437171416,745198696000000,18,,-1395727190720975833,0.3383861780166626,48.888352466747165,9.898044419814997,15.185477630949858,317,6,0.0,16399,593989343900206,13,41.0,-478.8964538574219,1.189154028892517,16,0.0,0.0,1575420030,,,,0,,1,0.41,36.0,0.0,0.0,,,C,792895633583847
Raw,1712437171416,745198696000000,18,,-1395727190720975833,0.3383861780166626,48.888352466747165,9.898044419814997,15.185477630949858,317,9,0.0,16399,593989346229849,21,36.7,-436.2823791503906,1.791234016418457,16,0.0,0.0,1575420030,,,,0,,1,0.41,31.700000000000003,0.0,0.0,,,C,792895633583847
Raw,1712437171416,745198696000000,18,,-1395727190720975833,0.3383861780166626,48.888352466747165,9.898044419814997,15.185477630949858,317,17,0.0,16399,593989340643233,17,38.8,467.6408386230469,1.2010563611984253,16,0.0,0.0,1575420030,,,,0,,1,0.41,33.8,0.0,0.0,,,C,792895633583847
Raw,1712437171416,745198696000000,18,,-1395727190720975833,0.3383861780166626,48.888352466747165,9.898044419814997,15.185477630949858,317,31,0.0,16399,593989339125652,80,26.1,323.7751770019531,2.5450000762939453,16,0.0,0.0,1575420030,,,,0,,1,0.41,21.1,0.0,0.0,,,C,792895633583847
Raw,1712437171416,745198696000000,18,,-1395727190720975833,0.3383861780166626,48.888352466747165,9.898044419814997,15.185477630949858,317,1,0.0,49359,86371347979984,40,30.1,-409.7596435546875,0.8029999732971191,16,0.0,0.0,1602562560,,,,0,,3,-0.16,26.1,3784.759033203125,8.283482551574707,,,C,792895633583847
Raw,1712437171416,745198696000000,18,,-1395727190720975833,0.3383861780166626,48.888352466747165,9.898044419814997,15.185477630949858,317,24,0.0,49359,86371349412233,6,47.4,-354.8146667480469,0.033740103244781494,16,0.0,0.0,1603124990,,,,0,,3,-0.16,43.4,3784.759033203125,8.283482551574707,,,C,792895633583847
Raw,1712437171416,745198696000000,18,,-1395727190720975833,0.3383861780166626,48.888352466747165,9.898044419814997,15.185477630949858,317,23,0.0,49359,86371350263644,40,30.1,490.1645812988281,0.7985000014305115,16,0.0,0.0,1603687550,,,,0,,3,-0.16,26.1,3784.759033203125,8.283482551574707,,,C,792895633583847
Raw,1712437171416,745198696000000,18,,-1395727190720975833,0.3383861780166626,48.888352466747165,9.898044419814997,15.185477630949858,317,8,0.0,49359,86371351059503,12,41.8,275.8724365234375,0.03435767441987991,16,0.0,0.0,1605374980,,,,0,,3,-0.16,37.8,3784.759033203125,8.283482551574707,,,C,792895633583847
Raw,1712437171416,745198696000000,18,,-1395727190720975833,0.3383861780166626,48.888352466747165,9.898044419814997,15.185477630949858,317,33,0.0,16399,593975341767622,13,40.4,280.131103515625,0.050468944013118744,16,0.0,0.0,1561097980,,,,0,,5,0.51,36.1,-1566.1807861328125,7.345027446746826,,,I,792895633583847
Raw,1712437171416,745198696000000,18,,-1395727190720975833,0.3383861780166626,48.888352466747165,9.898044419814997,15.185477630949858,317,28,0.0,16399,593975339939120,14,39.5,477.9961853027344,1.2068196535110474,16,0.0,0.0,1561097980,,,,0,,5,0.51,35.2,-1566.1807861328125,7.345027446746826,,,I,792895633583847
Raw,1712437171416,745198696000000,18,,-1395727190720975833,0.3383861780166626,48.888352466747165,9.898044419814997,15.185477630949858,317,27,0.0,16399,593975341198183,31,32.3,-31.5424861907959,0.6919999718666077,16,0.0,0.0,1561097980,,,,0,,5,0.51,27.999999999999996,-1566.1807861328125,7.345027446746826,,,I,792895633583847
Raw,1712437171416,745198696000000,18,,-1395727190720975833,0.3383861780166626,48.888352466747165,9.898044419814997,15.185477630949858,317,24,0.0,16399,593975333642688,35,32.1,-334.436767578125,0.6739999651908875,16,0.0,0.0,1561097980,,,,0,,5,0.51,27.8,-1566.1807861328125,7.345027446746826,,,I,792895633583847
Raw,1712437171416,745198696000000,18,,-1395727190720975833,0.3383861780166626,48.888352466747165,9.898044419814997,15.185477630949858,317,5,0.0,23567,593989339744514,24,34.7,-376.37213134765625,1.7620348930358887,16,0.0,0.0,1575420030,,,,0,,6,0.42,30.400000000000002,-1467.8043212890625,6.942728042602539,,,C,792895633583847
Raw,1712437171416,745198696000000,18,,-1395727190720975833,0.3383861780166626,48.888352466747165,9.898044419814997,15.185477630949858,317,9,0.0,23567,593989338377786,5,50.0,133.72653198242188,0.01950664073228836,16,0.0,0.0,1575420030,,,,0,,6,0.42,45.7,-1467.8043212890625,6.942728042602539,,,C,792895633583847
Raw,1712437171416,745198696000000,18,,-1395727190720975833,0.3383861780166626,48.888352466747165,9.898044419814997,15.185477630949858,317,11,0.0,23567,593989331702793,40,31.0,544.18359375,0.6134412884712219,16,0.0,0.0,1575420030,,,,0,,6,0.42,26.7,-1467.8043212890625,6.942728042602539,,,C,792895633583847
Raw,1712437171416,745198696000000,18,,-1395727190720975833,0.3383861780166626,48.888352466747165,9.898044419814997,15.185477630949858,317,34,0.0,23567,593989334846873,9,44.5,-345.04498291015625,0.02180919423699379,16,0.0,0.0,1575420030,,,,0,,6,0.42,40.2,-1467.8043212890625,6.942728042602539,,,C,792895633583847
Raw,1712437171416,745198696000000,18,,-1395727190720975833,0.3383861780166626,48.888352466747165,9.898044419814997,15.185477630949858,317,36,0.0,23567,593989338488974,24,35.1,186.59568786621094,4.0410590171813965,16,0.0,0.0,1575420030,,,,0,,6,0.42,30.8,-1467.8043212890625,6.942728042602539,,,C,792895633583847
Fix,GPS,45.0651339700,7.6759801400,304.680419921875,0.91,3.7900925,110.6,1712437172000,0.9280086,46.05298,792896218222129,3.8858435,0,,,
Fix,FLP,45.0651252000,7.6758622000,290.1999816894531,0.8883002,6.625,15.141486,1712437172210,0.2285101,45.0,792896571504576,2.7114868,0,,,
Status,1712437172000,24,0,1,1,1575420030,34.30,0.0,0.0,0,0,0,29.3
Status,1712437172000,24,1,1,3,1575420030,41.90,74.0,52.0,1,1,1,36.9
Status,1712437172000,24,2,1,4,1575420030,50.40,83.0,80.0,1,1,1,45.4
Status,1712437172000,24,3,1,6,1575420030,35.90,309.0,40.0,1,1,1,30.9
Status,1712437172000,24,4,1,9,1575420030,30.60,224.0,51.0,1,1,1,25.6
Status,1712437172000,24,5,1,17,1575420030,31.50,233.0,28.0,1,1,1,26.5
Status,1712437172000,24,6,1,19,1575420030,32.90,262.0,34.0,1,1,1,27.9
Status,1712437172000,24,7,1,31,1575420030,21.10,49.0,22.0,0,1,1,16.1
Status,1712437172000,24,8,3,22,1600312450,21.70,165.0,9.0,0,1,0,16.7
Status,1712437172000,24,9,3,1,1602562560,24.90,262.0,43.0,1,1,1,19.9
Status,1712437172000,24,10,3,24,1603124990,40.60,309.0,51.0,1,1,1,35.6
Status,1712437172000,24,11,3,23,1603687550,28.30,193.0,56.0,1,1,1,23.3
Status,1712437172000,24,12,3,7,1604812540,21.10,51.0,19.0,0,1,0,16.1
Status,1712437172000,24,13,3,8,1605374980,37.30,18.0,63.0,1,1,0,32.3
Status,1712437172000,24,14,5,33,1561097980,35.50,52.0,59.0,0,1,0,30.5
Status,1712437172000,24,15,5,28,1561097980,34.00,205.0,43.0,1,1,1,29.0
Status,1712437172000,24,16,5,27,1561097980,28.80,278.0,48.0,1,1,1,23.8
Status,1712437172000,24,17,5,24,1561097980,23.30,89.0,17.0,0,1,0,18.3
Status,1712437172000,24,18,5,16,1561097980,22.30,38.0,19.0,0,1,0,17.3
Status,1712437172000,24,19,6,5,1575420030,30.30,221.0,47.0,1,1,0,25.3
Status,1712437172000,24,20,6,9,1575420030,46.80,65.0,73.0,1,1,0,41.8
Status,1712437172000,24,21,6,11,1575420030,29.00,145.0,23.0,1,1,1,24.0
Status,1712437172000,24,22,6,34,1575420030,41.50,309.0,47.0,1,1,0,36.5
Status,1712437172000,24,23,6,36,1575420030,29.10,172.0,72.0,1,1,0,24.1
Raw,1712437172416,745199696000000,18,,-1395727190720975822,0.9482533931732178,48.89106276095845,7.469902441544902,15.999348434343448,317,3,0.0,16399,593990346631564,8,46.9,349.7418212890625,0.03920025750994682,16,0.0,0.0,1575420030,,,,0,,1,0.58,41.9,0.0,0.0,,,C,792896639178586
Raw,1712437172416,745199696000000,18,,-1395727190720975822,0.9482533931732178,48.89106276095845,7.469902441544902,15.999348434343448,317,4,0.0,16399,593990349557824,4,55.4,65.36753845214844,0.03169361501932144,16,0.0,0.0,1575420030,,,,0,,1,0.58,50.4,0.0,0.0,,,C,792896639178586
Raw,1712437172416,745199696000000,18,,-1395727190720975822,0.9482533931732178,48.89106276095845,7.469902441544902,15.999348434343448,317,6,0.0,16399,593990343901801,14,40.9,-479.9829406738281,1.1902576684951782,16,0.0,0.0,1575420030,,,,0,,1,0.58,35.9,0.0,0.0,,,C,792896639178586
Raw,1712437172416,745199696000000,18,,-1395727190720975822,0.9482533931732178,48.89106276095845,7.469902441544902,15.999348434343448,317,9,0.0,16399,593990346231388,24,35.6,-436.65576171875,0.6813843250274658,16,0.0,0.0,1575420030,,,,0,,1,0.58,30.6,0.0,0.0,,,C,792896639178586
Raw,1712437172416,745199696000000,18,,-1395727190720975822,0.9482533931732178,48.89106276095845,7.469902441544902,15.999348434343448,317,17,0.0,16399,593990340641704,21,36.5,466.5018615722656,4.65463924407959,16,0.0,0.0,1575420030,,,,0,,1,0.58,31.5,0.0,0.0,,,C,792896639178586
Raw,1712437172416,745199696000000,18,,-1395727190720975822,0.9482533931732178,48.89106276095845,7.469902441544902,15.999348434343448,317,19,0.0,16399,593990343496729,19,37.9,262.5652770996094,1.7923517227172852,16,0.0,0.0,1575420030,,,,0,,1,0.58,32.9,0.0,0.0,,,C,792896639178586
Raw,1712437172416,745199696000000,18,,-1395727190720975822,0.9482533931732178,48.89106276095845,7.469902441544902,15.999348434343448,317,1,0.0,49359,86372347981359,53,28.9,-409.32000732421875,0.9329999685287476,16,0.0,0.0,1602562560,,,,0,,3,-0.02,24.9,3784.436767578125,8.192410469055176,,,C,792896639178586
Raw,1712437172416,745199696000000,18,,-1395727190720975822,0.9482533931732178,48.89106276095845,7.469902441544902,15.999348434343448,317,24,0.0,49359,86372349413423,9,44.6,-355.5261535644531,0.035217441618442535,16,0.0,0.0,1603124990,,,,0,,3,-0.02,40.6,3784.436767578125,8.192410469055176,,,C,792896639178586
Raw,1712437172416,745199696000000,18,,-1395727190720975822,0.9482533931732178,48.89106276095845,7.469902441544902,15.999348434343448,317,23,0.0,49359,86372350261942,31,32.3,488.61297607421875,0.6784999966621399,16,0.0,0.0,1603687550,,,,0,,3,-0.02,28.299999999999997,3784.436767578125,8.192410469055176,,,C,792896639178586
Raw,1712437172416,745199696000000,18,,-1395727190720975822,0.9482533931732178,48.89106276095845,7.469902441544902,15.999348434343448,317,8,0.0,49359,86372351058555,12,41.3,275.26678466796875,2.275272846221924,16,0.0,0.0,1605374980,,,,0,,3,-0.02,37.3,3784.436767578125,8.192410469055176,,,C,792896639178586
Raw,1712437172416,745199696000000,18,,-1395727190720975822,0.9482533931732178,48.89106276095845,7.469902441544902,15.999348434343448,317,33,0.0,16399,593976341766696,14,39.8,279.3597412109375,4.084412097930908,16,0.0,0.0,1561097980,,,,0,,5,0.71,35.5,-1566.1768798828125,7.394454002380371,,,I,792896639178586
Raw,1712437172416,745199696000000,18,,-1395727190720975822,0.9482533931732178,48.89106276095845,7.469902441544902,15.999348434343448,317,28,0.0,16399,593976339937521,16,38.3,477.0801086425781,3.5162482261657715,16,0.0,0.0,1561097980,,,,0,,5,0.71,34.0,-1566.1768798828125,7.394454002380371,,,I,792896639178586
Raw,1712437172416,745199696000000,18,,-1395727190720975822,0.9482533931732178,48.89106276095845,7.469902441544902,15.999348434343448,317,27,0.0,16399,593976341198396,31,33.1,-32.1666145324707,0.6420000195503235,16,0.0,0.0,1561097980,,,,0,,5,0.71,28.8,-1566.1768798828125,7.394454002380371,,,I,792896639178586
Raw,1712437172416,745199696000000,18,,-1395727190720975822,0.9482533931732178,48.89106276095845,7.469902441544902,15.999348434343448,317,24,0.0,16399,593976333643788,61,27.6,-336.11712646484375,1.0040000677108765,16,0.0,0.0,1561097980,,,,0,,5,0.71,23.3,-1566.1768798828125,7.394454002380371,,,I,792896639178586
Raw,1712437172416,745199696000000,18,,-1395727190720975822,0.9482533931732178,48.89106276095845,7.469902441544902,15.999348434343448,317,5,0.0,23567,593990339745737,24,34.6,-378.0893249511719,4.6164398193359375,16,0.0,0.0,1575420030,,,,0,,6,0.61,30.3,-1467.747802734375,6.90946626663208,,,C,792896639178586
Raw,1712437172416,745199696000000,18,,-1395727190720975822,0.9482533931732178,48.89106276095845,7.469902441544902,15.999348434343448,317,9,0.0,23567,593990338377334,5,51.1,132.9280242919922,0.01920216903090477,16,0.0,0.0,1575420030,,,,0,,6,0.61,46.800000000000004,-1467.747802734375,6.90946626663208,,,C,792896639178586
Raw,1712437172416,745199696000000,18,,-1395727190720975822,0.9482533931732178,48.89106276095845,7.469902441544902,15.999348434343448,317,11,0.0,23567,593990331700985,27,33.3,543.384765625,1.1744080781936646,16,0.0,0.0,1575420030,,,,0,,6,0.61,28.999999999999996,-1467.747802734375,6.90946626663208,,,C,792896639178586
Raw,1712437172416,745199696000000,18,,-1395727190720975822,0.9482533931732178,48.89106276095845,7.469902441544902,15.999348434343448,317,34,0.0,23567,593990334848017,8,45.8,-345.8973693847656,0.021200254559516907,16,0.0,0.0,1575420030,,,,0,,6,0.61,41.5,-1467.747802734375,6.90946626663208,,,C,792896639178586
Raw,1712437172416,745199696000000,18,,-1395727190720975822,0.9482533931732178,48.89106276095845,7.469902441544902,15.999348434343448,317,36,0.0,23567,593990338488324,27,33.4,185.6494140625,4.62723970413208,16,0.0,0.0,1575420030,,,,0,,6,0.61,29.099999999999998,-1467.747802734375,6.90946626663208,,,C,792896639178586
Fix,GPS,45.0651317600,7.6759930100,303.7708740234375,0.96,3.7900925,120.7,1712437173000,0.9541488,46.903637,792897218580150,3.7555974,0,,,
Fix,FLP,45.0651287000,7.6758789000,290.1999816894531,0.90505755,6.82,25.729338,1712437172856,0.2354288,45.0,792897218580150,2.7214904,0,,,
Fix,FLP,45.0651280000,7.6758820000,290.1999816894531,0.90603167,6.949,35.3446,1712437173329,0.24005622,45.0,792897691353795,2.7214904,0,,,
Fix,NLP,45.0650728000,7.6760541000,290.0,,20.37,,1712437169746,,,792894107000000,2.8741157,0,,,
Fix,FLP,45.0651230000,7.6758833000,290.0,0.9191235,7.069,41.889294,1712437173480,0.24005622,45.0,792897841858083,2.9052315,0,,,
Status,1712437173000,24,0,1,1,1575420030,33.70,0.0,0.0,0,0,0,28.7
Status,1712437173000,24,1,1,3,1575420030,44.00,74.0,52.0,1,1,1,39.0
Status,1712437173000,24,2,1,4,1575420030,45.60,83.0,80.0,1,1,1,40.6
Status,1712437173000,24,3,1,6,1575420030,35.60,309.0,40.0,1,1,1,30.6
Status,1712437173000,24,4,1,9,1575420030,31.70,224.0,51.0,1,1,1,26.7
Status,1712437173000,24,5,1,17,1575420030,25.40,233.0,28.0,1,1,1,20.4
Status,1712437173000,24,6,1,31,1575420030,21.10,49.0,22.0,0,1,1,16.1
Status,1712437173000,24,7,3,22,1600312450,21.70,165.0,9.0,0,1,0,16.7
Status,1712437173000,24,8,3,9,1600875010,15.10,54.0,16.0,0,1,0,10.1
Status,1712437173000,24,9,3,1,1602562560,25.10,262.0,43.0,1,1,1,20.1
Status,1712437173000,24,10,3,24,1603124990,40.90,309.0,51.0,1,1,1,35.9
Status,1712437173000,24,11,3,23,1603687550,28.20,193.0,56.0,1,1,1,23.2
Status,1712437173000,24,12,3,7,1604812540,21.10,51.0,19.0,0,1,0,16.1
Status,1712437173000,24,13,3,8,1605374980,38.70,18.0,63.0,1,1,0,33.7
Status,1712437173000,24,14,5,33,1561097980,40.90,52.0,59.0,0,1,0,35.9
Status,1712437173000,24,15,5,28,1561097980,31.40,205.0,43.0,1,1,1,26.4
Status,1712437173000,24,16,5,27,1561097980,28.20,278.0,48.0,1,1,1,23.2
Status,1712437173000,24,17,5,24,1561097980,24.50,89.0,17.0,0,1,0,19.5
Status,1712437173000,24,18,5,16,1561097980,22.30,38.0,19.0,0,1,0,17.3
Status,1712437173000,24,19,6,5,1575420030,33.30,221.0,47.0,1,1,0,28.3
Status,1712437173000,24,20,6,9,1575420030,48.70,65.0,73.0,1,1,0,43.7
Status,1712437173000,24,21,6,11,1575420030,26.20,145.0,23.0,1,1,1,21.2
Status,1712437173000,24,22,6,34,1575420030,33.80,309.0,47.0,1,1,0,28.8
Status,1712437173000,24,23,6,36,1575420030,28.50,172.0,72.0,1,1,0,23.5
Raw,1712437173416,745200696000000,18,,-1395727190720975823,0.8083145618438721,47.207504394464195,3.5117808858839683,14.962492596016222,317,3,0.0,16399,593991346630389,6,49.0,349.31842041015625,0.037792082875967026,16,0.0,0.0,1575420030,,,,0,,1,0.68,44.0,0.0,0.0,,,C,792897641290617
Raw,1712437173416,745200696000000,18,,-1395727190720975823,0.8083145618438721,47.207504394464195,3.5117808858839683,14.962492596016222,317,4,0.0,16399,593991349557619,5,50.6,65.08472442626953,0.03300664201378822,16,0.0,0.0,1575420030,,,,0,,1,0.68,45.6,0.0,0.0,,,C,792897641290617
Raw,1712437173416,745200696000000,18,,-1395727190720975823,0.8083145618438721,47.207504394464195,3.5117808858839683,14.962492596016222,317,6,0.0,16399,593991343903403,14,40.6,-480.68743896484375,1.1902576684951782,16,0.0,0.0,1575420030,,,,0,,1,0.68,35.6,0.0,0.0,,,C,792897641290617
Raw,1712437173416,745200696000000,18,,-1395727190720975823,0.8083145618438721,47.207504394464195,3.5117808858839683,14.962492596016222,317,9,0.0,16399,593991346232812,21,36.7,-437.7250061035156,0.07859104871749878,16,0.0,0.0,1575420030,,,,0,,1,0.68,31.700000000000003,0.0,0.0,,,C,792897641290617
Raw,1712437173416,745200696000000,18,,-1395727190720975823,0.8083145618438721,47.207504394464195,3.5117808858839683,14.962492596016222,317,17,0.0,16399,593991340640189,46,30.4,467.275634765625,0.8134999871253967,16,0.0,0.0,1575420030,,,,0,,1,0.68,25.4,0.0,0.0,,,C,792897641290617
Raw,1712437173416,745200696000000,18,,-1395727190720975823,0.8083145618438721,47.207504394464195,3.5117808858839683,14.962492596016222,317,9,0.0,49359,86373340354642,181,19.1,-184.2154083251953,9.966501235961914,16,0.0,0.0,1600875010,,,,0,,3,-0.09,15.100000000000001,3784.1123046875,8.116830825805664,,,C,792897641290617
Raw,1712437173416,745200696000000,18,,-1395727190720975823,0.8083145618438721,47.207504394464195,3.5117808858839683,14.962492596016222,317,1,0.0,49359,86373347982669,46,29.1,-409.81573486328125,0.8629999756813049,16,0.0,0.0,1602562560,,,,0,,3,-0.09,25.1,3784.1123046875,8.116830825805664,,,C,792897641290617
Raw,1712437173416,745200696000000,18,,-1395727190720975823,0.8083145618438721,47.207504394464195,3.5117808858839683,14.962492596016222,317,24,0.0,49359,86373349414602,9,44.9,-355.71533203125,0.035217441618442535,16,0.0,0.0,1603124990,,,,0,,3,-0.09,40.9,3784.1123046875,8.116830825805664,,,C,792897641290617
Raw,1712437173416,745200696000000,18,,-1395727190720975823,0.8083145618438721,47.207504394464195,3.5117808858839683,14.962492596016222,317,23,0.0,49359,86373350260336,31,32.2,487.67828369140625,0.6784999966621399,16,0.0,0.0,1603687550,,,,0,,3,-0.09,28.200000000000003,3784.1123046875,8.116830825805664,,,C,792897641290617
Raw,1712437173416,745200696000000,18,,-1395727190720975823,0.8083145618438721,47.207504394464195,3.5117808858839683,14.962492596016222,317,8,0.0,49359,86373351057620,11,42.7,274.8221740722656,1.1540309190750122,16,0.0,0.0,1605374980,,,,0,,3,-0.09,38.7,3784.1123046875,8.116830825805664,,,C,792897641290617
Raw,1712437173416,745200696000000,18,,-1395727190720975823,0.8083145618438721,47.207504394464195,3.5117808858839683,14.962492596016222,317,33,0.0,16399,593977341765771,9,45.2,278.8763732910156,0.04735790565609932,16,0.0,0.0,1561097980,,,,0,,5,0.56,40.900000000000006,-1566.175048828125,7.443602561950684,,,I,792897641290617
Raw,1712437173416,745200696000000,18,,-1395727190720975823,0.8083145618438721,47.207504394464195,3.5117808858839683,14.962492596016222,317,28,0.0,16399,593977339935943,21,35.7,476.818115234375,1.2417324781417847,16,0.0,0.0,1561097980,,,,0,,5,0.56,31.400000000000002,-1566.175048828125,7.443602561950684,,,I,792897641290617
Raw,1712437173416,745200696000000,18,,-1395727190720975823,0.8083145618438721,47.207504394464195,3.5117808858839683,14.962492596016222,317,27,0.0,16399,593977341198433,31,32.5,-33.51089096069336,0.6919999718666077,16,0.0,0.0,1561097980,,,,0,,5,0.56,28.2,-1566.175048828125,7.443602561950684,,,I,792897641290617
Raw,1712437173416,745200696000000,18,,-1395727190720975823,0.8083145618438721,47.207504394464195,3.5117808858839683,14.962492596016222,317,24,0.0,16399,593977333644952,53,28.8,-337.5093994140625,0.9239999651908875,16,0.0,0.0,1561097980,,,,0,,5,0.56,24.5,-1566.175048828125,7.443602561950684,,,I,792897641290617
Raw,1712437173416,745200696000000,18,,-1395727190720975823,0.8083145618438721,47.207504394464195,3.5117808858839683,14.962492596016222,317,5,0.0,23567,593991339747014,17,37.6,-377.6968078613281,1.1751692295074463,16,0.0,0.0,1575420030,,,,0,,6,0.67,33.300000000000004,-1467.6336669921875,6.8797807693481445,,,C,792897641290617
Raw,1712437173416,745200696000000,18,,-1395727190720975823,0.8083145618438721,47.207504394464195,3.5117808858839683,14.962492596016222,317,9,0.0,23567,593991338376904,4,53.0,132.5729217529297,0.018593229353427887,16,0.0,0.0,1575420030,,,,0,,6,0.67,48.7,-1467.6336669921875,6.8797807693481445,,,C,792897641290617
Raw,1712437173416,745200696000000,18,,-1395727190720975823,0.8083145618438721,47.207504394464195,3.5117808858839683,14.962492596016222,317,11,0.0,23567,593991331699214,40,30.5,543.1948852539062,1.1843223571777344,16,0.0,0.0,1575420030,,,,0,,6,0.67,26.2,-1467.6336669921875,6.8797807693481445,,,C,792897641290617
Raw,1712437173416,745200696000000,18,,-1395727190720975823,0.8083145618438721,47.207504394464195,3.5117808858839683,14.962492596016222,317,34,0.0,23567,593991334849167,17,38.1,-346.4093322753906,0.02890714630484581,16,0.0,0.0,1575420030,,,,0,,6,0.67,33.800000000000004,-1467.6336669921875,6.8797807693481445,,,C,792897641290617
Raw,1712437173416,745200696000000,18,,-1395727190720975823,0.8083145618438721,47.207504394464195,3.5117808858839683,14.962492596016222,317,36,0.0,23567,593991338487705,31,32.8,185.2098388671875,0.029706381261348724,16,0.0,0.0,1575420030,,,,0,,6,0.67,28.499999999999996,-1467.6336669921875,6.8797807693481445,,,C,792897641290617
Fix,GPS,45.0651276100,7.6760063100,303.55377197265625,1.06,3.7900925,122.1,1712437174000,0.9457801,43.399826,792898218746347,3.5613928,0,,,
Fix,FLP,45.0651298000,7.6759146000,290.0,0.9838001,7.281,45.272446,1712437173856,0.24024652,45.0,792898218746347,2.9152331,0,,,
Fix,FLP,45.0651267000,7.6759158000,290.0,0.9926292,7.497,53.395294,1712437174408,0.23251681,45.0,792898769287388,2.9152331,0,,,
Status,1712437174000,24,0,1,1,1575420030,35.00,0.0,0.0,0,0,0,30.0
Status,1712437174000,24,1,1,3,1575420030,44.70,74.0,52.0,1,1,1,39.7
Status,1712437174000,24,2,1,4,1575420030,46.30,83.0,80.0,1,1,1,41.3
Status,1712437174000,24,3,1,6,1575420030,35.60,309.0,40.0,1,1,1,30.6
Status,1712437174000,24,4,1,9,1575420030,33.80,224.0,51.0,1,1,1,28.8
Status,1712437174000,24,5,1,17,1575420030,30.90,233.0,28.0,1,1,1,25.9
Status,1712437174000,24,6,1,31,1575420030,21.10,49.0,22.0,0,1,1,16.1
Status,1712437174000,24,7,3,22,1600312450,21.70,165.0,9.0,0,1,0,16.7
Status,1712437174000,24,8,3,9,1600875010,15.10,54.0,16.0,0,1,0,10.1
Status,1712437174000,24,9,3,1,1602562560,28.10,262.0,43.0,1,1,1,23.1
Status,1712437174000,24,10,3,24,1603124990,41.30,309.0,51.0,1,1,1,36.3
Status,1712437174000,24,11,3,23,1603687550,29.10,193.0,56.0,1,1,1,24.1
Status,1712437174000,24,12,3,7,1604812540,21.10,51.0,19.0,0,1,0,16.1
Status,1712437174000,24,13,3,8,1605374980,41.10,18.0,63.0,1,1,0,36.1
Status,1712437174000,24,14,5,33,1561097980,44.50,52.0,59.0,0,1,0,39.5
Status,1712437174000,24,15,5,28,1561097980,33.40,205.0,43.0,1,1,1,28.4
Status,1712437174000,24,16,5,27,1561097980,29.20,278.0,48.0,1,1,1,24.2
Status,1712437174000,24,17,5,24,1561097980,24.10,89.0,17.0,0,1,0,19.1
Status,1712437174000,24,18,5,16,1561097980,22.30,38.0,19.0,0,1,0,17.3
Status,1712437174000,24,19,6,5,1575420030,30.90,221.0,47.0,1,1,0,25.9
Status,1712437174000,24,20,6,9,1575420030,45.20,65.0,73.0,1,1,0,40.2
Status,1712437174000,24,21,6,11,1575420030,27.80,145.0,23.0,1,1,1,22.8
Status,1712437174000,24,22,6,34,1575420030,38.10,309.0,47.0,1,1,0,33.1
Status,1712437174000,24,23,6,36,1575420030,30.60,172.0,72.0,1,1,0,25.6
Raw,1712437174416,745201696000000,18,,-1395727190720975824,0.8043488264083862,46.11498297890648,1.5324249602176976,15.134304622818783,317,3,0.0,16399,593992346629235,6,49.7,348.68310546875,0.608673095703125,16,0.0,0.0,1575420030,,,,0,,1,0.83,44.7,0.0,0.0,,,C,792898632868274
Raw,1712437174416,745201696000000,18,,-1395727190720975824,0.8043488264083862,46.11498297890648,1.5324249602176976,15.134304622818783,317,4,0.0,16399,593992349557397,5,51.3,64.32459259033203,0.03270217031240463,16,0.0,0.0,1575420030,,,,0,,1,0.83,46.3,0.0,0.0,,,C,792898632868274
Raw,1712437174416,745201696000000,18,,-1395727190720975824,0.8043488264083862,46.11498297890648,1.5324249602176976,15.134304622818783,317,6,0.0,16399,593992343905025,14,40.6,-480.88311767578125,4.044662952423096,16,0.0,0.0,1575420030,,,,0,,1,0.83,35.6,0.0,0.0,,,C,792898632868274
Raw,1712437174416,745201696000000,18,,-1395727190720975824,0.8043488264083862,46.11498297890648,1.5324249602176976,15.134304622818783,317,9,0.0,16399,593992346234270,17,38.8,-437.9937744140625,3.4755802154541016,16,0.0,0.0,1575420030,,,,0,,1,0.83,33.8,0.0,0.0,,,C,792898632868274
Raw,1712437174416,745201696000000,18,,-1395727190720975824,0.8043488264083862,46.11498297890648,1.5324249602176976,15.134304622818783,317,17,0.0,16399,593992340638577,24,35.9,465.9962158203125,3.5447893142700195,16,0.0,0.0,1575420030,,,,0,,1,0.83,30.9,0.0,0.0,,,C,792898632868274
Raw,1712437174416,745201696000000,18,,-1395727190720975824,0.8043488264083862,46.11498297890648,1.5324249602176976,15.134304622818783,317,1,0.0,49359,86374347984025,31,32.1,-411.1065368652344,0.6829999685287476,16,0.0,0.0,1602562560,,,,0,,3,0.01,28.1,3783.908203125,8.04061222076416,,,C,792898632868274
Raw,1712437174416,745201696000000,18,,-1395727190720975824,0.8043488264083862,46.11498297890648,1.5324249602176976,15.134304622818783,317,24,0.0,49359,86374349415801,8,45.3,-356.4595031738281,0.03461902588605881,16,0.0,0.0,1603124990,,,,0,,3,0.01,41.3,3783.908203125,8.04061222076416,,,C,792898632868274
Raw,1712437174416,745201696000000,18,,-1395727190720975824,0.8043488264083862,46.11498297890648,1.5324249602176976,15.134304622818783,317,23,0.0,49359,86374350258723,27,33.1,487.5380859375,0.6285000443458557,16,0.0,0.0,1603687550,,,,0,,3,0.01,29.1,3783.908203125,8.04061222076416,,,C,792898632868274
Raw,1712437174416,745201696000000,18,,-1395727190720975824,0.8043488264083862,46.11498297890648,1.5324249602176976,15.134304622818783,317,8,0.0,49359,86374351056694,8,45.1,273.9319152832031,0.03161255270242691,16,0.0,0.0,1605374980,,,,0,,3,0.01,41.1,3783.908203125,8.04061222076416,,,C,792898632868274
Raw,1712437174416,745201696000000,18,,-1395727190720975824,0.8043488264083862,46.11498297890648,1.5324249602176976,15.134304622818783,317,33,0.0,16399,593978341764840,6,48.8,278.14788818359375,0.6214407682418823,16,0.0,0.0,1561097980,,,,0,,5,0.77,44.5,-1566.1717529296875,7.492462635040283,,,I,792898632868274
Raw,1712437174416,745201696000000,18,,-1395727190720975824,0.8043488264083862,46.11498297890648,1.5324249602176976,15.134304622818783,317,28,0.0,16399,593978339934339,17,37.7,476.1451416015625,1.2131761312484741,16,0.0,0.0,1561097980,,,,0,,5,0.77,33.400000000000006,-1566.1717529296875,7.492462635040283,,,I,792898632868274
Raw,1712437174416,745201696000000,18,,-1395727190720975824,0.8043488264083862,46.11498297890648,1.5324249602176976,15.134304622818783,317,27,0.0,16399,593978341198542,27,33.5,-34.11581802368164,0.6420000195503235,16,0.0,0.0,1561097980,,,,0,,5,0.77,29.2,-1566.1717529296875,7.492462635040283,,,I,792898632868274
Raw,1712437174416,745201696000000,18,,-1395727190720975824,0.8043488264083862,46.11498297890648,1.5324249602176976,15.134304622818783,317,24,0.0,16399,593978333646131,53,28.4,-338.162353515625,0.9239999651908875,16,0.0,0.0,1561097980,,,,0,,5,0.77,24.099999999999998,-1566.1717529296875,7.492462635040283,,,I,792898632868274
Raw,1712437174416,745201696000000,18,,-1395727190720975824,0.8043488264083862,46.11498297890648,1.5324249602176976,15.134304622818783,317,5,0.0,23567,593992339748281,24,35.2,-378.4188537597656,0.6202728748321533,16,0.0,0.0,1575420030,,,,0,,6,0.83,30.900000000000002,-1467.5091552734375,6.850194931030273,,,C,792898632868274
Raw,1712437174416,745201696000000,18,,-1395727190720975824,0.8043488264083862,46.11498297890648,1.5324249602176976,15.134304622818783,317,9,0.0,23567,593992338376452,5,49.5,131.74745178222656,0.01950664073228836,16,0.0,0.0,1575420030,,,,0,,6,0.83,45.2,-1467.5091552734375,6.850194931030273,,,C,792898632868274
Raw,1712437174416,745201696000000,18,,-1395727190720975824,0.8043488264083862,46.11498297890648,1.5324249602176976,15.134304622818783,317,11,0.0,23567,593992331697360,35,32.1,542.987060546875,3.4613382816314697,16,0.0,0.0,1575420030,,,,0,,6,0.83,27.8,-1467.5091552734375,6.850194931030273,,,C,792898632868274
Raw,1712437174416,745201696000000,18,,-1395727190720975824,0.8043488264083862,46.11498297890648,1.5324249602176976,15.134304622818783,317,34,0.0,23567,593992334850327,11,42.4,-346.9543762207031,0.023198336362838745,16,0.0,0.0,1575420030,,,,0,,6,0.83,38.1,-1467.5091552734375,6.850194931030273,,,C,792898632868274
Raw,1712437174416,745201696000000,18,,-1395727190720975824,0.8043488264083862,46.11498297890648,1.5324249602176976,15.134304622818783,317,36,0.0,23567,593992338487098,24,34.9,184.80947875976562,2.3104140758514404,16,0.0,0.0,1575420030,,,,0,,6,0.83,30.599999999999998,-1467.5091552734375,6.850194931030273,,,C,792898632868274
Fix,GPS,45.0651242900,7.6760201100,302.96612548828125,0.99,3.7900925,118.7,1712437175000,0.9160786,43.27793,792899218375617,3.4983392,0,,,
Fix,FLP,45.0651286000,7.6759217000,290.0,0.9879209,7.561,49.42517,1712437174857,0.22654665,45.0,792899218375617,2.9252295,0,,,
Fix,FLP,45.0651253000,7.6759223000,290.0,1.0349705,7.705,58.92826,1712437175025,0.16917424,45.0,792899386327492,2.9252295,0,,,
Fix,FLP,45.0651240000,7.6759260000,290.0,1.0338033,7.962,60.75065,1712437175449,0.21680628,45.0,792899810802856,2.9252295,0,,,
Status,1712437175000,24,0,1,1,1575420030,30.20,0.0,0.0,0,0,0,25.2
Status,1712437175000,24,1,1,3,1575420030,37.70,74.0,52.0,1,1,1,32.7
Status,1712437175000,24,2,1,4,1575420030,46.90,83.0,80.0,1,1,1,41.9
Status,1712437175000,24,3,1,6,1575420030,37.40,309.0,40.0,1,1,1,32.4
Status,1712437175000,24,4,1,9,1575420030,33.80,224.0,51.0,1,1,1,28.8
Status,1712437175000,24,5,1,17,1575420030,35.20,233.0,28.0,1,1,1,30.2
Status,1712437175000,24,6,1,19,1575420030,31.30,262.0,34.0,1,1,1,26.3
Status,1712437175000,24,7,1,31,1575420030,21.10,49.0,22.0,0,1,1,16.1
Status,1712437175000,24,8,3,22,1600312450,18.60,165.0,9.0,0,1,0,13.6
Status,1712437175000,24,9,3,9,1600875010,15.10,54.0,16.0,0,1,0,10.1
Status,1712437175000,24,10,3,1,1602562560,26.00,262.0,43.0,1,1,1,21.0
Status,1712437175000,24,11,3,24,1603124990,42.60,309.0,51.0,1,1,1,37.6
Status,1712437175000,24,12,3,23,1603687550,31.40,193.0,56.0,1,1,1,26.4
Status,1712437175000,24,13,3,7,1604812540,21.10,51.0,19.0,0,1,0,16.1
Status,1712437175000,24,14,3,8,1605374980,39.90,18.0,63.0,1,1,0,34.9
Status,1712437175000,24,15,5,33,1561097980,41.30,52.0,59.0,0,1,0,36.3
Status,1712437175000,24,16,5,28,1561097980,32.30,205.0,43.0,1,1,1,27.3
Status,1712437175000,24,17,5,27,1561097980,26.50,278.0,48.0,1,1,1,21.5
Status,1712437175000,24,18,5,24,1561097980,23.20,89.0,17.0,0,1,0,18.2
Status,1712437175000,24,19,6,5,1575420030,32.50,221.0,47.0,1,1,0,27.5
Status,1712437175000,24,20,6,9,1575420030,42.90,65.0,73.0,1,1,0,37.9
Status,1712437175000,24,21,6,11,1575420030,23.30,145.0,23.0,1,1,1,18.3
Status,1712437175000,24,22,6,34,1575420030,38.50,309.0,47.0,1,1,0,33.5
Status,1712437175000,24,23,6,36,1575420030,25.30,172.0,72.0,1,1,0,20.3
Raw,1712437175416,745202696000000,18,,-1395727190720975828,0.45134711265563965,45.36132837529294,0.009838609645691507,14.981782878010867,317,3,0.0,16399,593993346628053,12,42.7,346.3753967285156,1.1837595701217651,16,0.0,0.0,1575420030,,,,0,,1,0.83,37.7,0.0,0.0,,,C,792899634643846
Raw,1712437175416,745202696000000,18,,-1395727190720975828,0.45134711265563965,45.36132837529294,0.009838609645691507,14.981782878010867,317,4,0.0,16399,593993349557188,5,51.9,62.167991638183594,0.03270217031240463,16,0.0,0.0,1575420030,,,,0,,1,0.83,46.9,0.0,0.0,,,C,792899634643846
Raw,1712437175416,745202696000000,18,,-1395727190720975828,0.45134711265563965,45.36132837529294,0.009838609645691507,14.981782878010867,317,6,0.0,16399,593993343906636,12,42.4,-482.96630859375,1.1882596015930176,16,0.0,0.0,1575420030,,,,0,,1,0.83,37.4,0.0,0.0,,,C,792899634643846
Raw,1712437175416,745202696000000,18,,-1395727190720975828,0.45134711265563965,45.36132837529294,0.009838609645691507,14.981782878010867,317,9,0.0,16399,593993346235743,17,38.8,-439.9495849609375,2.3338184356689453,16,0.0,0.0,1575420030,,,,0,,1,0.83,33.8,0.0,0.0,,,C,792899634643846
Raw,1712437175416,745202696000000,18,,-1395727190720975828,0.45134711265563965,45.36132837529294,0.009838609645691507,14.981782878010867,317,17,0.0,16399,593993340637055,14,40.2,463.7535095214844,2.336519718170166,16,0.0,0.0,1575420030,,,,0,,1,0.83,35.2,0.0,0.0,,,C,792899634643846
Raw,1712437175416,745202696000000,18,,-1395727190720975828,0.45134711265563965,45.36132837529294,0.009838609645691507,14.981782878010867,317,19,0.0,16399,593993343494149,21,36.3,259.75927734375,2.952495813369751,16,0.0,0.0,1575420030,,,,0,,1,0.83,31.299999999999997,0.0,0.0,,,C,792899634643846
Raw,1712437175416,745202696000000,18,,-1395727190720975828,0.45134711265563965,45.36132837529294,0.009838609645691507,14.981782878010867,317,22,0.0,49359,86375338298495,122,22.6,849.4085083007812,4.44350004196167,16,0.0,0.0,1600312450,,,,0,,3,-0.02,18.6,3783.822021484375,7.97761344909668,,,C,792899634643846
Raw,1712437175416,745202696000000,18,,-1395727190720975828,0.45134711265563965,45.36132837529294,0.009838609645691507,14.981782878010867,317,1,0.0,49359,86375347985651,40,30.0,-412.7714538574219,0.8029999732971191,16,0.0,0.0,1602562560,,,,0,,3,-0.02,26.0,3783.822021484375,7.97761344909668,,,C,792899634643846
Raw,1712437175416,745202696000000,18,,-1395727190720975828,0.45134711265563965,45.36132837529294,0.009838609645691507,14.981782878010867,317,24,0.0,49359,86375349416975,7,46.6,-358.4726867675781,0.034132812172174454,16,0.0,0.0,1603124990,,,,0,,3,-0.02,42.6,3783.822021484375,7.97761344909668,,,C,792899634643846
Raw,1712437175416,745202696000000,18,,-1395727190720975828,0.45134711265563965,45.36132837529294,0.009838609645691507,14.981782878010867,317,23,0.0,49359,86375350257086,21,35.4,486.2711181640625,3.4367241859436035,16,0.0,0.0,1603687550,,,,0,,3,-0.02,31.4,3783.822021484375,7.97761344909668,,,C,792899634643846
Raw,1712437175416,745202696000000,18,,-1395727190720975828,0.45134711265563965,45.36132837529294,0.009838609645691507,14.981782878010867,317,8,0.0,49359,86375351055796,10,43.9,271.8521728515625,0.03278903290629387,16,0.0,0.0,1605374980,,,,0,,3,-0.02,39.9,3783.822021484375,7.97761344909668,,,C,792899634643846
Raw,1712437175416,745202696000000,18,,-1395727190720975828,0.45134711265563965,45.36132837529294,0.009838609645691507,14.981782878010867,317,33,0.0,16399,593979341763911,8,45.6,275.9617919921875,0.046743378043174744,16,0.0,0.0,1561097980,,,,0,,5,0.74,41.300000000000004,-1566.168212890625,7.541086673736572,,,I,792899634643846
Raw,1712437175416,745202696000000,18,,-1395727190720975828,0.45134711265563965,45.36132837529294,0.009838609645691507,14.981782878010867,317,28,0.0,16399,593979339932758,19,36.6,474.05145263671875,5.256011009216309,16,0.0,0.0,1561097980,,,,0,,5,0.74,32.300000000000004,-1566.168212890625,7.541086673736572,,,I,792899634643846
Raw,1712437175416,745202696000000,18,,-1395727190720975828,0.45134711265563965,45.36132837529294,0.009838609645691507,14.981782878010867,317,27,0.0,16399,593979341198629,40,30.8,-35.680938720703125,0.8119999766349792,16,0.0,0.0,1561097980,,,,0,,5,0.74,26.5,-1566.168212890625,7.541086673736572,,,I,792899634643846
Raw,1712437175416,745202696000000,18,,-1395727190720975828,0.45134711265563965,45.36132837529294,0.009838609645691507,14.981782878010867,317,24,0.0,16399,593979333647234,61,27.5,-339.6410217285156,1.0040000677108765,16,0.0,0.0,1561097980,,,,0,,5,0.74,23.2,-1566.168212890625,7.541086673736572,,,I,792899634643846
Raw,1712437175416,745202696000000,18,,-1395727190720975828,0.45134711265563965,45.36132837529294,0.009838609645691507,14.981782878010867,317,5,0.0,23567,593993339749540,19,36.8,-380.7632751464844,2.319119453430176,16,0.0,0.0,1575420030,,,,0,,6,0.83,32.5,-1467.310791015625,6.8257293701171875,,,C,792899634643846
Raw,1712437175416,745202696000000,18,,-1395727190720975828,0.45134711265563965,45.36132837529294,0.009838609645691507,14.981782878010867,317,9,0.0,23567,593993338376023,7,47.2,129.56361389160156,0.020705489441752434,16,0.0,0.0,1575420030,,,,0,,6,0.83,42.900000000000006,-1467.310791015625,6.8257293701171875,,,C,792899634643846
Raw,1712437175416,745202696000000,18,,-1395727190720975828,0.45134711265563965,45.36132837529294,0.009838609645691507,14.981782878010867,317,11,0.0,23567,593993331695538,61,27.6,540.3008422851562,1.0010000467300415,16,0.0,0.0,1575420030,,,,0,,6,0.83,23.3,-1467.310791015625,6.8257293701171875,,,C,792899634643846
Raw,1712437175416,745202696000000,18,,-1395727190720975828,0.45134711265563965,45.36132837529294,0.009838609645691507,14.981782878010867,317,34,0.0,23567,593993334851489,11,42.8,-349.14508056640625,0.023198336362838745,16,0.0,0.0,1575420030,,,,0,,6,0.83,38.5,-1467.310791015625,6.8257293701171875,,,C,792899634643846
Raw,1712437175416,745202696000000,18,,-1395727190720975828,0.45134711265563965,45.36132837529294,0.009838609645691507,14.981782878010867,317,36,0.0,23567,593993338486488,46,29.6,182.82464599609375,0.8464999794960022,16,0.0,0.0,1575420030,,,,0,,6,0.83,25.3,-1467.310791015625,6.8257293701171875,,,C,792899634643846
Fix,GPS,45.0651210500,7.6760332200,303.00830078125,1.0,3.7900925,116.7,1712437176000,0.9102197,42.796444,792900218623794,3.2326949,0,,,
Fix,FLP,45.0651247000,7.6759318000,290.0,1.0326378,8.136,54.791557,1712437175857,0.19273578,45.0,792900218623794,2.935232,0,,,
Fix,FLP,45.0651197000,7.6759337000,290.0,1.054894,8.362,66.365204,1712437176083,0.20650041,45.0,792900445270460,2.935232,0,,,
Fix,FLP,45.0651167000,7.6759393000,290.0,1.0281296,8.532,67.72634,1712437176605,0.24627781,45.0,792900966174523,2.935232,0,,,
Status,1712437176000,23,0,1,1,1575420030,33.10,0.0,0.0,0,0,0,28.1
Status,1712437176000,23,1,1,3,1575420030,42.90,74.0,52.0,1,1,1,37.9
Status,1712437176000,23,2,1,4,1575420030,50.40,83.0,80.0,1,1,1,45.4
Status,1712437176000,23,3,1,6,1575420030,41.80,309.0,40.0,1,1,1,36.8
Status,1712437176000,23,4,1,9,1575420030,33.00,224.0,51.0,1,1,1,28.0
Status,1712437176000,23,5,1,17,1575420030,31.50,233.0,28.0,1,1,1,26.5
Status,1712437176000,23,6,1,31,1575420030,21.10,49.0,22.0,0,1,1,16.1
Status,1712437176000,23,7,3,22,1600312450,18.60,165.0,9.0,0,1,0,13.6
Status,1712437176000,23,8,3,9,1600875010,15.10,54.0,16.0,0,1,0,10.1
Status,1712437176000,23,9,3,1,1602562560,23.10,262.0,43.0,1,1,1,18.1
Status,1712437176000,23,10,3,24,1603124990,41.30,309.0,51.0,1,1,1,36.3
Status,1712437176000,23,11,3,23,1603687550,31.20,193.0,56.0,1,1,1,26.2
Status,1712437176000,23,12,3,7,1604812540,21.10,51.0,19.0,0,1,0,16.1
Status,1712437176000,23,13,3,8,1605374980,38.50,18.0,63.0,1,1,0,33.5
Status,1712437176000,23,14,5,33,1561097980,41.70,52.0,59.0,0,1,0,36.7
Status,1712437176000,23,15,5,28,1561097980,33.80,205.0,43.0,1,1,1,28.8
Status,1712437176000,23,16,5,27,1561097980,27.50,278.0,48.0,1,1,1,22.5
Status,1712437176000,23,17,5,24,1561097980,24.60,89.0,17.0,0,1,0,19.6
Status,1712437176000,23,18,6,5,1575420030,28.20,221.0,47.0,1,1,0,23.2
Status,1712437176000,23,19,6,9,1575420030,44.40,65.0,73.0,1,1,0,39.4
Status,1712437176000,23,20,6,11,1575420030,26.10,145.0,23.0,1,1,1,21.1
Status,1712437176000,23,21,6,34,1575420030,39.70,309.0,47.0,1,1,0,34.7
Status,1712437176000,23,22,6,36,1575420030,28.60,172.0,72.0,1,1,0,23.6
Raw,1712437176416,745203696000000,18,,-1395727190720975834,0.04571044445037842,42.45957461534999,-7.371423070692463,16.402724963516906,317,3,0.0,16399,593994346626906,7,47.9,345.8426513671875,0.0387054942548275,16,0.0,0.0,1575420030,,,,0,,1,0.58,42.9,0.0,0.0,,,C,792900632715357
Raw,1712437176416,745203696000000,18,,-1395727190720975834,0.04571044445037842,42.45957461534999,-7.371423070692463,16.402724963516906,317,4,0.0,16399,593994349556979,4,55.4,61.62744903564453,0.03169361501932144,16,0.0,0.0,1575420030,,,,0,,1,0.58,50.4,0.0,0.0,,,C,792900632715357
Raw,1712437176416,745203696000000,18,,-1395727190720975834,0.04571044445037842,42.45957461534999,-7.371423070692463,16.402724963516906,317,6,0.0,16399,593994343908236,8,46.8,-483.6914367675781,0.04370025545358658,16,0.0,0.0,1575420030,,,,0,,1,0.58,41.8,0.0,0.0,,,C,792900632715357
Raw,1712437176416,745203696000000,18,,-1395727190720975834,0.04571044445037842,42.45957461534999,-7.371423070692463,16.402724963516906,317,9,0.0,16399,593994346237214,17,38.0,-440.70550537109375,4.046461582183838,16,0.0,0.0,1575420030,,,,0,,1,0.58,33.0,0.0,0.0,,,C,792900632715357
Raw,1712437176416,745203696000000,18,,-1395727190720975834,0.04571044445037842,42.45957461534999,-7.371423070692463,16.402724963516906,317,17,0.0,16399,593994340635465,21,36.5,462.6419677734375,0.5234999656677246,16,0.0,0.0,1575420030,,,,0,,1,0.58,31.5,0.0,0.0,,,C,792900632715357
Raw,1712437176416,745203696000000,18,,-1395727190720975834,0.04571044445037842,42.45957461534999,-7.371423070692463,16.402724963516906,317,1,0.0,49359,86376347986931,61,27.1,-414.2586669921875,1.0130000114440918,16,0.0,0.0,1602562560,,,,0,,3,-0.07,23.1,3783.85302734375,7.900355815887451,,,C,792900632715357
Raw,1712437176416,745203696000000,18,,-1395727190720975834,0.04571044445037842,42.45957461534999,-7.371423070692463,16.402724963516906,317,24,0.0,49359,86376349418183,8,45.3,-359.1297912597656,0.03461902588605881,16,0.0,0.0,1603124990,,,,0,,3,-0.07,41.3,3783.85302734375,7.900355815887451,,,C,792900632715357
