# 
# Header Description:
# 
# Version: v3.0.6.4 Platform: 13 Manufacturer: samsung Model: SM-A715F
# 
# Raw,utcTimeMillis,TimeNanos,LeapSecond,TimeUncertaintyNanos,FullBiasNanos,BiasNanos,BiasUncertaintyNanos,DriftNanosPerSecond,DriftUncertaintyNanosPerSecond,HardwareClockDiscontinuityCount,Svid,TimeOffsetNanos,State,ReceivedSvTimeNanos,ReceivedSvTimeUncertaintyNanos,Cn0DbHz,PseudorangeRateMetersPerSecond,PseudorangeRateUncertaintyMetersPerSecond,AccumulatedDeltaRangeState,AccumulatedDeltaRangeMeters,AccumulatedDeltaRangeUncertaintyMeters,CarrierFrequencyHz,CarrierCycles,CarrierPhase,CarrierPhaseUncertainty,MultipathIndicator,SnrInDb,ConstellationType,AgcDb,BasebandCn0DbHz,FullInterSignalBiasNanos,FullInterSignalBiasUncertaintyNanos,SatelliteInterSignalBiasNanos,SatelliteInterSignalBiasUncertaintyNanos,CodeType,ChipsetElapsedRealtimeNanos
# 
# UncalAccel,utcTimeMillis,elapsedRealtimeNanos,UncalAccelXMps2,UncalAccelYMps2,UncalAccelZMps2,BiasXMps2,BiasYMps2,BiasZMps2
# 
# Accel,utcTimeMillis,elapsedRealtimeNanos,AccelXMps2,AccelYMps2,AccelZMps2
# 
# UncalGyro,utcTimeMillis,elapsedRealtimeNanos,UncalGyroXRadPerSec,UncalGyroYRadPerSec,UncalGyroZRadPerSec,DriftXRadPerSec,DriftYRadPerSec,DriftZRadPerSec
# 
# Gyro,utcTimeMillis,elapsedRealtimeNanos,GyroXRadPerSec,GyroYRadPerSec,GyroZRadPerSec
# 
# UncalMag,utcTimeMillis,elapsedRealtimeNanos,UncalMagXMicroT,UncalMagYMicroT,UncalMagZMicroT,BiasXMicroT,BiasYMicroT,BiasZMicroT
# 
# Mag,utcTimeMillis,elapsedRealtimeNanos,MagXMicroT,MagYMicroT,MagZMicroT
# 
# OrientationDeg,utcTimeMillis,elapsedRealtimeNanos,yawDeg,rollDeg,pitchDeg
# 
# Fix,Provider,LatitudeDegrees,LongitudeDegrees,AltitudeMeters,SpeedMps,AccuracyMeters,BearingDegrees,UnixTimeMillis,SpeedAccuracyMps,BearingAccuracyDegrees,elapsedRealtimeNanos,VerticalAccuracyMeters,MockLocation,NumberOfUsedSignals,VerticalSpeedAccuracyMps,SolutionType
# 
# Nav,Svid,Type,Status,MessageId,Sub-messageId,Data(Bytes)
# 
# Status,UnixTimeMillis,SignalCount,SignalIndex,ConstellationType,Svid,CarrierFrequencyHz,Cn0DbHz,AzimuthDegrees,ElevationDegrees,UsedInFix,HasAlmanacData,HasEphemerisData,BasebandCn0DbHz
# 
# Agc,utcTimeMillis,TimeNanos,LeapSecond,TimeUncertaintyNanos,FullBiasNanos,BiasNanos,BiasUncertaintyNanos,DriftNanosPerSecond,DriftUncertaintyNanosPerSecond,HardwareClockDiscontinuityCount,AgcDb,CarrierFrequencyHz,ConstellationType
# 
Fix,FLP,36.6351405000,29.0834909000,242.725341796875,0.2740252,3.9,118.92707,1712569061465,0.840595,45.0,5534131711430,3.0,0,,,
Status,,29,0,1,5,1575420030,26.20,118.0,18.0,1,1,1,21.2
Status,,29,1,1,11,1575420030,31.60,45.0,28.0,1,1,1,26.6
Status,,29,2,1,12,1575420030,40.20,98.0,49.0,1,1,1,35.2
Status,,29,3,1,18,1575420030,42.00,201.0,21.0,1,1,1,37.0
Status,,29,4,1,20,1575420030,24.30,81.0,24.0,0,1,1,19.3
Status,,29,5,1,25,1575420030,39.80,46.0,77.0,1,1,1,34.8
Status,,29,6,1,28,1575420030,25.50,296.0,37.0,0,1,1,20.5
Status,,29,7,1,29,1575420030,30.50,291.0,61.0,1,1,1,25.5
Status,,29,8,1,31,1575420030,39.60,317.0,16.0,1,1,1,34.6
Status,,29,9,3,10,1602000000,27.00,330.0,50.0,0,1,0,22.0
Status,,29,10,3,9,1602000000,30.30,115.0,78.0,1,1,0,25.3
Status,,29,11,3,16,1602000000,37.90,137.0,21.0,1,1,1,32.9
Status,,29,12,3,20,1602000000,28.40,229.0,61.0,1,1,0,23.4
Status,,29,13,3,19,1602000000,27.40,26.0,45.0,1,1,0,22.4
Status,,29,14,5,2,1561097980,32.80,112.0,18.0,0,1,0,27.8
Status,,29,15,5,5,1561097980,40.30,136.0,35.0,1,1,0,35.3
Status,,29,16,5,8,1561097980,29.30,70.0,34.0,1,1,0,24.3
Status,,29,17,5,10,1561097980,29.20,82.0,16.0,1,1,0,24.2
Status,,29,18,5,13,1561097980,34.90,87.0,37.0,1,1,1,29.9
Status,,29,19,5,27,1561097980,32.30,36.0,65.0,0,1,0,27.3
Status,,29,20,5,28,1561097980,36.10,47.0,18.0,0,1,0,31.1
Status,,29,21,5,30,1561097980,35.90,244.0,56.0,1,1,1,30.9
Status,,29,22,6,2,1575420030,35.20,309.0,32.0,1,1,0,30.2
Status,,29,23,6,10,1575420030,41.40,52.0,47.0,1,1,0,36.4
Status,,29,24,6,11,1575420030,27.90,94.0,70.0,0,1,0,22.9
Status,,29,25,6,12,1575420030,30.10,40.0,24.0,1,1,0,25.1
Status,,29,26,6,24,1575420030,32.40,108.0,34.0,1,1,0,27.4
Status,,29,27,6,25,1575420030,39.50,21.0,75.0,1,1,0,34.5
Status,,29,28,6,36,1575420030,38.60,192.0,41.0,1,1,0,33.6
Raw,1712569061439,6473804000000,18,,-1396597805635199790,-0.28403759002685547,30.263476219261065,-2.7753453828270382,12.671665837075004,29,10,0.0,49359,45461371500145,53,24.0,-502.2828063964844,1.2130000591278076,16,0.0,0.0,1598062460,,,,0,,3,0.4,21.0,,,,,,
Raw,1712569061439,6473804000000,18,,-1396597805635199790,-0.28403759002685547,30.263476219261065,-2.7753453828270382,12.671665837075004,29,9,0.0,49359,45461375287570,35,27.3,100.58158111572266,1.0089999437332153,16,0.0,0.0,1600875010,,,,0,,3,0.4,24.3,,,,,,
Raw,1712569061439,6473804000000,18,,-1396597805635199790,-0.28403759002685547,30.263476219261065,-2.7753453828270382,12.671665837075004,29,16,0.0,49359,45461364288218,16,34.9,678.7277221679688,0.23269999027252197,16,0.0,0.0,1601437440,,,,0,,3,0.4,31.9,,,,,,
Raw,1712569061439,6473804000000,18,,-1396597805635199790,-0.28403759002685547,30.263476219261065,-2.7753453828270382,12.671665837075004,29,20,0.0,49359,45461373540435,46,25.4,-303.39697265625,1.1360000371932983,16,0.0,0.0,1603124990,,,,0,,3,0.4,22.4,,,,,,
Raw,1712569061439,6473804000000,18,,-1396597805635199790,-0.28403759002685547,30.263476219261065,-2.7753453828270382,12.671665837075004,29,19,0.0,49359,45461370397699,53,24.4,549.4337768554688,1.2115000486373901,16,0.0,0.0,1603687550,,,,0,,3,0.4,21.4,,,,,,
Raw,1712569061439,6473804000000,18,,-1396597805635199790,-0.28403759002685547,30.263476219261065,-2.7753453828270382,12.671665837075004,29,11,0.0,81935,121079361990251,31,28.6,518.5692749023438,0.7279999852180481,16,0.0,0.0,1575420030,,,,0,,1,1.74,25.6,,,,,,
Raw,1712569061439,6473804000000,18,,-1396597805635199790,-0.28403759002685547,30.263476219261065,-2.7753453828270382,12.671665837075004,29,12,0.0,81935,121079367756334,12,37.2,342.0427551269531,0.03440000116825104,16,0.0,0.0,1575420030,,,,0,,1,1.74,34.2,,,,,,
Raw,1712569061439,6473804000000,18,,-1396597805635199790,-0.28403759002685547,30.263476219261065,-2.7753453828270382,12.671665837075004,29,18,0.0,81935,121079359778613,10,39.0,-687.8182373046875,0.020600000396370888,16,0.0,0.0,1575420030,,,,0,,1,1.74,36.0,,,,,,
Raw,1712569061439,6473804000000,18,,-1396597805635199790,-0.28403759002685547,30.263476219261065,-2.7753453828270382,12.671665837075004,29,25,0.0,81935,121079372478366,13,36.8,28.879568099975586,0.04320000112056732,16,0.0,0.0,1575420030,,,,0,,1,1.74,33.8,,,,,,
Raw,1712569061439,6473804000000,18,,-1396597805635199790,-0.28403759002685547,30.263476219261065,-2.7753453828270382,12.671665837075004,29,29,0.0,81935,121079369352042,35,27.5,-156.22158813476562,0.7999999523162842,16,0.0,0.0,1575420030,,,,0,,1,1.74,24.5,,,,,,
Raw,1712569061439,6473804000000,18,,-1396597805635199790,-0.28403759002685547,30.263476219261065,-2.7753453828270382,12.671665837075004,29,31,0.0,81935,121079359313683,13,36.6,-515.5772094726562,0.053700000047683716,16,0.0,0.0,1575420030,,,,0,,1,1.74,33.6,,,,,,
Raw,1712569061439,6473804000000,18,,-1396597805635199790,-0.28403759002685547,30.263476219261065,-2.7753453828270382,12.671665837075004,29,5,0.0,16399,121065311415669,16,34.3,-7.278296947479248,7.052500247955322,16,0.0,0.0,1561097980,,,,0,,5,1.7,28.299999999999997,,,,,,
Raw,1712569061439,6473804000000,18,,-1396597805635199790,-0.28403759002685547,30.263476219261065,-2.7753453828270382,12.671665837075004,29,8,0.0,16399,121065311487006,61,23.3,-188.08348083496094,0.8629999756813049,16,0.0,0.0,1561097980,,,,0,,5,1.7,17.3,,,,,,
Raw,1712569061439,6473804000000,18,,-1396597805635199790,-0.28403759002685547,30.263476219261065,-2.7753453828270382,12.671665837075004,29,10,0.0,16399,121065306539719,61,23.2,46.76161575317383,0.8554999828338623,16,0.0,0.0,1561097980,,,,0,,5,1.7,17.2,,,,,,
Raw,1712569061439,6473804000000,18,,-1396597805635199790,-0.28403759002685547,30.263476219261065,-2.7753453828270382,12.671665837075004,29,13,0.0,16399,121065312338443,31,28.9,-243.83255004882812,0.5945000052452087,16,0.0,0.0,1561097980,,,,0,,5,1.7,22.9,,,,,,
Raw,1712569061439,6473804000000,18,,-1396597805635199790,-0.28403759002685547,30.263476219261065,-2.7753453828270382,12.671665837075004,29,27,0.0,16399,121065366178040,40,26.3,249.65133666992188,0.6754999756813049,16,0.0,0.0,1561097980,,,,0,,5,1.7,20.3,,,,,,
Raw,1712569061439,6473804000000,18,,-1396597805635199790,-0.28403759002685547,30.263476219261065,-2.7753453828270382,12.671665837075004,29,28,0.0,16399,121065355230394,24,30.1,542.2073364257812,0.4043000042438507,16,0.0,0.0,1561097980,,,,0,,5,1.7,24.1,,,,,,
Raw,1712569061439,6473804000000,18,,-1396597805635199790,-0.28403759002685547,30.263476219261065,-2.7753453828270382,12.671665837075004,29,30,0.0,16399,121065364781351,27,29.9,-272.6864929199219,0.5324999690055847,16,0.0,0.0,1561097980,,,,0,,5,1.7,23.9,,,,,,
Raw,1712569061439,6473804000000,18,,-1396597805635199790,-0.28403759002685547,30.263476219261065,-2.7753453828270382,12.671665837075004,29,2,0.0,89103,121079353750412,27,29.2,-410.1970520019531,0.5519999861717224,16,0.0,0.0,1575420030,,,,0,,6,1.79,23.2,,,,,,
Raw,1712569061439,6473804000000,18,,-1396597805635199790,-0.28403759002685547,30.263476219261065,-2.7753453828270382,12.671665837075004,29,10,0.0,89103,121079356669770,14,35.4,276.58038330078125,0.049800001084804535,16,0.0,0.0,1575420030,,,,0,,6,1.79,29.4,,,,,,
Raw,1712569061439,6473804000000,18,,-1396597805635199790,-0.28403759002685547,30.263476219261065,-2.7753453828270382,12.671665837075004,29,12,0.0,89103,121079350239726,53,24.1,458.8456115722656,0.8134999871253967,16,0.0,0.0,1575420030,,,,0,,6,1.79,18.1,,,,,,
Raw,1712569061439,6473804000000,18,,-1396597805635199790,-0.28403759002685547,30.263476219261065,-2.7753453828270382,12.671665837075004,29,24,0.0,89103,121079353376302,40,26.4,331.1871032714844,0.6919999718666077,16,0.0,0.0,1575420030,,,,0,,6,1.79,20.4,,,,,,
Raw,1712569061439,6473804000000,18,,-1396597805635199790,-0.28403759002685547,30.263476219261065,-2.7753453828270382,12.671665837075004,29,25,0.0,89103,121079361219655,17,33.5,-67.51644897460938,0.05880000442266464,16,0.0,0.0,1575420030,,,,0,,6,1.79,27.5,,,,,,
Raw,1712569061439,6473804000000,18,,-1396597805635199790,-0.28403759002685547,30.263476219261065,-2.7753453828270382,12.671665837075004,29,36,0.0,89103,121079355904037,19,32.6,-483.9693603515625,0.06379999965429306,16,0.0,0.0,1575420030,,,,0,,6,1.79,26.6,,,,,,
Fix,GPS,36.6351420800,29.0834923200,241.7811279296875,0.2,3.7900925,358.5,1712569062000,1.2701575,95.00638,5535136854347,3.0,0,,,
Fix,FLP,36.6351420000,29.0834922000,241.7811279296875,0.19729508,3.9,358.03552,1712569062470,1.2701575,95.00638,5535136854347,3.0,0,,,
Status,1712569062000,29,0,1,5,1575420030,25.80,118.0,18.0,1,1,1,20.8
Status,1712569062000,29,1,1,11,1575420030,30.40,45.0,28.0,1,1,1,25.4
Status,1712569062000,29,2,1,12,1575420030,39.90,98.0,49.0,1,1,1,34.9
Status,1712569062000,29,3,1,18,1575420030,42.40,201.0,21.0,1,1,1,37.4
Status,1712569062000,29,4,1,20,1575420030,24.30,81.0,24.0,0,1,1,19.3
Status,1712569062000,29,5,1,25,1575420030,40.70,46.0,77.0,1,1,1,35.7
Status,1712569062000,29,6,1,28,1575420030,22.10,296.0,37.0,0,1,1,17.1
Status,1712569062000,29,7,1,29,1575420030,28.80,291.0,61.0,1,1,1,23.8
Status,1712569062000,29,8,1,31,1575420030,39.70,317.0,16.0,1,1,1,34.7
Status,1712569062000,29,9,3,10,1602000000,27.20,330.0,50.0,0,1,0,22.2
Status,1712569062000,29,10,3,9,1602000000,29.90,115.0,78.0,1,1,0,24.9
Status,1712569062000,29,11,3,16,1602000000,38.80,137.0,21.0,1,1,1,33.8
Status,1712569062000,29,12,3,20,1602000000,28.30,229.0,61.0,1,1,0,23.3
Status,1712569062000,29,13,3,19,1602000000,27.80,26.0,45.0,1,1,0,22.8
Status,1712569062000,29,14,5,2,1561097980,32.80,112.0,18.0,0,1,0,27.8
Status,1712569062000,29,15,5,5,1561097980,40.80,136.0,35.0,1,1,0,35.8
Status,1712569062000,29,16,5,8,1561097980,30.80,70.0,34.0,1,1,0,25.8
Status,1712569062000,29,17,5,10,1561097980,29.20,82.0,16.0,1,1,0,24.2
Status,1712569062000,29,18,5,13,1561097980,34.00,87.0,37.0,1,1,1,29.0
Status,1712569062000,29,19,5,27,1561097980,34.70,36.0,65.0,0,1,0,29.7
Status,1712569062000,29,20,5,28,1561097980,36.00,47.0,18.0,0,1,0,31.0
Status,1712569062000,29,21,5,30,1561097980,36.70,244.0,56.0,1,1,1,31.7
Status,1712569062000,29,22,6,2,1575420030,35.10,309.0,32.0,1,1,0,30.1
Status,1712569062000,29,23,6,10,1575420030,41.90,52.0,47.0,1,1,0,36.9
Status,1712569062000,29,24,6,11,1575420030,27.90,94.0,70.0,0,1,0,22.9
Status,1712569062000,29,25,6,12,1575420030,31.70,40.0,24.0,1,1,0,26.7
Status,1712569062000,29,26,6,24,1575420030,31.70,108.0,34.0,1,1,0,26.7
Status,1712569062000,29,27,6,25,1575420030,40.10,21.0,75.0,1,1,0,35.1
Status,1712569062000,29,28,6,36,1575420030,38.10,192.0,41.0,1,1,0,33.1
Fix,GPS,36.6351408800,29.0834936200,242.82501220703125,0.0,3.7900925,,1712569063000,0.8736704,,5536148627888,3.0,0,,,
Raw,1712569062439,6474804000000,18,,-1396597805635199793,-0.05565357208251953,51.3182494614739,-2.7753453828270382,24.390415920089385,30,10,0.0,49359,45462371501875,53,24.2,-501.0540771484375,1.2130000591278076,16,0.0,0.0,1598062460,,,,0,,3,0.32,21.2,,,,,,
Raw,1712569062439,6474804000000,18,,-1396597805635199793,-0.05565357208251953,51.3182494614739,-2.7753453828270382,24.390415920089385,30,9,0.0,49359,45462375287220,40,26.9,102.27635192871094,1.069000005722046,16,0.0,0.0,1600875010,,,,0,,3,0.32,23.9,,,,,,
Raw,1712569062439,6474804000000,18,,-1396597805635199793,-0.05565357208251953,51.3182494614739,-2.7753453828270382,24.390415920089385,30,16,0.0,49359,45462364285896,14,35.8,680.4522705078125,0.23179998993873596,16,0.0,0.0,1601437440,,,,0,,3,0.32,32.8,,,,,,
Raw,1712569062439,6474804000000,18,,-1396597805635199793,-0.05565357208251953,51.3182494614739,-2.7753453828270382,24.390415920089385,30,20,0.0,49359,45462373541528,46,25.3,-301.798095703125,1.1360000371932983,16,0.0,0.0,1603124990,,,,0,,3,0.32,22.3,,,,,,
Raw,1712569062439,6474804000000,18,,-1396597805635199793,-0.05565357208251953,51.3182494614739,-2.7753453828270382,24.390415920089385,30,19,0.0,49359,45462370395748,53,24.8,551.6956787109375,1.2115000486373901,16,0.0,0.0,1603687550,,,,0,,3,0.32,21.8,,,,,,
Raw,1712569062439,6474804000000,18,,-1396597805635199793,-0.05565357208251953,51.3182494614739,-2.7753453828270382,24.390415920089385,30,5,0.0,81935,121080359882967,79,22.8,-497.342041015625,2.6649999618530273,16,0.0,0.0,1575420030,,,,0,,1,1.8,19.8,,,,,,
Raw,1712569062439,6474804000000,18,,-1396597805635199793,-0.05565357208251953,51.3182494614739,-2.7753453828270382,24.390415920089385,30,11,0.0,81935,121080361988563,35,27.4,520.3485107421875,0.7879999876022339,16,0.0,0.0,1575420030,,,,0,,1,1.8,24.4,,,,,,
Raw,1712569062439,6474804000000,18,,-1396597805635199793,-0.05565357208251953,51.3182494614739,-2.7753453828270382,24.390415920089385,30,12,0.0,81935,121080367755189,13,36.9,343.76763916015625,0.0357000008225441,16,0.0,0.0,1575420030,,,,0,,1,1.8,33.9,,,,,,
Raw,1712569062439,6474804000000,18,,-1396597805635199793,-0.05565357208251953,51.3182494614739,-2.7753453828270382,24.390415920089385,30,18,0.0,81935,121080359780892,10,39.4,-686.05908203125,0.020600000396370888,16,0.0,0.0,1575420030,,,,0,,1,1.8,36.4,,,,,,
Raw,1712569062439,6474804000000,18,,-1396597805635199793,-0.05565357208251953,51.3182494614739,-2.7753453828270382,24.390415920089385,30,25,0.0,81935,121080372478273,12,37.7,30.585636138916016,0.04190000146627426,16,0.0,0.0,1575420030,,,,0,,1,1.8,34.7,,,,,,
Raw,1712569062439,6474804000000,18,,-1396597805635199793,-0.05565357208251953,51.3182494614739,-2.7753453828270382,24.390415920089385,30,28,0.0,81935,121080365281389,136,19.1,-257.19140625,4.484000205993652,16,0.0,0.0,1575420030,,,,0,,1,1.8,16.1,,,,,,
Raw,1712569062439,6474804000000,18,,-1396597805635199793,-0.05565357208251953,51.3182494614739,-2.7753453828270382,24.390415920089385,30,29,0.0,81935,121080369352514,46,25.8,-154.19496154785156,0.9299999475479126,16,0.0,0.0,1575420030,,,,0,,1,1.8,22.8,,,,,,
Raw,1712569062439,6474804000000,18,,-1396597805635199793,-0.05565357208251953,51.3182494614739,-2.7753453828270382,24.390415920089385,30,31,0.0,81935,121080359315369,13,36.7,-513.9121704101562,0.053700000047683716,16,0.0,0.0,1575420030,,,,0,,1,1.8,33.7,,,,,,
Raw,1712569062439,6474804000000,18,,-1396597805635199793,-0.05565357208251953,51.3182494614739,-2.7753453828270382,24.390415920089385,30,5,0.0,16399,121066311415718,16,34.8,-8.795408248901367,7.052500247955322,16,0.0,0.0,1561097980,,,,0,,5,1.61,28.799999999999997,,,,,,
Raw,1712569062439,6474804000000,18,,-1396597805635199793,-0.05565357208251953,51.3182494614739,-2.7753453828270382,24.390415920089385,30,8,0.0,16399,121066311487655,53,24.8,-186.5663604736328,0.8029999732971191,16,0.0,0.0,1561097980,,,,0,,5,1.61,18.8,,,,,,
Raw,1712569062439,6474804000000,18,,-1396597805635199793,-0.05565357208251953,51.3182494614739,-2.7753453828270382,24.390415920089385,30,13,0.0,16399,121066312339268,31,28.0,-242.45947265625,0.5945000052452087,16,0.0,0.0,1561097980,,,,0,,5,1.61,22.0,,,,,,
Raw,1712569062439,6474804000000,18,,-1396597805635199793,-0.05565357208251953,51.3182494614739,-2.7753453828270382,24.390415920089385,30,27,0.0,16399,121066366177216,31,28.7,252.042236328125,0.5855000019073486,16,0.0,0.0,1561097980,,,,0,,5,1.61,22.7,,,,,,
Raw,1712569062439,6474804000000,18,,-1396597805635199793,-0.05565357208251953,51.3182494614739,-2.7753453828270382,24.390415920089385,30,28,0.0,16399,121066355228590,24,30.0,543.5390014648438,0.5189999938011169,16,0.0,0.0,1561097980,,,,0,,5,1.61,24.0,,,,,,
Raw,1712569062439,6474804000000,18,,-1396597805635199793,-0.05565357208251953,51.3182494614739,-2.7753453828270382,24.390415920089385,30,30,0.0,16399,121066364782276,24,30.7,-270.87158203125,0.387800008058548,16,0.0,0.0,1561097980,,,,0,,5,1.61,24.7,,,,,,
Raw,1712569062439,6474804000000,18,,-1396597805635199793,-0.05565357208251953,51.3182494614739,-2.7753453828270382,24.390415920089385,30,2,0.0,89103,121080353751746,27,29.1,-408.09429931640625,0.5519999861717224,16,0.0,0.0,1575420030,,,,0,,6,1.79,23.1,,,,,,
Raw,1712569062439,6474804000000,18,,-1396597805635199793,-0.05565357208251953,51.3182494614739,-2.7753453828270382,24.390415920089385,30,10,0.0,89103,121080356668839,14,35.9,277.9482116699219,0.049800001084804535,16,0.0,0.0,1575420030,,,,0,,6,1.79,29.9,,,,,,
Raw,1712569062439,6474804000000,18,,-1396597805635199793,-0.05565357208251953,51.3182494614739,-2.7753453828270382,24.390415920089385,30,12,0.0,89103,121080350238207,46,25.7,459.32135009765625,0.7534999847412109,16,0.0,0.0,1575420030,,,,0,,6,1.79,19.7,,,,,,
Raw,1712569062439,6474804000000,18,,-1396597805635199793,-0.05565357208251953,51.3182494614739,-2.7753453828270382,24.390415920089385,30,24,0.0,89103,121080353375200,46,25.7,332.5096435546875,0.7519999742507935,16,0.0,0.0,1575420030,,,,0,,6,1.79,19.7,,,,,,
Raw,1712569062439,6474804000000,18,,-1396597805635199793,-0.05565357208251953,51.3182494614739,-2.7753453828270382,24.390415920089385,30,25,0.0,89103,121080361219864,16,34.1,-66.17239379882812,0.05220000445842743,16,0.0,0.0,1575420030,,,,0,,6,1.79,28.1,,,,,,
Raw,1712569062439,6474804000000,18,,-1396597805635199793,-0.05565357208251953,51.3182494614739,-2.7753453828270382,24.390415920089385,30,36,0.0,89103,121080355905663,19,32.1,-482.666748046875,0.06379999965429306,16,0.0,0.0,1575420030,,,,0,,6,1.79,26.1,,,,,,
Fix,FLP,36.6351413000,29.0834934000,242.82501220703125,0.18963294,3.9,358.02188,1712569063482,0.8736704,45.0,5536148627888,3.0,0,,,
Status,1712569063000,29,0,1,5,1575420030,27.10,118.0,18.0,1,1,1,22.1
Status,1712569063000,29,1,1,11,1575420030,30.70,45.0,28.0,1,1,1,25.7
Status,1712569063000,29,2,1,12,1575420030,41.00,98.0,49.0,1,1,1,36.0
Status,1712569063000,29,3,1,18,1575420030,43.20,201.0,21.0,1,1,1,38.2
Status,1712569063000,29,4,1,20,1575420030,24.30,81.0,24.0,0,1,1,19.3
Status,1712569063000,29,5,1,25,1575420030,40.10,46.0,77.0,1,1,1,35.1
Status,1712569063000,29,6,1,28,1575420030,22.10,296.0,37.0,1,1,1,17.1
Status,1712569063000,29,7,1,29,1575420030,30.80,291.0,61.0,1,1,1,25.8
Status,1712569063000,29,8,1,31,1575420030,40.20,317.0,16.0,1,1,1,35.2
Status,1712569063000,29,9,3,10,1602000000,27.20,330.0,50.0,0,1,0,22.2
Status,1712569063000,29,10,3,9,1602000000,29.40,115.0,78.0,1,1,0,24.4
Status,1712569063000,29,11,3,16,1602000000,39.00,137.0,21.0,1,1,1,34.0
Status,1712569063000,29,12,3,20,1602000000,27.10,229.0,61.0,1,1,0,22.1
Status,1712569063000,29,13,3,19,1602000000,28.70,26.0,45.0,1,1,0,23.7
Status,1712569063000,29,14,5,2,1561097980,32.80,112.0,18.0,0,1,0,27.8
Status,1712569063000,29,15,5,5,1561097980,40.60,136.0,35.0,1,1,0,35.6
Status,1712569063000,29,16,5,8,1561097980,32.40,70.0,34.0,1,1,0,27.4
Status,1712569063000,29,17,5,10,1561097980,27.00,82.0,16.0,1,1,0,22.0
Status,1712569063000,29,18,5,13,1561097980,35.00,87.0,37.0,1,1,1,30.0
Status,1712569063000,29,19,5,27,1561097980,32.20,36.0,65.0,0,1,0,27.2
Status,1712569063000,29,20,5,28,1561097980,37.00,47.0,18.0,0,1,0,32.0
Status,1712569063000,29,21,5,30,1561097980,36.00,244.0,56.0,1,1,1,31.0
Status,1712569063000,29,22,6,2,1575420030,35.20,309.0,32.0,1,1,0,30.2
Status,1712569063000,29,23,6,10,1575420030,42.30,52.0,47.0,1,1,0,37.3
Status,1712569063000,29,24,6,11,1575420030,26.30,94.0,70.0,0,1,0,21.3
Status,1712569063000,29,25,6,12,1575420030,33.70,40.0,24.0,1,1,0,28.7
Status,1712569063000,29,26,6,24,1575420030,33.20,108.0,34.0,1,1,0,28.2
Status,1712569063000,29,27,6,25,1575420030,39.90,21.0,75.0,1,1,0,34.9
Status,1712569063000,29,28,6,36,1575420030,39.30,192.0,41.0,1,1,0,34.3
Raw,1712569063439,6475804000000,18,,-1396597805635199836,-0.3882303237915039,32.27061461075209,-18.368221466541115,12.800718905198309,30,10,0.0,49359,45463371503749,53,24.2,-496.50482177734375,1.2130000591278076,16,0.0,0.0,1598062460,,,,0,,3,0.42,21.2,,,,,,
Raw,1712569063439,6475804000000,18,,-1396597805635199836,-0.3882303237915039,32.27061461075209,-18.368221466541115,12.800718905198309,30,9,0.0,49359,45463375286817,40,26.4,106.79886627197266,1.069000005722046,16,0.0,0.0,1600875010,,,,0,,3,0.42,23.4,,,,,,
Raw,1712569063439,6475804000000,18,,-1396597805635199836,-0.3882303237915039,32.27061461075209,-18.368221466541115,12.800718905198309,30,16,0.0,49359,45463364283639,13,36.0,684.1260375976562,0.23120000958442688,16,0.0,0.0,1601437440,,,,0,,3,0.42,33.0,,,,,,
Raw,1712569063439,6475804000000,18,,-1396597805635199836,-0.3882303237915039,32.27061461075209,-18.368221466541115,12.800718905198309,30,20,0.0,49359,45463373542444,53,24.1,-297.478271484375,1.2160000801086426,16,0.0,0.0,1603124990,,,,0,,3,0.42,21.1,,,,,,
Raw,1712569063439,6475804000000,18,,-1396597805635199836,-0.3882303237915039,32.27061461075209,-18.368221466541115,12.800718905198309,30,19,0.0,49359,45463370393907,46,25.7,556.3505249023438,1.131500005722046,16,0.0,0.0,1603687550,,,,0,,3,0.42,22.7,,,,,,
Raw,1712569063439,6475804000000,18,,-1396597805635199836,-0.3882303237915039,32.27061461075209,-18.368221466541115,12.800718905198309,30,5,0.0,81935,121081359884676,53,24.1,-492.3658752441406,0.9950000047683716,16,0.0,0.0,1575420030,,,,0,,1,1.96,21.1,,,,,,
Raw,1712569063439,6475804000000,18,,-1396597805635199836,-0.3882303237915039,32.27061461075209,-18.368221466541115,12.800718905198309,30,11,0.0,81935,121081361986814,35,27.7,523.8784790039062,0.7879999876022339,16,0.0,0.0,1575420030,,,,0,,1,1.96,24.7,,,,,,
Raw,1712569063439,6475804000000,18,,-1396597805635199836,-0.3882303237915039,32.27061461075209,-18.368221466541115,12.800718905198309,30,12,0.0,81935,121081367754009,11,38.0,347.42425537109375,0.033399999141693115,16,0.0,0.0,1575420030,,,,0,,1,1.96,35.0,,,,,,
Raw,1712569063439,6475804000000,18,,-1396597805635199836,-0.3882303237915039,32.27061461075209,-18.368221466541115,12.800718905198309,30,18,0.0,81935,121081359783180,9,40.2,-682.4435424804688,0.020100001245737076,16,0.0,0.0,1575420030,,,,0,,1,1.96,37.2,,,,,,
Raw,1712569063439,6475804000000,18,,-1396597805635199836,-0.3882303237915039,32.27061461075209,-18.368221466541115,12.800718905198309,30,25,0.0,81935,121081372478139,12,37.1,34.264644622802734,0.04190000146627426,16,0.0,0.0,1575420030,,,,0,,1,1.96,34.1,,,,,,
Raw,1712569063439,6475804000000,18,,-1396597805635199836,-0.3882303237915039,32.27061461075209,-18.368221466541115,12.800718905198309,30,29,0.0,81935,121081369353098,35,27.8,-150.8077392578125,0.7999999523162842,16,0.0,0.0,1575420030,,,,0,,1,1.96,24.8,,,,,,
Raw,1712569063439,6475804000000,18,,-1396597805635199836,-0.3882303237915039,32.27061461075209,-18.368221466541115,12.800718905198309,30,31,0.0,81935,121081359317102,12,37.2,-510.1834716796875,0.052400000393390656,16,0.0,0.0,1575420030,,,,0,,1,1.96,34.2,,,,,,
Raw,1712569063439,6475804000000,18,,-1396597805635199836,-0.3882303237915039,32.27061461075209,-18.368221466541115,12.800718905198309,30,5,0.0,16399,121067311415736,16,34.6,-8.872224807739258,7.052500247955322,16,0.0,0.0,1561097980,,,,0,,5,1.78,28.6,,,,,,
Raw,1712569063439,6475804000000,18,,-1396597805635199836,-0.3882303237915039,32.27061461075209,-18.368221466541115,12.800718905198309,30,8,0.0,16399,121067311488257,40,26.4,-183.25367736816406,0.6829999685287476,16,0.0,0.0,1561097980,,,,0,,5,1.78,20.4,,,,,,
Raw,1712569063439,6475804000000,18,,-1396597805635199836,-0.3882303237915039,32.27061461075209,-18.368221466541115,12.800718905198309,30,10,0.0,16399,121067306539433,83,21.0,51.15931701660156,1.755500078201294,16,0.0,0.0,1561097980,,,,0,,5,1.78,15.0,,,,,,
Raw,1712569063439,6475804000000,18,,-1396597805635199836,-0.3882303237915039,32.27061461075209,-18.368221466541115,12.800718905198309,30,13,0.0,16399,121067312340067,27,29.0,-238.26341247558594,0.5444999933242798,16,0.0,0.0,1561097980,,,,0,,5,1.78,23.0,,,,,,
Raw,1712569063439,6475804000000,18,,-1396597805635199836,-0.3882303237915039,32.27061461075209,-18.368221466541115,12.800718905198309,30,27,0.0,16399,121067366176372,40,26.2,255.40293884277344,0.6754999756813049,16,0.0,0.0,1561097980,,,,0,,5,1.78,20.2,,,,,,
Raw,1712569063439,6475804000000,18,,-1396597805635199836,-0.3882303237915039,32.27061461075209,-18.368221466541115,12.800718905198309,30,28,0.0,16399,121067355226767,21,31.0,547.7315673828125,0.13369999825954437,16,0.0,0.0,1561097980,,,,0,,5,1.78,25.0,,,,,,
Raw,1712569063439,6475804000000,18,,-1396597805635199836,-0.3882303237915039,32.27061461075209,-18.368221466541115,12.800718905198309,30,30,0.0,16399,121067364783187,24,30.0,-266.88433837890625,0.387800008058548,16,0.0,0.0,1561097980,,,,0,,5,1.78,24.0,,,,,,
Raw,1712569063439,6475804000000,18,,-1396597805635199836,-0.3882303237915039,32.27061461075209,-18.368221466541115,12.800718905198309,30,2,0.0,89103,121081353753109,27,29.2,-405.0400695800781,0.5519999861717224,16,0.0,0.0,1575420030,,,,0,,6,1.99,23.2,,,,,,
Raw,1712569063439,6475804000000,18,,-1396597805635199836,-0.3882303237915039,32.27061461075209,-18.368221466541115,12.800718905198309,30,10,0.0,89103,121081356667925,13,36.3,281.83795166015625,0.04919999837875366,16,0.0,0.0,1575420030,,,,0,,6,1.99,30.299999999999997,,,,,,
Raw,1712569063439,6475804000000,18,,-1396597805635199836,-0.3882303237915039,32.27061461075209,-18.368221466541115,12.800718905198309,30,11,0.0,89103,121081363870012,109,20.3,-8.981861114501953,3.3489999771118164,16,0.0,0.0,1575420030,,,,0,,6,1.99,14.3,,,,,,
Raw,1712569063439,6475804000000,18,,-1396597805635199836,-0.3882303237915039,32.27061461075209,-18.368221466541115,12.800718905198309,30,12,0.0,89103,121081350236704,35,27.7,462.9559631347656,0.643500030040741,16,0.0,0.0,1575420030,,,,0,,6,1.99,21.7,,,,,,
Raw,1712569063439,6475804000000,18,,-1396597805635199836,-0.3882303237915039,32.27061461075209,-18.368221466541115,12.800718905198309,30,24,0.0,89103,121081353374079,35,27.2,336.4582214355469,0.6420000195503235,16,0.0,0.0,1575420030,,,,0,,6,1.99,21.2,,,,,,
Raw,1712569063439,6475804000000,18,,-1396597805635199836,-0.3882303237915039,32.27061461075209,-18.368221466541115,12.800718905198309,30,25,0.0,89103,121081361220085,17,33.9,-62.26738357543945,0.05880000442266464,16,0.0,0.0,1575420030,,,,0,,6,1.99,27.9,,,,,,
Raw,1712569063439,6475804000000,18,,-1396597805635199836,-0.3882303237915039,32.27061461075209,-18.368221466541115,12.800718905198309,30,36,0.0,89103,121081355907269,17,33.3,-478.7354736328125,0.055799998342990875,16,0.0,0.0,1575420030,,,,0,,6,1.99,27.299999999999997,,,,,,
Fix,GPS,36.6351407800,29.0834942500,242.3870849609375,0.0,3.7900925,,1712569064000,0.086023256,,5537156957783,3.0,0,,,
Fix,FLP,36.6351410000,29.0834942000,242.3870849609375,0.081868365,3.9,,1712569064490,0.086023256,,5537156957783,3.0,0,,,
Fix,NLP,36.6436413000,29.0821737000,,,2500.0,,1712569061169,,,5533836000000,,0,,,
Status,1712569064000,29,0,1,5,1575420030,28.70,118.0,18.0,1,1,1,23.7
Status,1712569064000,29,1,1,11,1575420030,32.10,45.0,28.0,1,1,1,27.1
Status,1712569064000,29,2,1,12,1575420030,40.90,98.0,49.0,1,1,1,35.9
Status,1712569064000,29,3,1,18,1575420030,43.60,201.0,21.0,1,1,1,38.6
Status,1712569064000,29,4,1,20,1575420030,24.30,81.0,24.0,0,1,1,19.3
Status,1712569064000,29,5,1,25,1575420030,40.10,46.0,77.0,1,1,1,35.1
Status,1712569064000,29,6,1,28,1575420030,25.80,296.0,37.0,1,1,1,20.8
Status,1712569064000,29,7,1,29,1575420030,32.30,291.0,61.0,1,1,1,27.3
Status,1712569064000,29,8,1,31,1575420030,39.10,317.0,16.0,1,1,1,34.1
Status,1712569064000,29,9,3,10,1602000000,27.20,330.0,50.0,0,1,0,22.2
Status,1712569064000,29,10,3,9,1602000000,29.10,115.0,78.0,1,1,0,24.1
Status,1712569064000,29,11,3,16,1602000000,38.20,137.0,21.0,1,1,1,33.2
Status,1712569064000,29,12,3,20,1602000000,27.70,229.0,61.0,1,1,0,22.7
Status,1712569064000,29,13,3,19,1602000000,28.70,26.0,45.0,1,1,0,23.7
Status,1712569064000,29,14,5,2,1561097980,32.80,112.0,18.0,0,1,0,27.8
Status,1712569064000,29,15,5,5,1561097980,40.00,136.0,35.0,1,1,0,35.0
Status,1712569064000,29,16,5,8,1561097980,31.50,70.0,34.0,1,1,0,26.5
Status,1712569064000,29,17,5,10,1561097980,27.00,82.0,16.0,1,1,0,22.0
Status,1712569064000,29,18,5,13,1561097980,34.40,87.0,37.0,1,1,1,29.4
Status,1712569064000,29,19,5,27,1561097980,31.80,36.0,65.0,0,1,0,26.8
Status,1712569064000,29,20,5,28,1561097980,35.50,47.0,18.0,0,1,0,30.5
Status,1712569064000,29,21,5,30,1561097980,35.90,244.0,56.0,1,1,1,30.9
Status,1712569064000,29,22,6,2,1575420030,31.80,309.0,32.0,1,1,0,26.8
Status,1712569064000,29,23,6,10,1575420030,41.70,52.0,47.0,1,1,0,36.7
Status,1712569064000,29,24,6,11,1575420030,26.30,94.0,70.0,0,1,0,21.3
Status,1712569064000,29,25,6,12,1575420030,31.30,40.0,24.0,1,1,0,26.3
Status,1712569064000,29,26,6,24,1575420030,34.50,108.0,34.0,1,1,0,29.5
Status,1712569064000,29,27,6,25,1575420030,39.60,21.0,75.0,1,1,0,34.6
Status,1712569064000,29,28,6,36,1575420030,39.50,192.0,41.0,1,1,0,34.5
Raw,1712569064439,6476804000000,18,,-1396597805635199854,-0.7613620758056641,49.54819451086223,-18.368221466541115,20.613218695448303,31,9,0.0,49359,45464375286566,40,26.1,107.30448913574219,1.069000005722046,16,0.0,0.0,1600875010,,,,0,,3,0.39,23.1,,,,,,
Raw,1712569064439,6476804000000,18,,-1396597805635199854,-0.7613620758056641,49.54819451086223,-18.368221466541115,20.613218695448303,31,16,0.0,49359,45464364281387,14,35.2,684.6889038085938,0.23179998993873596,16,0.0,0.0,1601437440,,,,0,,3,0.39,32.2,,,,,,
Raw,1712569064439,6476804000000,18,,-1396597805635199854,-0.7613620758056641,49.54819451086223,-18.368221466541115,20.613218695448303,31,20,0.0,49359,45464373543411,53,24.7,-296.599365234375,1.2160000801086426,16,0.0,0.0,1603124990,,,,0,,3,0.39,21.7,,,,,,
Raw,1712569064439,6476804000000,18,,-1396597805635199854,-0.7613620758056641,49.54819451086223,-18.368221466541115,20.613218695448303,31,19,0.0,49359,45464370392042,46,25.7,556.528076171875,1.131500005722046,16,0.0,0.0,1603687550,,,,0,,3,0.39,22.7,,,,,,
Raw,1712569064439,6476804000000,18,,-1396597805635199854,-0.7613620758056641,49.54819451086223,-18.368221466541115,20.613218695448303,31,5,0.0,81935,121082359886260,46,25.7,-491.85205078125,0.9149999618530273,16,0.0,0.0,1575420030,,,,0,,1,1.91,22.7,,,,,,
Raw,1712569064439,6476804000000,18,,-1396597805635199854,-0.7613620758056641,49.54819451086223,-18.368221466541115,20.613218695448303,31,11,0.0,81935,121082361985158,27,29.1,524.5349731445312,0.6679999828338623,16,0.0,0.0,1575420030,,,,0,,1,1.91,26.1,,,,,,
Raw,1712569064439,6476804000000,18,,-1396597805635199854,-0.7613620758056641,49.54819451086223,-18.368221466541115,20.613218695448303,31,12,0.0,81935,121082367752872,12,37.9,348.0377197265625,0.03440000116825104,16,0.0,0.0,1575420030,,,,0,,1,1.91,34.9,,,,,,
Raw,1712569064439,6476804000000,18,,-1396597805635199854,-0.7613620758056641,49.54819451086223,-18.368221466541115,20.613218695448303,31,18,0.0,81935,121082359785452,9,40.6,-681.9261474609375,0.020100001245737076,16,0.0,0.0,1575420030,,,,0,,1,1.91,37.6,,,,,,
Raw,1712569064439,6476804000000,18,,-1396597805635199854,-0.7613620758056641,49.54819451086223,-18.368221466541115,20.613218695448303,31,25,0.0,81935,121082372478036,12,37.1,34.905120849609375,0.04190000146627426,16,0.0,0.0,1575420030,,,,0,,1,1.91,34.1,,,,,,
Raw,1712569064439,6476804000000,18,,-1396597805635199854,-0.7613620758056641,49.54819451086223,-18.368221466541115,20.613218695448303,31,28,0.0,81935,121082365283024,73,22.8,-253.12864685058594,1.9240000247955322,16,0.0,0.0,1575420030,,,,0,,1,1.91,19.8,,,,,,
Raw,1712569064439,6476804000000,18,,-1396597805635199854,-0.7613620758056641,49.54819451086223,-18.368221466541115,20.613218695448303,31,29,0.0,81935,121082369353571,27,29.3,-150.1892852783203,0.6799999475479126,16,0.0,0.0,1575420030,,,,0,,1,1.91,26.3,,,,,,
Raw,1712569064439,6476804000000,18,,-1396597805635199854,-0.7613620758056641,49.54819451086223,-18.368221466541115,20.613218695448303,31,31,0.0,81935,121082359318841,13,36.1,-509.5792236328125,0.053700000047683716,16,0.0,0.0,1575420030,,,,0,,1,1.91,33.1,,,,,,
Raw,1712569064439,6476804000000,18,,-1396597805635199854,-0.7613620758056641,49.54819451086223,-18.368221466541115,20.613218695448303,31,5,0.0,16399,121068311415745,16,34.0,-4.781783103942871,7.052500247955322,16,0.0,0.0,1561097980,,,,0,,5,1.66,28.0,,,,,,
Raw,1712569064439,6476804000000,18,,-1396597805635199854,-0.7613620758056641,49.54819451086223,-18.368221466541115,20.613218695448303,31,8,0.0,16399,121068311488888,46,25.5,-182.34149169921875,0.7429999709129333,16,0.0,0.0,1561097980,,,,0,,5,1.66,19.5,,,,,,
Raw,1712569064439,6476804000000,18,,-1396597805635199854,-0.7613620758056641,49.54819451086223,-18.368221466541115,20.613218695448303,31,13,0.0,16399,121068312340858,31,28.4,-237.38961791992188,0.5945000052452087,16,0.0,0.0,1561097980,,,,0,,5,1.66,22.4,,,,,,
Raw,1712569064439,6476804000000,18,,-1396597805635199854,-0.7613620758056641,49.54819451086223,-18.368221466541115,20.613218695448303,31,27,0.0,16399,121068366175507,46,25.8,256.11346435546875,0.7354999780654907,16,0.0,0.0,1561097980,,,,0,,5,1.66,19.8,,,,,,
Raw,1712569064439,6476804000000,18,,-1396597805635199854,-0.7613620758056641,49.54819451086223,-18.368221466541115,20.613218695448303,31,28,0.0,16399,121068355224940,27,29.5,548.4263916015625,0.5489999651908875,16,0.0,0.0,1561097980,,,,0,,5,1.66,23.5,,,,,,
Raw,1712569064439,6476804000000,18,,-1396597805635199854,-0.7613620758056641,49.54819451086223,-18.368221466541115,20.613218695448303,31,30,0.0,16399,121068364784056,27,29.9,-265.5137939453125,0.5324999690055847,16,0.0,0.0,1561097980,,,,0,,5,1.66,23.9,,,,,,
Raw,1712569064439,6476804000000,18,,-1396597805635199854,-0.7613620758056641,49.54819451086223,-18.368221466541115,20.613218695448303,31,2,0.0,89103,121082353754468,46,25.8,-404.21234130859375,0.7519999742507935,16,0.0,0.0,1575420030,,,,0,,6,1.92,19.8,,,,,,
Raw,1712569064439,6476804000000,18,,-1396597805635199854,-0.7613620758056641,49.54819451086223,-18.368221466541115,20.613218695448303,31,10,0.0,89103,121082356666984,14,35.7,282.4373779296875,0.049800001084804535,16,0.0,0.0,1575420030,,,,0,,6,1.92,29.700000000000003,,,,,,
Raw,1712569064439,6476804000000,18,,-1396597805635199854,-0.7613620758056641,49.54819451086223,-18.368221466541115,20.613218695448303,31,12,0.0,89103,121082350235145,46,25.3,464.3546142578125,0.7534999847412109,16,0.0,0.0,1575420030,,,,0,,6,1.92,19.3,,,,,,
Raw,1712569064439,6476804000000,18,,-1396597805635199854,-0.7613620758056641,49.54819451086223,-18.368221466541115,20.613218695448303,31,24,0.0,89103,121082353372960,31,28.5,337.1813659667969,0.6019999980926514,16,0.0,0.0,1575420030,,,,0,,6,1.92,22.5,,,,,,
Raw,1712569064439,6476804000000,18,,-1396597805635199854,-0.7613620758056641,49.54819451086223,-18.368221466541115,20.613218695448303,31,25,0.0,89103,121082361220300,17,33.6,-61.7437744140625,0.05880000442266464,16,0.0,0.0,1575420030,,,,0,,6,1.92,27.6,,,,,,
Raw,1712569064439,6476804000000,18,,-1396597805635199854,-0.7613620758056641,49.54819451086223,-18.368221466541115,20.613218695448303,31,36,0.0,89103,121082355908842,17,33.5,-478.1600341796875,0.055799998342990875,16,0.0,0.0,1575420030,,,,0,,6,1.92,27.5,,,,,,
Fix,GPS,36.6351442400,29.0834949900,241.47998046875,0.0,3.7900925,,1712569065000,0.086023256,,5538153480023,3.0,0,,,
Fix,FLP,36.6351440000,29.0834950000,241.47998046875,0.23738779,3.9,13.10164,1712569065487,0.086023256,45.0,5538153480023,3.0,0,,,
Status,1712569065000,29,0,1,5,1575420030,28.70,118.0,18.0,1,1,1,23.7
Status,1712569065000,29,1,1,11,1575420030,30.90,45.0,28.0,1,1,1,25.9
Status,1712569065000,29,2,1,12,1575420030,40.10,98.0,49.0,1,1,1,35.1
Status,1712569065000,29,3,1,18,1575420030,42.10,201.0,21.0,1,1,1,37.1
Status,1712569065000,29,4,1,20,1575420030,24.30,81.0,24.0,0,1,1,19.3
Status,1712569065000,29,5,1,25,1575420030,39.30,46.0,77.0,1,1,1,34.3
Status,1712569065000,29,6,1,28,1575420030,30.30,296.0,37.0,1,1,1,25.3
Status,1712569065000,29,7,1,29,1575420030,34.30,291.0,61.0,1,1,1,29.3
Status,1712569065000,29,8,1,31,1575420030,38.20,317.0,16.0,1,1,1,33.2
Status,1712569065000,29,9,3,10,1602000000,27.20,330.0,50.0,0,1,0,22.2
Status,1712569065000,29,10,3,9,1602000000,29.90,115.0,78.0,1,1,0,24.9
Status,1712569065000,29,11,3,16,1602000000,38.20,137.0,21.0,1,1,1,33.2
Status,1712569065000,29,12,3,20,1602000000,27.70,229.0,61.0,1,1,0,22.7
Status,1712569065000,29,13,3,19,1602000000,29.10,26.0,45.0,1,1,0,24.1
Status,1712569065000,29,14,5,2,1561097980,32.80,112.0,18.0,0,1,0,27.8
Status,1712569065000,29,15,5,5,1561097980,40.20,136.0,35.0,1,1,0,35.2
Status,1712569065000,29,16,5,8,1561097980,31.30,70.0,34.0,1,1,0,26.3
Status,1712569065000,29,17,5,10,1561097980,27.00,82.0,16.0,1,1,0,22.0
Status,1712569065000,29,18,5,13,1561097980,35.50,87.0,37.0,1,1,1,30.5
Status,1712569065000,29,19,5,27,1561097980,31.50,36.0,65.0,0,1,0,26.5
Status,1712569065000,29,20,5,28,1561097980,35.80,47.0,18.0,0,1,0,30.8
Status,1712569065000,29,21,5,30,1561097980,36.10,244.0,56.0,1,1,1,31.1
Status,1712569065000,29,22,6,2,1575420030,31.20,309.0,32.0,1,1,0,26.2
Status,1712569065000,29,23,6,10,1575420030,41.00,52.0,47.0,1,1,0,36.0
Status,1712569065000,29,24,6,11,1575420030,26.30,94.0,70.0,0,1,0,21.3
Status,1712569065000,29,25,6,12,1575420030,31.30,40.0,24.0,1,1,0,26.3
Status,1712569065000,29,26,6,24,1575420030,34.10,108.0,34.0,1,1,0,29.1
Status,1712569065000,29,27,6,25,1575420030,38.80,21.0,75.0,1,1,0,33.8
Status,1712569065000,29,28,6,36,1575420030,39.30,192.0,41.0,1,1,0,34.3
Raw,1712569065439,6477804000000,18,,-1396597805635199854,-0.5676469802856445,43.637919588945806,-4.7274265269958216,16.666493484649806,31,9,0.0,49359,45465375286020,40,26.9,109.5329818725586,1.069000005722046,16,0.0,0.0,1600875010,,,,0,,3,0.34,23.9,,,,,,
Raw,1712569065439,6477804000000,18,,-1396597805635199854,-0.5676469802856445,43.637919588945806,-4.7274265269958216,16.666493484649806,31,16,0.0,49359,45465364279052,14,35.2,687.081298828125,0.23179998993873596,16,0.0,0.0,1601437440,,,,0,,3,0.34,32.2,,,,,,
Raw,1712569065439,6477804000000,18,,-1396597805635199854,-0.5676469802856445,43.637919588945806,-4.7274265269958216,16.666493484649806,31,19,0.0,49359,45465370390255,40,26.1,559.7153930664062,1.0614999532699585,16,0.0,0.0,1603687550,,,,0,,3,0.34,23.1,,,,,,
Raw,1712569065439,6477804000000,18,,-1396597805635199854,-0.5676469802856445,43.637919588945806,-4.7274265269958216,16.666493484649806,31,11,0.0,81935,121083361983400,35,27.9,526.8756103515625,0.7879999876022339,16,0.0,0.0,1575420030,,,,0,,1,1.74,24.9,,,,,,
Raw,1712569065439,6477804000000,18,,-1396597805635199854,-0.5676469802856445,43.637919588945806,-4.7274265269958216,16.666493484649806,31,12,0.0,81935,121083367751702,12,37.1,350.3421325683594,0.03440000116825104,16,0.0,0.0,1575420030,,,,0,,1,1.74,34.1,,,,,,
Raw,1712569065439,6477804000000,18,,-1396597805635199854,-0.5676469802856445,43.637919588945806,-4.7274265269958216,16.666493484649806,31,18,0.0,81935,121083359787719,10,39.1,-679.6001586914062,0.020600000396370888,16,0.0,0.0,1575420030,,,,0,,1,1.74,36.1,,,,,,
Raw,1712569065439,6477804000000,18,,-1396597805635199854,-0.5676469802856445,43.637919588945806,-4.7274265269958216,16.666493484649806,31,25,0.0,81935,121083372477934,13,36.3,37.296871185302734,0.04320000112056732,16,0.0,0.0,1575420030,,,,0,,1,1.74,33.3,,,,,,
Raw,1712569065439,6477804000000,18,,-1396597805635199854,-0.5676469802856445,43.637919588945806,-4.7274265269958216,16.666493484649806,31,28,0.0,81935,121083365283876,35,27.3,-250.8736572265625,0.793999969959259,16,0.0,0.0,1575420030,,,,0,,1,1.74,24.3,,,,,,
Raw,1712569065439,6477804000000,18,,-1396597805635199854,-0.5676469802856445,43.637919588945806,-4.7274265269958216,16.666493484649806,31,29,0.0,81935,121083369354091,21,31.3,-147.88673400878906,0.5900000333786011,16,0.0,0.0,1575420030,,,,0,,1,1.74,28.3,,,,,,
Raw,1712569065439,6477804000000,18,,-1396597805635199854,-0.5676469802856445,43.637919588945806,-4.7274265269958216,16.666493484649806,31,31,0.0,81935,121083359320503,14,35.2,-507.1882019042969,0.05430000275373459,16,0.0,0.0,1575420030,,,,0,,1,1.74,32.2,,,,,,
Raw,1712569065439,6477804000000,18,,-1396597805635199854,-0.5676469802856445,43.637919588945806,-4.7274265269958216,16.666493484649806,31,5,0.0,16399,121069311415778,16,34.2,-5.463523864746094,7.052500247955322,16,0.0,0.0,1561097980,,,,0,,5,1.49,28.200000000000003,,,,,,
Raw,1712569065439,6477804000000,18,,-1396597805635199854,-0.5676469802856445,43.637919588945806,-4.7274265269958216,16.666493484649806,31,8,0.0,16399,121069311489512,46,25.3,-180.04661560058594,0.7429999709129333,16,0.0,0.0,1561097980,,,,0,,5,1.49,19.3,,,,,,
Raw,1712569065439,6477804000000,18,,-1396597805635199854,-0.5676469802856445,43.637919588945806,-4.7274265269958216,16.666493484649806,31,13,0.0,16399,121069312341646,27,29.5,-235.2291717529297,0.5444999933242798,16,0.0,0.0,1561097980,,,,0,,5,1.49,23.5,,,,,,
Raw,1712569065439,6477804000000,18,,-1396597805635199854,-0.5676469802856445,43.637919588945806,-4.7274265269958216,16.666493484649806,31,27,0.0,16399,121069366174661,46,25.5,257.94744873046875,0.7354999780654907,16,0.0,0.0,1561097980,,,,0,,5,1.49,19.5,,,,,,
Raw,1712569065439,6477804000000,18,,-1396597805635199854,-0.5676469802856445,43.637919588945806,-4.7274265269958216,16.666493484649806,31,28,0.0,16399,121069355223127,27,29.8,550.740478515625,0.5489999651908875,16,0.0,0.0,1561097980,,,,0,,5,1.49,23.8,,,,,,
Raw,1712569065439,6477804000000,18,,-1396597805635199854,-0.5676469802856445,43.637919588945806,-4.7274265269958216,16.666493484649806,31,30,0.0,16399,121069364784959,24,30.1,-263.4524230957031,0.387800008058548,16,0.0,0.0,1561097980,,,,0,,5,1.49,24.1,,,,,,
Raw,1712569065439,6477804000000,18,,-1396597805635199854,-0.5676469802856445,43.637919588945806,-4.7274265269958216,16.666493484649806,31,2,0.0,89103,121083353755784,46,25.2,-400.8346252441406,0.7519999742507935,16,0.0,0.0,1575420030,,,,0,,6,1.76,19.2,,,,,,
Raw,1712569065439,6477804000000,18,,-1396597805635199854,-0.5676469802856445,43.637919588945806,-4.7274265269958216,16.666493484649806,31,10,0.0,89103,121083356666025,14,35.0,284.9776306152344,0.049800001084804535,16,0.0,0.0,1575420030,,,,0,,6,1.76,29.0,,,,,,
Raw,1712569065439,6477804000000,18,,-1396597805635199854,-0.5676469802856445,43.637919588945806,-4.7274265269958216,16.666493484649806,31,24,0.0,89103,121083353371798,31,28.1,339.74078369140625,0.6019999980926514,16,0.0,0.0,1575420030,,,,0,,6,1.76,22.1,,,,,,
Raw,1712569065439,6477804000000,18,,-1396597805635199854,-0.5676469802856445,43.637919588945806,-4.7274265269958216,16.666493484649806,31,25,0.0,89103,121083361220494,19,32.8,-59.2755241394043,0.06680000573396683,16,0.0,0.0,1575420030,,,,0,,6,1.76,26.799999999999997,,,,,,
Raw,1712569065439,6477804000000,18,,-1396597805635199854,-0.5676469802856445,43.637919588945806,-4.7274265269958216,16.666493484649806,31,36,0.0,89103,121083355910447,17,33.3,-475.648193359375,0.055799998342990875,16,0.0,0.0,1575420030,,,,0,,6,1.76,27.299999999999997,,,,,,
Fix,GPS,36.6351472000,29.0834937500,241.47210693359375,0.0,3.7900925,,1712569066000,0.1640122,,5539149073876,3.0,0,,,
Fix,FLP,36.6351471000,29.0834939000,241.47210693359375,0.3021008,3.9,353.23334,1712569066483,0.1640122,45.0,5539149073876,3.0,0,,,
Status,1712569066000,29,0,1,5,1575420030,28.70,118.0,18.0,1,1,1,23.7
Status,1712569066000,29,1,1,11,1575420030,33.20,45.0,28.0,1,1,1,28.2
Status,1712569066000,29,2,1,12,1575420030,38.60,98.0,49.0,1,1,1,33.6
Status,1712569066000,29,3,1,18,1575420030,41.30,201.0,21.0,1,1,1,36.3
Status,1712569066000,29,4,1,20,1575420030,24.30,81.0,24.0,0,1,1,19.3
Status,1712569066000,29,5,1,25,1575420030,38.80,46.0,77.0,1,1,1,33.8
Status,1712569066000,29,6,1,28,1575420030,32.20,296.0,37.0,1,1,1,27.2
Status,1712569066000,29,7,1,29,1575420030,33.20,291.0,61.0,1,1,1,28.2
Status,1712569066000,29,8,1,31,1575420030,35.80,317.0,16.0,1,1,1,30.8
Status,1712569066000,29,9,3,10,1602000000,24.60,330.0,50.0,0,1,0,19.6
Status,1712569066000,29,10,3,9,1602000000,28.80,115.0,78.0,1,1,0,23.8
Status,1712569066000,29,11,3,16,1602000000,37.40,137.0,21.0,1,1,1,32.4
Status,1712569066000,29,12,3,20,1602000000,23.80,229.0,61.0,1,1,0,18.8
Status,1712569066000,29,13,3,19,1602000000,28.20,26.0,45.0,1,1,0,23.2
Status,1712569066000,29,14,5,2,1561097980,29.20,112.0,18.0,0,1,0,24.2
Status,1712569066000,29,15,5,5,1561097980,42.70,136.0,35.0,1,1,0,37.7
Status,1712569066000,29,16,5,8,1561097980,31.30,70.0,34.0,1,1,0,26.3
Status,1712569066000,29,17,5,10,1561097980,27.00,82.0,16.0,1,1,0,22.0
Status,1712569066000,29,18,5,13,1561097980,37.90,87.0,37.0,1,1,1,32.9
Status,1712569066000,29,19,5,27,1561097980,31.30,36.0,65.0,0,1,0,26.3
Status,1712569066000,29,20,5,28,1561097980,37.00,47.0,18.0,0,1,0,32.0
Status,1712569066000,29,21,5,30,1561097980,38.40,244.0,56.0,1,1,1,33.4
Status,1712569066000,29,22,6,2,1575420030,30.40,309.0,32.0,1,1,0,25.4
Status,1712569066000,29,23,6,10,1575420030,39.50,52.0,47.0,1,1,0,34.5
Status,1712569066000,29,24,6,11,1575420030,26.30,94.0,70.0,0,1,0,21.3
Status,1712569066000,29,25,6,12,1575420030,31.30,40.0,24.0,1,1,0,26.3
Status,1712569066000,29,26,6,24,1575420030,34.10,108.0,34.0,1,1,0,29.1
Status,1712569066000,29,27,6,25,1575420030,39.90,21.0,75.0,1,1,0,34.9
Status,1712569066000,29,28,6,36,1575420030,40.70,192.0,41.0,1,1,0,35.7
Raw,1712569066439,6478804000000,18,,-1396597805635199842,-0.7212238311767578,30.277238693088293,2.8041078326851885,10.863088175212129,31,10,0.0,49359,45466371508616,91,21.6,-496.9456481933594,2.9730000495910645,16,0.0,0.0,1598062460,,,,0,,3,0.47,18.6,,,,,,
Raw,1712569066439,6478804000000,18,,-1396597805635199842,-0.7212238311767578,30.277238693088293,2.8041078326851885,10.863088175212129,31,9,0.0,49359,45466375285816,46,25.8,103.54977416992188,1.1390000581741333,16,0.0,0.0,1600875010,,,,0,,3,0.47,22.8,,,,,,
Raw,1712569066439,6478804000000,18,,-1396597805635199842,-0.7212238311767578,30.277238693088293,2.8041078326851885,10.863088175212129,31,16,0.0,49359,45466364276774,16,34.4,680.8364868164062,0.23269999027252197,16,0.0,0.0,1601437440,,,,0,,3,0.47,31.4,,,,,,
Raw,1712569066439,6478804000000,18,,-1396597805635199842,-0.7212238311767578,30.277238693088293,2.8041078326851885,10.863088175212129,31,20,0.0,49359,45466373545421,97,20.8,-298.0766906738281,2.326000213623047,16,0.0,0.0,1603124990,,,,0,,3,0.47,17.8,,,,,,
Raw,1712569066439,6478804000000,18,,-1396597805635199842,-0.7212238311767578,30.277238693088293,2.8041078326851885,10.863088175212129,31,19,0.0,49359,45466370388612,46,25.2,553.2379150390625,1.131500005722046,16,0.0,0.0,1603687550,,,,0,,3,0.47,22.2,,,,,,
Raw,1712569066439,6478804000000,18,,-1396597805635199842,-0.7212238311767578,30.277238693088293,2.8041078326851885,10.863088175212129,31,11,0.0,81935,121084361981610,24,30.2,520.3580322265625,0.6180000305175781,16,0.0,0.0,1575420030,,,,0,,1,1.96,27.2,,,,,,
Raw,1712569066439,6478804000000,18,,-1396597805635199842,-0.7212238311767578,30.277238693088293,2.8041078326851885,10.863088175212129,31,12,0.0,81935,121084367750529,14,35.6,344.2629089355469,0.03629999980330467,16,0.0,0.0,1575420030,,,,0,,1,1.96,32.6,,,,,,
Raw,1712569066439,6478804000000,18,,-1396597805635199842,-0.7212238311767578,30.277238693088293,2.8041078326851885,10.863088175212129,31,18,0.0,81935,121084359790008,11,38.3,-685.7510375976562,0.021400000900030136,16,0.0,0.0,1575420030,,,,0,,1,1.96,35.3,,,,,,
Raw,1712569066439,6478804000000,18,,-1396597805635199842,-0.7212238311767578,30.277238693088293,2.8041078326851885,10.863088175212129,31,25,0.0,81935,121084372477800,14,35.8,31.188261032104492,0.043800003826618195,16,0.0,0.0,1575420030,,,,0,,1,1.96,32.8,,,,,,
Raw,1712569066439,6478804000000,18,,-1396597805635199842,-0.7212238311767578,30.277238693088293,2.8041078326851885,10.863088175212129,31,28,0.0,81935,121084365284666,27,29.2,-256.5063781738281,0.6739999651908875,16,0.0,0.0,1575420030,,,,0,,1,1.96,26.2,,,,,,
Raw,1712569066439,6478804000000,18,,-1396597805635199842,-0.7212238311767578,30.277238693088293,2.8041078326851885,10.863088175212129,31,29,0.0,81935,121084369354581,24,30.2,-154.77536010742188,0.6299999952316284,16,0.0,0.0,1575420030,,,,0,,1,1.96,27.2,,,,,,
Raw,1712569066439,6478804000000,18,,-1396597805635199842,-0.7212238311767578,30.277238693088293,2.8041078326851885,10.863088175212129,31,31,0.0,81935,121084359322167,19,32.8,-513.5645751953125,0.5550000071525574,16,0.0,0.0,1575420030,,,,0,,1,1.96,29.799999999999997,,,,,,
Raw,1712569066439,6478804000000,18,,-1396597805635199842,-0.7212238311767578,30.277238693088293,2.8041078326851885,10.863088175212129,31,2,0.0,16399,121070307557604,260,23.2,-14.528564453125,19.885000228881836,16,0.0,0.0,1561097980,,,,0,,5,1.78,17.2,,,,,,
Raw,1712569066439,6478804000000,18,,-1396597805635199842,-0.7212238311767578,30.277238693088293,2.8041078326851885,10.863088175212129,31,5,0.0,16399,121070311415808,14,36.7,-8.123270034790039,5.958799839019775,16,0.0,0.0,1561097980,,,,0,,5,1.78,30.700000000000003,,,,,,
Raw,1712569066439,6478804000000,18,,-1396597805635199842,-0.7212238311767578,30.277238693088293,2.8041078326851885,10.863088175212129,31,13,0.0,16399,121070312342442,21,31.9,-241.87159729003906,0.1292000114917755,16,0.0,0.0,1561097980,,,,0,,5,1.78,25.9,,,,,,
Raw,1712569066439,6478804000000,18,,-1396597805635199842,-0.7212238311767578,30.277238693088293,2.8041078326851885,10.863088175212129,31,27,0.0,16399,121070366173809,46,25.3,251.197265625,0.7354999780654907,16,0.0,0.0,1561097980,,,,0,,5,1.78,19.3,,,,,,
Raw,1712569066439,6478804000000,18,,-1396597805635199842,-0.7212238311767578,30.277238693088293,2.8041078326851885,10.863088175212129,31,28,0.0,16399,121070355221287,21,31.0,543.318115234375,0.4790000021457672,16,0.0,0.0,1561097980,,,,0,,5,1.78,25.0,,,,,,
Raw,1712569066439,6478804000000,18,,-1396597805635199842,-0.7212238311767578,30.277238693088293,2.8041078326851885,10.863088175212129,31,30,0.0,16399,121070364785862,19,32.4,-269.9657897949219,0.047300003468990326,16,0.0,0.0,1561097980,,,,0,,5,1.78,26.4,,,,,,
Raw,1712569066439,6478804000000,18,,-1396597805635199842,-0.7212238311767578,30.277238693088293,2.8041078326851885,10.863088175212129,31,2,0.0,89103,121084353757108,53,24.4,-408.2655334472656,0.8119999766349792,16,0.0,0.0,1575420030,,,,0,,6,1.96,18.4,,,,,,
Raw,1712569066439,6478804000000,18,,-1396597805635199842,-0.7212238311767578,30.277238693088293,2.8041078326851885,10.863088175212129,31,10,0.0,89103,121084356665097,17,33.5,278.98028564453125,0.05730000138282776,16,0.0,0.0,1575420030,,,,0,,6,1.96,27.5,,,,,,
Raw,1712569066439,6478804000000,18,,-1396597805635199842,-0.7212238311767578,30.277238693088293,2.8041078326851885,10.863088175212129,31,25,0.0,89103,121084361220714,17,33.9,-65.1772232055664,0.05880000442266464,16,0.0,0.0,1575420030,,,,0,,6,1.96,27.9,,,,,,
Raw,1712569066439,6478804000000,18,,-1396597805635199842,-0.7212238311767578,30.277238693088293,2.8041078326851885,10.863088175212129,31,36,0.0,89103,121084355912026,16,34.7,-481.6824645996094,0.04920000210404396,16,0.0,0.0,1575420030,,,,0,,6,1.96,28.700000000000003,,,,,,
Fix,GPS,36.6351477500,29.0834933800,241.59649658203125,0.0,3.7900925,,1712569067000,0.8292768,,5540151524918,3.0,0,,,
Fix,FLP,36.6351479000,29.0834934000,241.59649658203125,0.17710792,3.9,346.54263,1712569067484,0.8292768,45.0,5540151524918,3.0,0,,,
Status,1712569067000,29,0,1,5,1575420030,23.10,118.0,18.0,1,1,1,18.1
Status,1712569067000,29,1,1,11,1575420030,29.40,45.0,28.0,1,1,1,24.4
Status,1712569067000,29,2,1,12,1575420030,40.40,98.0,49.0,1,1,1,35.4
Status,1712569067000,29,3,1,18,1575420030,42.20,201.0,21.0,1,1,1,37.2
Status,1712569067000,29,4,1,20,1575420030,19.20,81.0,24.0,0,1,1,14.2
Status,1712569067000,29,5,1,25,1575420030,40.20,46.0,77.0,1,1,1,35.2
Status,1712569067000,29,6,1,28,1575420030,30.00,296.0,37.0,1,1,1,25.0
Status,1712569067000,29,7,1,29,1575420030,31.80,291.0,61.0,1,1,1,26.8
Status,1712569067000,29,8,1,31,1575420030,35.60,317.0,16.0,1,1,1,30.6
Status,1712569067000,29,9,3,10,1602000000,27.80,330.0,50.0,0,1,0,22.8
Status,1712569067000,29,10,3,9,1602000000,30.00,115.0,78.0,1,1,0,25.0
Status,1712569067000,29,11,3,16,1602000000,37.90,137.0,21.0,1,1,1,32.9
Status,1712569067000,29,12,3,20,1602000000,23.80,229.0,61.0,1,1,0,18.8
Status,1712569067000,29,13,3,19,1602000000,28.00,26.0,45.0,1,1,0,23.0
Status,1712569067000,29,14,5,2,1561097980,29.20,112.0,18.0,1,1,0,24.2
Status,1712569067000,29,15,5,5,1561097980,40.60,136.0,35.0,1,1,0,35.6
Status,1712569067000,29,16,5,8,1561097980,29.10,70.0,34.0,1,1,0,24.1
Status,1712569067000,29,17,5,10,1561097980,27.00,82.0,16.0,1,1,0,22.0
Status,1712569067000,29,18,5,13,1561097980,36.20,87.0,37.0,1,1,1,31.2
Status,1712569067000,29,19,5,27,1561097980,30.00,36.0,65.0,0,1,0,25.0
Status,1712569067000,29,20,5,28,1561097980,35.60,47.0,18.0,0,1,0,30.6
Status,1712569067000,29,21,5,30,1561097980,36.90,244.0,56.0,1,1,1,31.9
Status,1712569067000,29,22,6,2,1575420030,30.40,309.0,32.0,1,1,0,25.4
Status,1712569067000,29,23,6,10,1575420030,41.00,52.0,47.0,1,1,0,36.0
Status,1712569067000,29,24,6,11,1575420030,26.30,94.0,70.0,0,1,0,21.3
Status,1712569067000,29,25,6,12,1575420030,27.10,40.0,24.0,1,1,0,22.1
Status,1712569067000,29,26,6,24,1575420030,34.10,108.0,34.0,1,1,0,29.1
Status,1712569067000,29,27,6,25,1575420030,39.90,21.0,75.0,1,1,0,34.9
Status,1712569067000,29,28,6,36,1575420030,38.50,192.0,41.0,1,1,0,33.5
Raw,1712569067439,6479804000000,18,,-1396597805635199839,-0.9198055267333984,47.57031274493784,2.8041078326851885,20.628713907123092,32,10,0.0,49359,45467371509953,53,24.8,-498.8685302734375,1.2130000591278076,16,0.0,0.0,1598062460,,,,0,,3,0.32,21.8,,,,,,
Raw,1712569067439,6479804000000,18,,-1396597805635199839,-0.9198055267333984,47.57031274493784,2.8041078326851885,20.628713907123092,32,9,0.0,49359,45467375285498,35,27.0,104.42057037353516,1.0089999437332153,16,0.0,0.0,1600875010,,,,0,,3,0.32,24.0,,,,,,
Raw,1712569067439,6479804000000,18,,-1396597805635199839,-0.9198055267333984,47.57031274493784,2.8041078326851885,20.628713907123092,32,16,0.0,49359,45467364274519,16,34.9,682.078857421875,0.23269999027252197,16,0.0,0.0,1601437440,,,,0,,3,0.32,31.9,,,,,,
Raw,1712569067439,6479804000000,18,,-1396597805635199839,-0.9198055267333984,47.57031274493784,2.8041078326851885,20.628713907123092,32,19,0.0,49359,45467370386509,46,25.0,553.4248657226562,1.131500005722046,16,0.0,0.0,1603687550,,,,0,,3,0.32,22.0,,,,,,
Raw,1712569067439,6479804000000,18,,-1396597805635199839,-0.9198055267333984,47.57031274493784,2.8041078326851885,20.628713907123092,32,5,0.0,81935,121085359891218,102,20.1,-495.3724670410156,2.8550000190734863,16,0.0,0.0,1575420030,,,,0,,1,1.8,17.1,,,,,,
Raw,1712569067439,6479804000000,18,,-1396597805635199839,-0.9198055267333984,47.57031274493784,2.8041078326851885,20.628713907123092,32,11,0.0,81935,121085361979957,40,26.4,521.870849609375,0.8479999899864197,16,0.0,0.0,1575420030,,,,0,,1,1.8,23.4,,,,,,
Raw,1712569067439,6479804000000,18,,-1396597805635199839,-0.9198055267333984,47.57031274493784,2.8041078326851885,20.628713907123092,32,12,0.0,81935,121085367749375,12,37.4,345.4163818359375,0.03440000116825104,16,0.0,0.0,1575420030,,,,0,,1,1.8,34.4,,,,,,
Raw,1712569067439,6479804000000,18,,-1396597805635199839,-0.9198055267333984,47.57031274493784,2.8041078326851885,20.628713907123092,32,18,0.0,81935,121085359792278,10,39.2,-684.6204833984375,0.020600000396370888,16,0.0,0.0,1575420030,,,,0,,1,1.8,36.2,,,,,,
Raw,1712569067439,6479804000000,18,,-1396597805635199839,-0.9198055267333984,47.57031274493784,2.8041078326851885,20.628713907123092,32,20,0.0,81935,121085361662193,345,16.2,-148.2958526611328,10.118000984191895,16,0.0,0.0,1575420030,,,,0,,1,1.8,13.2,,,,,,
Raw,1712569067439,6479804000000,18,,-1396597805635199839,-0.9198055267333984,47.57031274493784,2.8041078326851885,20.628713907123092,32,25,0.0,81935,121085372477696,12,37.2,32.28750228881836,0.04190000146627426,16,0.0,0.0,1575420030,,,,0,,1,1.8,34.2,,,,,,
Raw,1712569067439,6479804000000,18,,-1396597805635199839,-0.9198055267333984,47.57031274493784,2.8041078326851885,20.628713907123092,32,28,0.0,81935,121085365285559,35,27.0,-254.4131317138672,0.793999969959259,16,0.0,0.0,1575420030,,,,0,,1,1.8,24.0,,,,,,
Raw,1712569067439,6479804000000,18,,-1396597805635199839,-0.9198055267333984,47.57031274493784,2.8041078326851885,20.628713907123092,32,29,0.0,81935,121085369355091,31,28.8,-153.45281982421875,0.7400000095367432,16,0.0,0.0,1575420030,,,,0,,1,1.8,25.8,,,,,,
Raw,1712569067439,6479804000000,18,,-1396597805635199839,-0.9198055267333984,47.57031274493784,2.8041078326851885,20.628713907123092,32,31,0.0,81935,121085359323871,19,32.6,-512.2555541992188,0.06980000436306,16,0.0,0.0,1575420030,,,,0,,1,1.8,29.6,,,,,,
Raw,1712569067439,6479804000000,18,,-1396597805635199839,-0.9198055267333984,47.57031274493784,2.8041078326851885,20.628713907123092,32,5,0.0,16399,121071311415851,16,34.6,-7.451131820678711,7.052500247955322,16,0.0,0.0,1561097980,,,,0,,5,1.57,28.6,,,,,,
Raw,1712569067439,6479804000000,18,,-1396597805635199839,-0.9198055267333984,47.57031274493784,2.8041078326851885,20.628713907123092,32,8,0.0,16399,121071311490719,63,23.1,-186.5471649169922,1.6130000352859497,16,0.0,0.0,1561097980,,,,0,,5,1.57,17.1,,,,,,
Raw,1712569067439,6479804000000,18,,-1396597805635199839,-0.9198055267333984,47.57031274493784,2.8041078326851885,20.628713907123092,32,13,0.0,16399,121071312343246,24,30.2,-241.79916381835938,0.39980000257492065,16,0.0,0.0,1561097980,,,,0,,5,1.57,24.2,,,,,,
Raw,1712569067439,6479804000000,18,,-1396597805635199839,-0.9198055267333984,47.57031274493784,2.8041078326851885,20.628713907123092,32,27,0.0,16399,121071366173031,53,24.0,253.96263122558594,0.7954999804496765,16,0.0,0.0,1561097980,,,,0,,5,1.57,18.0,,,,,,
Raw,1712569067439,6479804000000,18,,-1396597805635199839,-0.9198055267333984,47.57031274493784,2.8041078326851885,20.628713907123092,32,28,0.0,16399,121071355219465,27,29.6,545.0753173828125,0.5489999651908875,16,0.0,0.0,1561097980,,,,0,,5,1.57,23.6,,,,,,
Raw,1712569067439,6479804000000,18,,-1396597805635199839,-0.9198055267333984,47.57031274493784,2.8041078326851885,20.628713907123092,32,30,0.0,16399,121071364786759,24,30.9,-268.3079833984375,0.5024999976158142,16,0.0,0.0,1561097980,,,,0,,5,1.57,24.9,,,,,,
Raw,1712569067439,6479804000000,18,,-1396597805635199839,-0.9198055267333984,47.57031274493784,2.8041078326851885,20.628713907123092,32,10,0.0,89103,121085356664150,14,35.0,279.6468505859375,0.049800001084804535,16,0.0,0.0,1575420030,,,,0,,6,1.79,29.0,,,,,,
