# 
# Header Description:
# 
# Version: v3.0.6.4 Platform: 13 Manufacturer: samsung Model: SM-A325F
# 
# Raw,utcTimeMillis,TimeNanos,LeapSecond,TimeUncertaintyNanos,FullBiasNanos,BiasNanos,BiasUncertaintyNanos,DriftNanosPerSecond,DriftUncertaintyNanosPerSecond,HardwareClockDiscontinuityCount,Svid,TimeOffsetNanos,State,ReceivedSvTimeNanos,ReceivedSvTimeUncertaintyNanos,Cn0DbHz,PseudorangeRateMetersPerSecond,PseudorangeRateUncertaintyMetersPerSecond,AccumulatedDeltaRangeState,AccumulatedDeltaRangeMeters,AccumulatedDeltaRangeUncertaintyMeters,CarrierFrequencyHz,CarrierCycles,CarrierPhase,CarrierPhaseUncertainty,MultipathIndicator,SnrInDb,ConstellationType,AgcDb,BasebandCn0DbHz,FullInterSignalBiasNanos,FullInterSignalBiasUncertaintyNanos,SatelliteInterSignalBiasNanos,SatelliteInterSignalBiasUncertaintyNanos,CodeType,ChipsetElapsedRealtimeNanos
# 
# UncalAccel,utcTimeMillis,elapsedRealtimeNanos,UncalAccelXMps2,UncalAccelYMps2,UncalAccelZMps2,BiasXMps2,BiasYMps2,BiasZMps2
# 
# Accel,utcTimeMillis,elapsedRealtimeNanos,AccelXMps2,AccelYMps2,AccelZMps2
# 
# UncalGyro,utcTimeMillis,elapsedRealtimeNanos,UncalGyroXRadPerSec,UncalGyroYRadPerSec,UncalGyroZRadPerSec,DriftXRadPerSec,DriftYRadPerSec,DriftZRadPerSec
# 
# Gyro,utcTimeMillis,elapsedRealtimeNanos,GyroXRadPerSec,GyroYRadPerSec,GyroZRadPerSec
# 
# UncalMag,utcTimeMillis,elapsedRealtimeNanos,UncalMagXMicroT,UncalMagYMicroT,UncalMagZMicroT,BiasXMicroT,BiasYMicroT,BiasZMicroT
# 
# Mag,utcTimeMillis,elapsedRealtimeNanos,MagXMicroT,MagYMicroT,MagZMicroT
# 
# OrientationDeg,utcTimeMillis,elapsedRealtimeNanos,yawDeg,rollDeg,pitchDeg
# 
# Fix,Provider,LatitudeDegrees,LongitudeDegrees,AltitudeMeters,SpeedMps,AccuracyMeters,BearingDegrees,UnixTimeMillis,SpeedAccuracyMps,BearingAccuracyDegrees,elapsedRealtimeNanos,VerticalAccuracyMeters,MockLocation,NumberOfUsedSignals,VerticalSpeedAccuracyMps,SolutionType
# 
# Nav,Svid,Type,Status,MessageId,Sub-messageId,Data(Bytes)
# 
# Status,UnixTimeMillis,SignalCount,SignalIndex,ConstellationType,Svid,CarrierFrequencyHz,Cn0DbHz,AzimuthDegrees,ElevationDegrees,UsedInFix,HasAlmanacData,HasEphemerisData,BasebandCn0DbHz
# 
# Agc,utcTimeMillis,TimeNanos,LeapSecond,TimeUncertaintyNanos,FullBiasNanos,BiasNanos,BiasUncertaintyNanos,DriftNanosPerSecond,DriftUncertaintyNanosPerSecond,HardwareClockDiscontinuityCount,AgcDb,CarrierFrequencyHz,ConstellationType
# 
Fix,FLP,45.0084356000,7.6874243000,290.6000061035156,0.42840257,4.598,304.66248,1711469441011,0.31110385,45.0,1670711107077698,5.1812305,0,,,
Fix,FLP,45.0084366000,7.6874218000,290.6000061035156,0.33631325,4.614,308.77646,1711469441693,0.25397778,45.0,1670711789009997,5.1812305,0,,,
Status,,48,0,1,27,1575420030,38.20,117.0,76.0,1,0,0,33.2
Status,,48,1,1,10,1575420030,38.30,83.0,65.0,1,0,0,33.3
Status,,48,2,1,8,1575420030,45.70,305.0,63.0,1,0,0,40.7
Status,,48,3,1,21,1575420030,37.50,271.0,38.0,1,0,0,32.5
Status,,48,4,2,123,1575420030,33.00,158.0,35.0,0,0,0,28.0
Status,,48,5,1,23,1575420030,27.20,49.0,33.0,1,0,0,22.2
Status,,48,6,1,16,1575420030,32.70,188.0,31.0,1,0,0,27.7
Status,,48,7,1,2,1575420030,32.90,266.0,23.0,1,0,0,27.900002
Status,,48,8,1,32,1575420030,27.50,125.0,15.0,1,0,0,22.5
Status,,48,9,1,26,1575420030,0.00,175.0,4.0,0,0,0,0.0
Status,,48,10,1,18,1575420030,0.00,72.0,3.0,0,0,0,0.0
Status,,48,11,1,7,1575420030,0.00,287.0,2.0,0,0,0,0.0
Status,,48,12,1,30,1575420030,0.00,315.0,1.0,0,0,0,0.0
Status,,48,13,3,17,1602000000,36.20,50.0,53.0,0,0,0,31.2
Status,,48,14,3,18,1602000000,37.60,316.0,52.0,1,0,0,32.6
Status,,48,15,3,2,1602000000,37.80,93.0,44.0,1,0,0,32.8
Status,,48,16,3,16,1602000000,34.80,268.0,36.0,1,0,0,29.8
Status,,48,17,3,1,1602000000,24.70,34.0,24.0,1,0,0,19.7
Status,,48,18,3,3,1602000000,30.70,152.0,22.0,1,0,0,25.7
Status,,48,19,3,9,1602000000,31.30,327.0,19.0,1,0,0,26.3
Status,,48,20,3,19,1602000000,21.30,284.0,16.0,1,0,0,16.3
Status,,48,21,3,15,1602000000,25.90,214.0,15.0,1,0,0,20.9
Status,,48,22,3,24,1602000000,0.00,85.0,8.0,0,0,0,0.0
Status,,48,23,6,34,1575420030,40.20,290.0,68.0,1,0,0,35.2
Status,,48,24,6,30,1575420030,30.20,263.0,51.0,1,0,0,25.2
Status,,48,25,6,36,1575420030,0.00,57.0,49.0,0,0,0,0.0
Status,,48,26,6,2,1575420030,0.00,193.0,32.0,0,0,0,0.0
Status,,48,27,6,9,1575420030,0.00,84.0,21.0,0,0,0,0.0
Status,,48,28,6,27,1575420030,0.00,319.0,20.0,0,0,0,0.0
Status,,48,29,6,15,1575420030,0.00,260.0,19.0,0,0,0,0.0
Status,,48,30,6,5,1575420030,0.00,136.0,11.0,0,0,0,0.0
Status,,48,31,6,4,1575420030,0.00,36.0,10.0,0,0,0,0.0
Status,,48,32,6,11,1575420030,0.00,71.0,3.0,0,0,0,0.0
Status,,48,33,5,29,1561097980,42.60,316.0,70.0,1,0,0,37.6
Status,,48,34,5,30,1561097980,30.70,91.0,46.0,1,0,0,25.7
Status,,48,35,5,32,1561097980,33.40,70.0,41.0,1,0,0,28.400002
Status,,48,36,5,20,1561097980,34.90,148.0,38.0,1,0,0,29.900002
Status,,48,37,5,45,1561097980,0.00,249.0,22.0,0,0,0,0.0
Status,,48,38,5,5,1561097980,0.00,119.0,19.0,0,0,0,0.0
Status,,48,39,5,13,1561097980,0.00,43.0,18.0,0,0,0,0.0
Status,,48,40,5,26,1561097980,24.70,305.0,17.0,1,0,0,19.7
Status,,48,41,5,56,1561097980,0.00,57.0,8.0,0,0,0,0.0
Status,,48,42,5,19,1561097980,0.00,184.0,5.0,0,0,0,0.0
Status,,48,43,5,41,1561097980,0.00,29.0,5.0,0,0,0,0.0
Status,,48,44,5,60,1561097980,0.00,101.0,5.0,0,0,0,0.0
Status,,48,45,5,8,1561097980,0.00,39.0,4.0,0,0,0,0.0
Status,,48,46,5,36,1561097980,0.00,204.0,3.0,0,0,0,0.0
Status,,48,47,5,2,1561097980,0.00,98.0,2.0,0,0,0,0.0
Fix,GPS,45.0084050000,7.6873966667,288.2,0.0,2.0,199.86,1711469442000,1.8,136.6,1670712041000000,24.0,0,,,
Fix,FLP,45.0084357000,7.6874217000,290.6000061035156,0.2557157,4.58,310.22726,1711469441945,0.21329753,45.0,1670712041000000,5.191231,0,,,
Raw,1711469442000,87448000000,18,64.83666733543562,-1395504572552000000,0.0,64.83666733543562,-247.69067212570118,0.0,0,21,0.0,16431,231059927022551,74,32.48400115966797,-431.28058582010726,0.14999,16,0.0,0.0,1575420030,,,,0,19.490888999879044,1,6.0,32.48400115966797,0.0,0.0,0.0,66.7128,I,1670712041000000
Raw,1711469442000,87448000000,18,64.83666733543562,-1395504572552000000,0.0,64.83666733543562,-247.69067212570118,0.0,0,8,0.0,16431,231059931170157,42,40.71699905395508,-334.24498250988535,0.14999,16,0.0,0.0,1575420030,,,,0,26.330795314379984,1,6.0,40.71699905395508,0.0,0.0,0.0,66.7128,I,1670712041000000
Raw,1711469442000,87448000000,18,64.83666733543562,-1395504572552000000,0.0,64.83666733543562,-247.69067212570118,0.0,0,23,0.0,16431,231059924767219,396,22.231000900268555,435.87290734568654,0.14999,16,0.0,0.0,1575420030,,,,0,6.133099391586938,1,6.0,22.231000900268555,0.0,0.0,0.0,66.7128,I,1670712041000000
Raw,1711469442000,87448000000,18,64.83666733543562,-1395504572552000000,0.0,64.83666733543562,-247.69067212570118,0.0,0,27,0.0,16431,231059932206140,74,33.180999755859375,134.23680842348074,0.14999,16,0.0,0.0,1575420030,,,,0,20.29797036088654,1,6.0,33.180999755859375,0.0,0.0,0.0,66.7128,I,1670712041000000
Raw,1711469442000,87448000000,18,64.83666733543562,-1395504572552000000,0.0,64.83666733543562,-247.69067212570118,0.0,0,32,0.0,16431,231059918456633,487,22.53499984741211,-609.0677923498438,0.14999,16,0.0,0.0,1575420030,,,,0,6.678037694404184,1,6.0,22.53499984741211,0.0,0.0,0.0,66.7128,I,1670712041000000
Raw,1711469442000,87448000000,18,64.83666733543562,-1395504572552000000,0.0,64.83666733543562,-247.69067212570118,0.0,0,29,0.0,16431,231045927448856,42,37.58000183105469,-240.5171356201172,0.14999,16,0.0,0.0,1561097980,,,,0,26.400757332155102,5,6.0,37.58000183105469,0.0,0.0,188.53733795067865,66.7128,I,1670712041000000
Raw,1711469442000,87448000000,18,64.83666733543562,-1395504572552000000,0.0,64.83666733543562,-247.69067212570118,0.0,0,30,0.0,16431,231059918494862,316,25.200000762939453,35.07745153302652,0.14999,16,0.0,0.0,1575420030,,,,0,11.300814202135918,6,6.0,25.200000762939453,0.0,0.0,-5.159625337423659,66.7128,I,1670712041000000
Raw,1711469442000,87448000000,18,64.83666733543562,-1395504572552000000,0.0,64.83666733543562,-247.69067212570118,0.0,0,32,0.0,16905,231045921548411,316,28.371000289916992,30.60666847229004,0.14999,16,0.0,0.0,1561097980,,,,0,12.992466454495784,5,6.0,28.371000289916992,0.0,0.0,188.53733795067865,66.7128,I,1670712041000000
Raw,1711469442000,87448000000,18,64.83666733543562,-1395504572552000000,0.0,64.83666733543562,-247.69067212570118,0.0,0,2,0.0,16431,231059921315018,235,27.889999389648438,-543.7268174546944,0.14999,16,0.0,0.0,1575420030,,,,0,13.902381727350138,1,6.0,27.889999389648438,0.0,0.0,0.0,66.7128,I,1670712041000000
Raw,1711469442000,87448000000,18,64.83666733543562,-1395504572552000000,0.0,64.83666733543562,-247.69067212570118,0.0,0,30,0.0,16905,231045923230933,235,25.722000122070312,279.8199157714844,0.14999,16,0.0,0.0,1561097980,,,,0,13.695061924510197,5,6.0,25.722000122070312,0.0,0.0,188.53733795067865,66.7128,I,1670712041000000
Raw,1711469442000,87448000000,18,64.83666733543562,-1395504572552000000,0.0,64.83666733543562,-247.69067212570118,0.0,0,10,0.0,16431,231059930214727,58,33.27899932861328,28.489311290854666,0.14999,16,0.0,0.0,1575420030,,,,0,20.40738119416269,1,6.0,33.27899932861328,0.0,0.0,0.0,66.7128,I,1670712041000000
Raw,1711469442000,87448000000,18,64.83666733543562,-1395504572552000000,0.0,64.83666733543562,-247.69067212570118,0.0,0,34,0.0,16431,231059921184449,51,35.20000076293945,-193.5049482144616,0.14999,16,0.0,0.0,1575420030,,,,0,22.661121633584663,6,6.0,35.20000076293945,0.0,0.0,-5.159625337423659,66.7128,I,1670712041000000
Raw,1711469442000,87448000000,18,64.83666733543562,-1395504572552000000,0.0,64.83666733543562,-247.69067212570118,0.0,0,15,0.0,17,913691,396,5.0,716.6846745182115,0.14999,16,0.0,0.0,1602000000,,,,0,4.466956104571195,3,6.0,21.0,0.0,0.0,122.14892857328343,66.7128,I,1670712041000000
Raw,1711469442000,87448000000,18,64.83666733543562,-1395504572552000000,0.0,64.83666733543562,-247.69067212570118,0.0,0,3,0.0,17,221725,396,5.0,-856.1575901750624,0.14999,16,0.0,0.0,1604812540,,,,0,11.889913788901431,3,6.0,23.0,0.0,0.0,122.14892857328343,66.7128,I,1670712041000000
Raw,1711469442000,87448000000,18,64.83666733543562,-1395504572552000000,0.0,64.83666733543562,-247.69067212570118,0.0,0,19,0.0,32995,69041923192673,487,5.0,-629.4988790392114,0.14999,16,0.0,0.0,1603687550,,,,0,1.9333178366446955,3,6.0,20.0,0.0,0.0,122.14892857328343,66.7128,I,1670712041000000
Raw,1711469442000,87448000000,18,64.83666733543562,-1395504572552000000,0.0,64.83666733543562,-247.69067212570118,0.0,0,2,0.0,32995,69041930906472,58,5.0,-319.5375599572808,0.14999,16,0.0,0.0,1599750020,,,,0,20.022395181946976,3,6.0,33.0,0.0,0.0,122.14892857328343,66.7128,I,1670712041000000
Raw,1711469442000,87448000000,18,64.83666733543562,-1395504572552000000,0.0,64.83666733543562,-247.69067212570118,0.0,0,1,0.0,17,649015,396,26.299999237060547,407.0630612640169,0.14999,16,0.0,0.0,1602562560,,,,0,4.837642195556411,3,6.0,26.299999237060547,0.0,0.0,122.14892857328343,66.7128,I,1670712041000000
Raw,1711469442000,87448000000,18,64.83666733543562,-1395504572552000000,0.0,64.83666733543562,-247.69067212570118,0.0,0,17,0.0,32995,69041932841355,235,5.0,178.75367021613079,0.14999,16,0.0,0.0,1604249980,,,,0,18.28415796153614,3,6.0,29.0,0.0,0.0,122.14892857328343,66.7128,I,1670712041000000
Raw,1711469442000,87448000000,18,64.83666733543562,-1395504572552000000,0.0,64.83666733543562,-247.69067212570118,0.0,0,16,0.0,32995,69041929216145,74,5.0,265.6372160493234,0.14999,16,0.0,0.0,1601437440,,,,0,16.734998829575247,3,6.0,30.0,0.0,0.0,122.14892857328343,66.7128,I,1670712041000000
Raw,1711469442000,87448000000,18,64.83666733543562,-1395504572552000000,0.0,64.83666733543562,-247.69067212570118,0.0,0,9,0.0,32995,69041924304943,316,5.0,-451.44098578218546,0.14999,16,0.0,0.0,1600875010,,,,0,12.625487732581357,3,6.0,25.0,0.0,0.0,122.14892857328343,66.7128,I,1670712041000000
Raw,1711469442000,87448000000,18,64.83666733543562,-1395504572552000000,0.0,64.83666733543562,-247.69067212570118,0.0,0,18,0.0,32995,69041932852406,58,5.0,-341.0192720596249,0.14999,16,0.0,0.0,1600312450,,,,0,19.844333417756737,3,6.0,33.0,0.0,0.0,122.14892857328343,66.7128,I,1670712041000000
Raw,1711469442000,87448000000,18,64.83666733543562,-1395504572552000000,0.0,64.83666733543562,-247.69067212570118,0.0,0,26,0.0,16905,231045914957740,797,19.7450008392334,-74.96403503417969,0.14999,16,0.0,0.0,1561097980,,,,0,5.168663350737256,5,6.0,19.7450008392334,0.0,0.0,188.53733795067865,66.7128,I,1670712041000000
Raw,1711469442000,87448000000,18,64.83666733543562,-1395504572552000000,0.0,64.83666733543562,-247.69067212570118,0.0,0,16,0.0,16431,231059922966918,316,27.66699981689453,596.4282227187724,0.14999,16,0.0,0.0,1575420030,,,,0,13.616721345504523,1,6.0,27.66699981689453,0.0,0.0,0.0,66.7128,I,1670712041000000
Raw,1711469442000,87448000000,18,64.83666733543562,-1395504572552000000,0.0,64.83666733543562,-247.69067212570118,0.0,0,20,0.0,16905,231045921585247,235,29.899999618530273,-572.12451171875,0.14999,16,0.0,0.0,1561097980,,,,0,16.893799374171227,5,6.0,29.899999618530273,0.0,0.0,188.53733795067865,66.7128,I,1670712041000000
Fix,FLP,45.0084355000,7.6874212000,290.6000061035156,0.24315701,4.567,311.03677,1711469442226,0.21329753,45.0,1670712322493766,5.191231,0,,,
Fix,FLP,45.0084362000,7.6874192000,290.6000061035156,0.28730413,4.554,310.6709,1711469442706,0.2417137,45.0,1670712802677151,5.191231,0,,,
Status,1711469442000,48,0,1,27,1575420030,40.40,117.0,76.0,1,0,0,35.4
Status,1711469442000,48,1,1,10,1575420030,40.00,83.0,65.0,1,0,0,35.0
Status,1711469442000,48,2,1,8,1575420030,45.80,305.0,63.0,1,0,0,40.8
Status,1711469442000,48,3,1,21,1575420030,38.80,271.0,38.0,1,0,0,33.8
Status,1711469442000,48,4,2,123,1575420030,33.00,158.0,35.0,0,0,0,28.0
Status,1711469442000,48,5,1,23,1575420030,36.10,49.0,33.0,1,0,0,31.099998
Status,1711469442000,48,6,1,16,1575420030,40.10,188.0,31.0,1,0,0,35.1
Status,1711469442000,48,7,1,2,1575420030,33.10,266.0,23.0,1,0,0,28.099998
Status,1711469442000,48,8,1,32,1575420030,27.50,125.0,15.0,1,0,0,22.5
Status,1711469442000,48,9,1,26,1575420030,0.00,175.0,4.0,0,0,0,0.0
Status,1711469442000,48,10,1,18,1575420030,0.00,72.0,3.0,0,0,0,0.0
Status,1711469442000,48,11,1,7,1575420030,0.00,287.0,2.0,0,0,0,0.0
Status,1711469442000,48,12,1,30,1575420030,0.00,315.0,1.0,0,0,0,0.0
Status,1711469442000,48,13,3,17,1602000000,40.50,50.0,53.0,0,0,0,35.5
Status,1711469442000,48,14,3,18,1602000000,30.30,316.0,52.0,1,0,0,25.3
Status,1711469442000,48,15,3,2,1602000000,47.00,93.0,44.0,1,0,0,42.0
Status,1711469442000,48,16,3,16,1602000000,37.20,268.0,36.0,1,0,0,32.2
Status,1711469442000,48,17,3,1,1602000000,24.70,34.0,24.0,1,0,0,19.7
Status,1711469442000,48,18,3,3,1602000000,30.70,152.0,22.0,1,0,0,25.7
Status,1711469442000,48,19,3,9,1602000000,28.60,327.0,19.0,1,0,0,23.6
Status,1711469442000,48,20,3,19,1602000000,26.40,284.0,16.0,1,0,0,21.4
Status,1711469442000,48,21,3,15,1602000000,26.00,214.0,15.0,1,0,0,21.0
Status,1711469442000,48,22,3,24,1602000000,0.00,85.0,8.0,0,0,0,0.0
Status,1711469442000,48,23,6,34,1575420030,37.80,290.0,68.0,1,0,0,32.8
Status,1711469442000,48,24,6,30,1575420030,25.10,263.0,51.0,1,0,0,20.1
Status,1711469442000,48,25,6,36,1575420030,0.00,57.0,49.0,0,0,0,0.0
Status,1711469442000,48,26,6,2,1575420030,0.00,193.0,32.0,0,0,0,0.0
Status,1711469442000,48,27,6,9,1575420030,0.00,84.0,21.0,0,0,0,0.0
Status,1711469442000,48,28,6,27,1575420030,0.00,319.0,20.0,0,0,0,0.0
Status,1711469442000,48,29,6,15,1575420030,0.00,260.0,19.0,0,0,0,0.0
Status,1711469442000,48,30,6,5,1575420030,0.00,136.0,11.0,0,0,0,0.0
Status,1711469442000,48,31,6,4,1575420030,0.00,36.0,10.0,0,0,0,0.0
Status,1711469442000,48,32,6,11,1575420030,0.00,71.0,3.0,0,0,0,0.0
Status,1711469442000,48,33,5,29,1561097980,45.50,316.0,70.0,1,0,0,40.5
Status,1711469442000,48,34,5,30,1561097980,39.90,91.0,46.0,1,0,0,34.9
Status,1711469442000,48,35,5,32,1561097980,33.40,70.0,41.0,1,0,0,28.400002
Status,1711469442000,48,36,5,20,1561097980,40.20,148.0,38.0,1,0,0,35.2
Status,1711469442000,48,37,5,45,1561097980,0.00,249.0,22.0,0,0,0,0.0
Status,1711469442000,48,38,5,5,1561097980,0.00,119.0,19.0,0,0,0,0.0
Status,1711469442000,48,39,5,13,1561097980,0.00,43.0,18.0,0,0,0,0.0
Status,1711469442000,48,40,5,26,1561097980,24.80,305.0,17.0,1,0,0,19.8
Status,1711469442000,48,41,5,56,1561097980,0.00,57.0,8.0,0,0,0,0.0
Status,1711469442000,48,42,5,19,1561097980,0.00,184.0,5.0,0,0,0,0.0
Status,1711469442000,48,43,5,41,1561097980,0.00,29.0,5.0,0,0,0,0.0
Status,1711469442000,48,44,5,60,1561097980,0.00,101.0,5.0,0,0,0,0.0
Status,1711469442000,48,45,5,8,1561097980,0.00,39.0,4.0,0,0,0,0.0
Status,1711469442000,48,46,5,36,1561097980,0.00,204.0,3.0,0,0,0,0.0
Status,1711469442000,48,47,5,2,1561097980,0.00,98.0,2.0,0,0,0,0.0
Fix,GPS,45.0084016667,7.6873900000,288.6,0.0,1.8,212.75,1711469443000,1.1,178.5,1670713041000000,20.0,0,,,
Fix,FLP,45.0084365000,7.6874184000,290.6000061035156,0.3020718,4.542,310.41812,1711469442969,0.2602814,45.0,1670713066630614,5.2012305,0,,,
Raw,1711469443000,88448000000,18,51.358874324410536,-1395504572552000000,0.0,51.358874324410536,-258.494949276246,0.0,0,21,0.0,16431,231060927023992,58,33.75199890136719,-435.87081671695705,0.14999,16,0.0,0.0,1575420030,,,,0,20.94603208957739,1,6.0,33.75199890136719,0.0,0.0,0.0,66.7128,I,1670713041000000
Raw,1711469443000,88448000000,18,51.358874324410536,-1395504572552000000,0.0,51.358874324410536,-258.494949276246,0.0,0,8,0.0,16431,231060931171274,31,40.76100158691406,-337.9087396706646,0.14999,16,0.0,0.0,1575420030,,,,0,29.49516023975515,1,6.0,40.76100158691406,0.0,0.0,0.0,66.7128,I,1670713041000000
Raw,1711469443000,88448000000,18,51.358874324410536,-1395504572552000000,0.0,51.358874324410536,-258.494949276246,0.0,0,23,0.0,16431,231060924765764,74,31.111000061035156,433.3529099335945,0.14999,16,0.0,0.0,1575420030,,,,0,17.872289100496147,1,6.0,31.111000061035156,0.0,0.0,0.0,66.7128,I,1670713041000000
Raw,1711469443000,88448000000,18,51.358874324410536,-1395504572552000000,0.0,51.358874324410536,-258.494949276246,0.0,0,27,0.0,16431,231060932205693,58,35.35900115966797,130.39576594644205,0.14999,16,0.0,0.0,1575420030,,,,0,22.753821442362582,1,6.0,35.35900115966797,0.0,0.0,0.0,66.7128,I,1670713041000000
Raw,1711469443000,88448000000,18,51.358874324410536,-1395504572552000000,0.0,51.358874324410536,-258.494949276246,0.0,0,32,0.0,16431,231060918458660,797,22.545000076293945,-609.0352714584965,0.14999,16,0.0,0.0,1575420030,,,,0,6.678037694404184,1,6.0,22.545000076293945,0.0,0.0,0.0,66.7128,I,1670713041000000
Raw,1711469443000,88448000000,18,51.358874324410536,-1395504572552000000,0.0,51.358874324410536,-258.494949276246,0.0,0,29,0.0,16431,231046927449661,42,40.5,-243.987060546875,0.14999,16,0.0,0.0,1561097980,,,,0,28.227360044699495,5,6.0,40.5,0.0,0.0,187.33214644852706,66.7128,I,1670713041000000
Raw,1711469443000,88448000000,18,51.358874324410536,-1395504572552000000,0.0,51.358874324410536,-258.494949276246,0.0,0,30,0.0,16431,231060918494739,487,20.100000381469727,35.04464027657783,0.14999,16,0.0,0.0,1575420030,,,,0,4.410900413234487,6,6.0,20.100000381469727,0.0,0.0,-5.552365733184086,66.7128,I,1670713041000000
Raw,1711469443000,88448000000,18,51.358874324410536,-1395504572552000000,0.0,51.358874324410536,-258.494949276246,0.0,0,32,0.0,16905,231046921548311,235,28.406999588012695,28.008649826049805,0.14999,16,0.0,0.0,1561097980,,,,0,15.928954921912606,5,6.0,28.406999588012695,0.0,0.0,187.33214644852706,66.7128,I,1670713041000000
Raw,1711469443000,88448000000,18,51.358874324410536,-1395504572552000000,0.0,51.358874324410536,-258.494949276246,0.0,0,2,0.0,16431,231060921316822,235,28.070999145507812,-546.5215234818393,0.14999,16,0.0,0.0,1575420030,,,,0,14.129311925688633,1,6.0,28.070999145507812,0.0,0.0,0.0,66.7128,I,1670713041000000
Raw,1711469443000,88448000000,18,51.358874324410536,-1395504572552000000,0.0,51.358874324410536,-258.494949276246,0.0,0,30,0.0,16905,231046923230001,58,34.900001525878906,276.5535888671875,0.14999,16,0.0,0.0,1561097980,,,,0,22.332561917096744,5,6.0,34.900001525878906,0.0,0.0,187.33214644852706,66.7128,I,1670713041000000
Raw,1711469443000,88448000000,18,51.358874324410536,-1395504572552000000,0.0,51.358874324410536,-258.494949276246,0.0,0,10,0.0,16431,231060930214631,58,34.95199966430664,24.349390207729545,0.14999,16,0.0,0.0,1575420030,,,,0,22.29955376242339,1,6.0,34.95199966430664,0.0,0.0,0.0,66.7128,I,1670713041000000
Raw,1711469443000,88448000000,18,51.358874324410536,-1395504572552000000,0.0,51.358874324410536,-258.494949276246,0.0,0,34,0.0,16431,231060921185090,58,32.79999923706055,-194.287958361274,0.14999,16,0.0,0.0,1575420030,,,,0,20.062364333989002,6,6.0,32.79999923706055,0.0,0.0,-5.552365733184086,66.7128,I,1670713041000000
Raw,1711469443000,88448000000,18,51.358874324410536,-1395504572552000000,0.0,51.358874324410536,-258.494949276246,0.0,0,15,0.0,17,911305,487,5.0,713.8274640582633,0.14999,16,0.0,0.0,1602000000,,,,0,8.660248662715258,3,6.0,20.0,0.0,0.0,122.85950711373607,66.7128,I,1670713041000000
Raw,1711469443000,88448000000,18,51.358874324410536,-1395504572552000000,0.0,51.358874324410536,-258.494949276246,0.0,0,3,0.0,17,224586,316,5.0,-859.2332701036287,0.14999,16,0.0,0.0,1604812540,,,,0,11.889913788901431,3,6.0,25.0,0.0,0.0,122.85950711373607,66.7128,I,1670713041000000
Raw,1711469443000,88448000000,18,51.358874324410536,-1395504572552000000,0.0,51.358874324410536,-258.494949276246,0.0,0,19,0.0,32995,69042923194786,797,5.0,-627.8610594407354,0.14999,16,0.0,0.0,1603687550,,,,0,6.370292828971824,3,6.0,17.0,0.0,0.0,122.85950711373607,66.7128,I,1670713041000000
Raw,1711469443000,88448000000,18,51.358874324410536,-1395504572552000000,0.0,51.358874324410536,-258.494949276246,0.0,0,2,0.0,32995,69042930907542,31,5.0,-322.8715199618178,0.14999,16,0.0,0.0,1599750020,,,,0,29.792029539813612,3,6.0,42.0,0.0,0.0,122.85950711373607,66.7128,I,1670713041000000
Raw,1711469443000,88448000000,18,51.358874324410536,-1395504572552000000,0.0,51.358874324410536,-258.494949276246,0.0,0,1,0.0,17,647653,487,23.600000381469727,405.5882811478702,0.14999,16,0.0,0.0,1602562560,,,,0,3.416375079047504,3,6.0,23.600000381469727,0.0,0.0,122.85950711373607,66.7128,I,1670713041000000
Raw,1711469443000,88448000000,18,51.358874324410536,-1395504572552000000,0.0,51.358874324410536,-258.494949276246,0.0,0,17,0.0,32995,69042932840760,51,5.0,174.70182336231338,0.14999,16,0.0,0.0,1604249980,,,,0,22.963811226855228,3,6.0,36.0,0.0,0.0,122.85950711373607,66.7128,I,1670713041000000
Raw,1711469443000,88448000000,18,51.358874324410536,-1395504572552000000,0.0,51.358874324410536,-258.494949276246,0.0,0,16,0.0,32995,69042929215264,74,5.0,262.0543251358173,0.14999,16,0.0,0.0,1601437440,,,,0,19.398201339352163,3,6.0,32.0,0.0,0.0,122.85950711373607,66.7128,I,1670713041000000
Raw,1711469443000,88448000000,18,51.358874324410536,-1395504572552000000,0.0,51.358874324410536,-258.494949276246,0.0,0,9,0.0,32995,69042924306457,396,5.0,-453.80675144305604,0.14999,16,0.0,0.0,1600875010,,,,0,9.311996006787098,3,6.0,22.0,0.0,0.0,122.85950711373607,66.7128,I,1670713041000000
Raw,1711469443000,88448000000,18,51.358874324410536,-1395504572552000000,0.0,51.358874324410536,-258.494949276246,0.0,0,18,0.0,32995,69042932853538,316,5.0,-342.52352140417736,0.14999,16,0.0,0.0,1600312450,,,,0,11.444385894678387,3,6.0,24.0,0.0,0.0,122.85950711373607,66.7128,I,1670713041000000
Raw,1711469443000,88448000000,18,51.358874324410536,-1395504572552000000,0.0,51.358874324410536,-258.494949276246,0.0,0,26,0.0,16905,231046914957981,797,19.78700065612793,-70.52117919921875,0.14999,16,0.0,0.0,1561097980,,,,0,5.168663350737256,5,6.0,19.78700065612793,0.0,0.0,187.33214644852706,66.7128,I,1670713041000000
Raw,1711469443000,88448000000,18,51.358874324410536,-1395504572552000000,0.0,51.358874324410536,-258.494949276246,0.0,0,16,0.0,16431,231060922964930,58,35.05500030517578,593.0310439502092,0.14999,16,0.0,0.0,1575420030,,,,0,22.415367340041296,1,6.0,35.05500030517578,0.0,0.0,0.0,66.7128,I,1670713041000000
Raw,1711469443000,88448000000,18,51.358874324410536,-1395504572552000000,0.0,51.358874324410536,-258.494949276246,0.0,0,20,0.0,16905,231046921587155,58,35.20000076293945,-574.5657958984375,0.14999,16,0.0,0.0,1561097980,,,,0,22.6666757871538,5,6.0,35.20000076293945,0.0,0.0,187.33214644852706,66.7128,I,1670713041000000
Status,1711469443000,48,0,1,27,1575420030,45.10,117.0,76.0,1,0,0,40.1
Status,1711469443000,48,1,1,10,1575420030,48.50,83.0,65.0,1,0,0,43.5
Status,1711469443000,48,2,1,8,1575420030,38.50,305.0,63.0,1,0,0,33.5
Status,1711469443000,48,3,1,21,1575420030,33.80,271.0,38.0,1,0,0,28.8
Status,1711469443000,48,4,2,123,1575420030,35.00,158.0,35.0,0,0,0,30.0
Status,1711469443000,48,5,1,23,1575420030,33.80,49.0,33.0,1,0,0,28.8
Status,1711469443000,48,6,1,16,1575420030,33.40,188.0,31.0,1,0,0,28.400002
Status,1711469443000,48,7,1,2,1575420030,45.60,266.0,23.0,1,0,0,40.6
Status,1711469443000,48,8,1,32,1575420030,27.50,125.0,15.0,1,0,0,22.5
Status,1711469443000,48,9,1,26,1575420030,0.00,175.0,4.0,0,0,0,0.0
Status,1711469443000,48,10,1,18,1575420030,0.00,72.0,3.0,0,0,0,0.0
Status,1711469443000,48,11,1,7,1575420030,0.00,287.0,2.0,0,0,0,0.0
Status,1711469443000,48,12,1,30,1575420030,0.00,315.0,1.0,0,0,0,0.0
Status,1711469443000,48,13,3,18,1602000000,37.90,316.0,52.0,1,0,0,32.9
Status,1711469443000,48,14,3,2,1602000000,38.10,93.0,44.0,1,0,0,33.1
Status,1711469443000,48,15,3,16,1602000000,41.80,268.0,36.0,1,0,0,36.8
Status,1711469443000,48,16,3,1,1602000000,29.20,34.0,24.0,1,0,0,24.2
Status,1711469443000,48,17,3,3,1602000000,30.70,152.0,22.0,1,0,0,25.7
Status,1711469443000,48,18,3,9,1602000000,28.90,327.0,19.0,1,0,0,23.9
Status,1711469443000,48,19,3,19,1602000000,26.40,284.0,16.0,1,0,0,21.4
Status,1711469443000,48,20,3,15,1602000000,28.90,214.0,15.0,1,0,0,23.9
Status,1711469443000,48,21,3,24,1602000000,0.00,85.0,8.0,0,0,0,0.0
Status,1711469443000,48,22,3,17,1602000000,37.30,0.0,0.0,0,0,0,32.3
Status,1711469443000,48,23,6,34,1575420030,31.30,290.0,68.0,1,0,0,26.3
Status,1711469443000,48,24,6,30,1575420030,32.10,263.0,51.0,1,0,0,27.099998
Status,1711469443000,48,25,6,36,1575420030,0.00,57.0,49.0,0,0,0,0.0
Status,1711469443000,48,26,6,2,1575420030,0.00,193.0,32.0,0,0,0,0.0
Status,1711469443000,48,27,6,9,1575420030,0.00,84.0,21.0,0,0,0,0.0
Status,1711469443000,48,28,6,27,1575420030,0.00,319.0,20.0,0,0,0,0.0
Status,1711469443000,48,29,6,15,1575420030,0.00,260.0,19.0,0,0,0,0.0
Status,1711469443000,48,30,6,5,1575420030,0.00,136.0,11.0,0,0,0,0.0
Status,1711469443000,48,31,6,4,1575420030,0.00,36.0,10.0,0,0,0,0.0
Status,1711469443000,48,32,6,11,1575420030,0.00,71.0,3.0,0,0,0,0.0
Status,1711469443000,48,33,5,29,1561097980,35.00,316.0,70.0,1,0,0,30.0
Status,1711469443000,48,34,5,30,1561097980,39.80,91.0,46.0,1,0,0,34.8
Status,1711469443000,48,35,5,32,1561097980,38.50,70.0,41.0,1,0,0,33.5
Status,1711469443000,48,36,5,20,1561097980,33.10,148.0,38.0,1,0,0,28.099998
Status,1711469443000,48,37,5,45,1561097980,0.00,249.0,22.0,0,0,0,0.0
Status,1711469443000,48,38,5,5,1561097980,0.00,119.0,19.0,0,0,0,0.0
Status,1711469443000,48,39,5,13,1561097980,23.70,43.0,18.0,1,0,0,18.7
Status,1711469443000,48,40,5,26,1561097980,24.90,305.0,17.0,1,0,0,19.9
Status,1711469443000,48,41,5,56,1561097980,0.00,57.0,8.0,0,0,0,0.0
Status,1711469443000,48,42,5,19,1561097980,0.00,184.0,5.0,0,0,0,0.0
Status,1711469443000,48,43,5,41,1561097980,0.00,29.0,5.0,0,0,0,0.0
Status,1711469443000,48,44,5,60,1561097980,0.00,101.0,5.0,0,0,0,0.0
Status,1711469443000,48,45,5,8,1561097980,0.00,39.0,4.0,0,0,0,0.0
Status,1711469443000,48,46,5,36,1561097980,0.00,204.0,3.0,0,0,0,0.0
Status,1711469443000,48,47,5,2,1561097980,0.00,98.0,2.0,0,0,0,0.0
Fix,GPS,45.0084016667,7.6873900000,288.6,0.0,1.8,212.75,1711469444000,1.0,179.9,1670714041000000,20.0,0,,,
Raw,1711469444000,89448000000,18,51.13902427841254,-1395504572552000000,0.0,51.13902427841254,-264.78125392088907,0.0,0,21,0.0,16431,231061927025449,316,28.777000427246094,-437.0075612447965,0.14999,16,0.0,0.0,1575420030,,,,0,15.027022686883264,1,6.0,28.777000427246094,0.0,0.0,0.0,66.7128,I,1670714041000000
Raw,1711469444000,89448000000,18,51.13902427841254,-1395504572552000000,0.0,51.13902427841254,-264.78125392088907,0.0,0,8,0.0,16431,231061931172406,58,33.507999420166016,-339.44177448877997,0.14999,16,0.0,0.0,1575420030,,,,0,20.6691675460916,1,6.0,33.507999420166016,0.0,0.0,0.0,66.7128,I,1670714041000000
Raw,1711469444000,89448000000,18,51.13902427841254,-1395504572552000000,0.0,51.13902427841254,-264.78125392088907,0.0,0,23,0.0,16431,231061924764331,235,28.79400062561035,431.2947556370515,0.14999,16,0.0,0.0,1575420030,,,,0,15.04943789838918,1,6.0,28.79400062561035,0.0,0.0,0.0,66.7128,I,1670714041000000
Raw,1711469444000,89448000000,18,51.13902427841254,-1395504572552000000,0.0,51.13902427841254,-264.78125392088907,0.0,0,27,0.0,16431,231061932205263,42,40.108001708984375,128.75559802054522,0.14999,16,0.0,0.0,1575420030,,,,0,27.912383923135117,1,6.0,40.108001708984375,0.0,0.0,0.0,66.7128,I,1670714041000000
Raw,1711469444000,89448000000,18,51.13902427841254,-1395504572552000000,0.0,51.13902427841254,-264.78125392088907,0.0,0,13,0.0,16905,231047867401550,797,18.700000762939453,132.45574951171875,0.14999,16,0.0,0.0,1561097980,,,,0,2.0439676086439174,5,6.0,18.700000762939453,0.0,0.0,186.1974733152975,66.7128,I,1670714041000000
Raw,1711469444000,89448000000,18,51.13902427841254,-1395504572552000000,0.0,51.13902427841254,-264.78125392088907,0.0,0,32,0.0,16431,231061918460712,487,22.506000518798828,-611.6291377523632,0.14999,16,0.0,0.0,1575420030,,,,0,5.141237089749737,1,6.0,22.506000518798828,0.0,0.0,0.0,66.7128,I,1670714041000000
Raw,1711469444000,89448000000,18,51.13902427841254,-1395504572552000000,0.0,51.13902427841254,-264.78125392088907,0.0,0,29,0.0,16431,231047927450482,74,30.0,-245.3435821533203,0.14999,16,0.0,0.0,1561097980,,,,0,16.93616965154578,5,6.0,30.0,0.0,0.0,186.1974733152975,66.7128,I,1670714041000000
Raw,1711469444000,89448000000,18,51.13902427841254,-1395504572552000000,0.0,51.13902427841254,-264.78125392088907,0.0,0,30,0.0,16431,231061918494630,235,27.100000381469727,31.667682533670273,0.14999,16,0.0,0.0,1575420030,,,,0,13.669363262019411,6,6.0,27.100000381469727,0.0,0.0,-5.547100016501951,66.7128,I,1670714041000000
Raw,1711469444000,89448000000,18,51.13902427841254,-1395504572552000000,0.0,51.13902427841254,-264.78125392088907,0.0,0,32,0.0,16905,231047921548224,58,33.5,25.055925369262695,0.14999,16,0.0,0.0,1561097980,,,,0,20.837050561220636,5,6.0,33.5,0.0,0.0,186.1974733152975,66.7128,I,1670714041000000
Raw,1711469444000,89448000000,18,51.13902427841254,-1395504572552000000,0.0,51.13902427841254,-264.78125392088907,0.0,0,2,0.0,16431,231061921318653,42,40.612998962402344,-547.9282843246943,0.14999,16,0.0,0.0,1575420030,,,,0,28.45033597394766,1,6.0,40.612998962402344,0.0,0.0,0.0,66.7128,I,1670714041000000
Raw,1711469444000,89448000000,18,51.13902427841254,-1395504572552000000,0.0,51.13902427841254,-264.78125392088907,0.0,0,30,0.0,16905,231047923229081,58,34.78499984741211,275.17376708984375,0.14999,16,0.0,0.0,1561097980,,,,0,19.837571061983862,5,6.0,34.78499984741211,0.0,0.0,186.1974733152975,66.7128,I,1670714041000000
Raw,1711469444000,89448000000,18,51.13902427841254,-1395504572552000000,0.0,51.13902427841254,-264.78125392088907,0.0,0,10,0.0,16431,231061930214546,31,43.52799987792969,22.847366382434735,0.14999,16,0.0,0.0,1575420030,,,,0,31.51529150997138,1,6.0,43.52799987792969,0.0,0.0,0.0,66.7128,I,1670714041000000
Raw,1711469444000,89448000000,18,51.13902427841254,-1395504572552000000,0.0,51.13902427841254,-264.78125392088907,0.0,0,34,0.0,16431,231061921185747,235,26.299999237060547,-196.87650516648466,0.14999,16,0.0,0.0,1575420030,,,,0,12.727932372849281,6,6.0,26.299999237060547,0.0,0.0,-5.547100016501951,66.7128,I,1670714041000000
Raw,1711469444000,89448000000,18,51.13902427841254,-1395504572552000000,0.0,51.13902427841254,-264.78125392088907,0.0,0,15,0.0,17,908920,316,5.0,713.0414547718623,0.14999,16,0.0,0.0,1602000000,,,,0,9.633566949684703,3,6.0,24.0,0.0,0.0,122.58565186969874,66.7128,I,1670714041000000
Raw,1711469444000,89448000000,18,51.13902427841254,-1395504572552000000,0.0,51.13902427841254,-264.78125392088907,0.0,0,3,0.0,17,227460,316,5.0,-860.8802488630876,0.14999,16,0.0,0.0,1604812540,,,,0,11.889913788901431,3,6.0,25.0,0.0,0.0,122.58565186969874,66.7128,I,1670714041000000
Raw,1711469444000,89448000000,18,51.13902427841254,-1395504572552000000,0.0,51.13902427841254,-264.78125392088907,0.0,0,19,0.0,32995,69043923196888,487,5.0,-633.0897047196689,0.14999,16,0.0,0.0,1603687550,,,,0,6.370292828971824,3,6.0,18.0,0.0,0.0,122.58565186969874,66.7128,I,1670714041000000
Raw,1711469444000,89448000000,18,51.13902427841254,-1395504572552000000,0.0,51.13902427841254,-264.78125392088907,0.0,0,2,0.0,32995,69043930908631,58,5.0,-324.41873306524684,0.14999,16,0.0,0.0,1599750020,,,,0,20.42730522080703,3,6.0,33.0,0.0,0.0,122.58565186969874,66.7128,I,1670714041000000
Raw,1711469444000,89448000000,18,51.13902427841254,-1395504572552000000,0.0,51.13902427841254,-264.78125392088907,0.0,0,1,0.0,17,646309,316,23.899999618530273,402.47485138361014,0.14999,16,0.0,0.0,1602562560,,,,0,10.105450102066122,3,6.0,23.899999618530273,0.0,0.0,122.58565186969874,66.7128,I,1670714041000000
Raw,1711469444000,89448000000,18,51.13902427841254,-1395504572552000000,0.0,51.13902427841254,-264.78125392088907,0.0,0,16,0.0,32995,69043929214388,51,5.0,261.4551733074809,0.14999,16,0.0,0.0,1601437440,,,,0,24.356306332571975,3,6.0,37.0,0.0,0.0,122.58565186969874,66.7128,I,1670714041000000
Raw,1711469444000,89448000000,18,51.13902427841254,-1395504572552000000,0.0,51.13902427841254,-264.78125392088907,0.0,0,9,0.0,32995,69043924307978,316,5.0,-456.3309358499874,0.14999,16,0.0,0.0,1600875010,,,,0,9.741774323461865,3,6.0,24.0,0.0,0.0,122.58565186969874,66.7128,I,1670714041000000
Raw,1711469444000,89448000000,18,51.13902427841254,-1395504572552000000,0.0,51.13902427841254,-264.78125392088907,0.0,0,18,0.0,32995,69043932854690,58,5.0,-345.438947809422,0.14999,16,0.0,0.0,1600312450,,,,0,20.188912846809984,3,6.0,33.0,0.0,0.0,122.58565186969874,66.7128,I,1670714041000000
Raw,1711469444000,89448000000,18,51.13902427841254,-1395504572552000000,0.0,51.13902427841254,-264.78125392088907,0.0,0,26,0.0,16905,231047914958235,396,19.87700080871582,-77.08528900146484,0.14999,16,0.0,0.0,1561097980,,,,0,6.527766917269094,5,6.0,19.87700080871582,0.0,0.0,186.1974733152975,66.7128,I,1670714041000000
Raw,1711469444000,89448000000,18,51.13902427841254,-1395504572552000000,0.0,51.13902427841254,-264.78125392088907,0.0,0,16,0.0,16431,231061922962957,235,28.354000091552734,591.2982844008047,0.14999,16,0.0,0.0,1575420030,,,,0,14.494831059486156,1,6.0,28.354000091552734,0.0,0.0,0.0,66.7128,I,1670714041000000
Raw,1711469444000,89448000000,18,51.13902427841254,-1395504572552000000,0.0,51.13902427841254,-264.78125392088907,0.0,0,20,0.0,16905,231047921589082,316,28.100000381469727,-577.5504760742188,0.14999,16,0.0,0.0,1561097980,,,,0,14.789433862121834,5,6.0,28.100000381469727,0.0,0.0,186.1974733152975,66.7128,I,1670714041000000
Fix,FLP,45.0084342000,7.6874148000,290.6000061035156,0.27978417,4.528,314.50595,1711469444010,0.2568528,45.0,1670714106599155,5.2112308,0,,,
Fix,FLP,45.0084328000,7.6874137000,290.6000061035156,0.2221212,4.483,354.64096,1711469444866,0.19451986,45.0,1670714963036459,5.2112308,0,,,
Status,1711469444000,48,0,1,27,1575420030,45.20,117.0,76.0,1,0,0,40.2
Status,1711469444000,48,1,1,10,1575420030,46.00,83.0,65.0,1,0,0,41.0
Status,1711469444000,48,2,1,8,1575420030,38.50,305.0,63.0,1,0,0,33.5
Status,1711469444000,48,3,1,21,1575420030,41.30,271.0,38.0,1,0,0,36.3
Status,1711469444000,48,4,2,123,1575420030,33.00,158.0,35.0,0,0,0,28.0
Status,1711469444000,48,5,1,23,1575420030,30.60,49.0,33.0,1,0,0,25.6
Status,1711469444000,48,6,1,16,1575420030,36.30,188.0,31.0,1,0,0,31.3
Status,1711469444000,48,7,1,2,1575420030,37.50,266.0,23.0,1,0,0,32.5
Status,1711469444000,48,8,1,32,1575420030,27.50,125.0,15.0,1,0,0,22.5
Status,1711469444000,48,9,1,26,1575420030,0.00,175.0,4.0,0,0,0,0.0
Status,1711469444000,48,10,1,18,1575420030,0.00,72.0,3.0,0,0,0,0.0
Status,1711469444000,48,11,1,7,1575420030,0.00,287.0,2.0,0,0,0,0.0
Status,1711469444000,48,12,1,30,1575420030,0.00,315.0,1.0,0,0,0,0.0
Status,1711469444000,48,13,3,17,1602000000,0.00,51.0,53.0,0,0,0,0.0
Status,1711469444000,48,14,3,18,1602000000,39.60,317.0,52.0,1,0,0,34.6
Status,1711469444000,48,15,3,2,1602000000,42.20,93.0,44.0,1,0,0,37.2
Status,1711469444000,48,16,3,16,1602000000,30.50,268.0,36.0,1,0,0,25.5
Status,1711469444000,48,17,3,1,1602000000,29.30,34.0,24.0,1,0,0,24.3
Status,1711469444000,48,18,3,3,1602000000,30.70,152.0,22.0,1,0,0,25.7
Status,1711469444000,48,19,3,9,1602000000,31.50,327.0,19.0,1,0,0,26.5
Status,1711469444000,48,20,3,19,1602000000,26.40,284.0,16.0,1,0,0,21.4
Status,1711469444000,48,21,3,15,1602000000,23.60,214.0,15.0,1,0,0,18.6
Status,1711469444000,48,22,3,24,1602000000,0.00,85.0,8.0,0,0,0,0.0
Status,1711469444000,48,23,6,34,1575420030,40.50,290.0,68.0,1,0,0,35.5
Status,1711469444000,48,24,6,30,1575420030,32.20,263.0,51.0,1,0,0,27.2
Status,1711469444000,48,25,6,36,1575420030,0.00,57.0,49.0,0,0,0,0.0
Status,1711469444000,48,26,6,2,1575420030,0.00,193.0,32.0,0,0,0,0.0
Status,1711469444000,48,27,6,9,1575420030,0.00,84.0,21.0,0,0,0,0.0
Status,1711469444000,48,28,6,27,1575420030,0.00,319.0,20.0,0,0,0,0.0
Status,1711469444000,48,29,6,15,1575420030,0.00,260.0,19.0,0,0,0,0.0
Status,1711469444000,48,30,6,5,1575420030,0.00,136.0,11.0,0,0,0,0.0
Status,1711469444000,48,31,6,4,1575420030,0.00,36.0,10.0,0,0,0,0.0
Status,1711469444000,48,32,6,11,1575420030,0.00,71.0,3.0,0,0,0,0.0
Status,1711469444000,48,33,5,29,1561097980,35.10,316.0,70.0,1,0,0,30.099998
Status,1711469444000,48,34,5,30,1561097980,34.80,91.0,46.0,1,0,0,29.8
Status,1711469444000,48,35,5,32,1561097980,47.10,70.0,41.0,1,0,0,42.1
Status,1711469444000,48,36,5,20,1561097980,33.10,148.0,38.0,1,0,0,28.099998
Status,1711469444000,48,37,5,45,1561097980,0.00,249.0,22.0,0,0,0,0.0
Status,1711469444000,48,38,5,5,1561097980,0.00,119.0,19.0,0,0,0,0.0
Status,1711469444000,48,39,5,13,1561097980,22.70,43.0,18.0,1,0,0,17.7
Status,1711469444000,48,40,5,26,1561097980,25.00,305.0,17.0,1,0,0,20.0
Status,1711469444000,48,41,5,56,1561097980,0.00,57.0,8.0,0,0,0,0.0
Status,1711469444000,48,42,5,19,1561097980,0.00,184.0,5.0,0,0,0,0.0
Status,1711469444000,48,43,5,41,1561097980,0.00,29.0,5.0,0,0,0,0.0
Status,1711469444000,48,44,5,60,1561097980,0.00,101.0,5.0,0,0,0,0.0
Status,1711469444000,48,45,5,8,1561097980,0.00,39.0,4.0,0,0,0,0.0
Status,1711469444000,48,46,5,36,1561097980,0.00,204.0,3.0,0,0,0,0.0
Status,1711469444000,48,47,5,2,1561097980,0.00,98.0,2.0,0,0,0,0.0
Fix,GPS,45.0084016667,7.6873900000,288.6,0.0,1.8,212.75,1711469445000,0.9,174.6,1670715041000000,20.3,0,,,
Raw,1711469445000,90448000000,18,52.23632448484337,-1395504572552000000,0.0,52.23632448484337,-273.47506052584293,0.0,0,21,0.0,16431,231062927026907,51,36.29100036621094,-439.5326690826717,0.14999,16,0.0,0.0,1575420030,,,,0,23.787111064531846,1,6.0,36.29100036621094,0.0,0.0,0.0,66.7128,I,1670715041000000
Raw,1711469445000,90448000000,18,52.23632448484337,-1395504572552000000,0.0,52.23632448484337,-273.47506052584293,0.0,0,8,0.0,16431,231062931173543,58,33.48099899291992,-341.8092721496609,0.14999,16,0.0,0.0,1575420030,,,,0,20.049785201250142,1,6.0,33.48099899291992,0.0,0.0,0.0,66.7128,I,1670715041000000
Raw,1711469445000,90448000000,18,52.23632448484337,-1395504572552000000,0.0,52.23632448484337,-273.47506052584293,0.0,0,23,0.0,16431,231062924762894,396,25.649999618530273,429.6673637756125,0.14999,16,0.0,0.0,1575420030,,,,0,10.913144238002403,1,6.0,25.649999618530273,0.0,0.0,0.0,66.7128,I,1670715041000000
Raw,1711469445000,90448000000,18,52.23632448484337,-1395504572552000000,0.0,52.23632448484337,-273.47506052584293,0.0,0,27,0.0,16431,231062932204841,31,40.22700119018555,125.99650236942566,0.14999,16,0.0,0.0,1575420030,,,,0,30.44292161630974,1,6.0,40.22700119018555,0.0,0.0,0.0,66.7128,I,1670715041000000
Raw,1711469445000,90448000000,18,52.23632448484337,-1395504572552000000,0.0,52.23632448484337,-273.47506052584293,0.0,0,13,0.0,16905,231048867401105,797,17.700000762939453,130.57347106933594,0.14999,16,0.0,0.0,1561097980,,,,0,0.3659299142397341,5,6.0,17.700000762939453,0.0,0.0,186.09715057906797,66.7128,I,1670715041000000
Raw,1711469445000,90448000000,18,52.23632448484337,-1395504572552000000,0.0,52.23632448484337,-273.47506052584293,0.0,0,32,0.0,16431,231062918462703,396,22.523000717163086,-613.4667074887386,0.14999,16,0.0,0.0,1575420030,,,,0,6.852342332368424,1,6.0,22.523000717163086,0.0,0.0,0.0,66.7128,I,1670715041000000
Raw,1711469445000,90448000000,18,52.23632448484337,-1395504572552000000,0.0,52.23632448484337,-273.47506052584293,0.0,0,29,0.0,16431,231048927451301,235,30.065000534057617,-248.2361297607422,0.14999,16,0.0,0.0,1561097980,,,,0,18.427729654078604,5,6.0,30.065000534057617,0.0,0.0,186.09715057906797,66.7128,I,1670715041000000
Raw,1711469445000,90448000000,18,52.23632448484337,-1395504572552000000,0.0,52.23632448484337,-273.47506052584293,0.0,0,30,0.0,16431,231062918494525,235,27.200000762939453,29.639099019045222,0.14999,16,0.0,0.0,1575420030,,,,0,13.747732722736325,6,6.0,27.200000762939453,0.0,0.0,-5.57530758646231,66.7128,I,1670715041000000
Raw,1711469445000,90448000000,18,52.23632448484337,-1395504572552000000,0.0,52.23632448484337,-273.47506052584293,0.0,0,32,0.0,16905,231048921548144,31,42.099998474121094,22.640417098999023,0.14999,16,0.0,0.0,1561097980,,,,0,29.82249708084028,5,6.0,42.099998474121094,0.0,0.0,186.09715057906797,66.7128,I,1670715041000000
Raw,1711469445000,90448000000,18,52.23632448484337,-1395504572552000000,0.0,52.23632448484337,-273.47506052584293,0.0,0,2,0.0,16431,231062921320487,74,32.452999114990234,-551.026317351278,0.14999,16,0.0,0.0,1575420030,,,,0,19.45052073370128,1,6.0,32.452999114990234,0.0,0.0,0.0,66.7128,I,1670715041000000
Raw,1711469445000,90448000000,18,52.23632448484337,-1395504572552000000,0.0,52.23632448484337,-273.47506052584293,0.0,0,30,0.0,16905,231048923228172,74,29.799999237060547,272.00048828125,0.14999,16,0.0,0.0,1561097980,,,,0,16.722220666428036,5,6.0,29.799999237060547,0.0,0.0,186.09715057906797,66.7128,I,1670715041000000
Raw,1711469445000,90448000000,18,52.23632448484337,-1395504572552000000,0.0,52.23632448484337,-273.47506052584293,0.0,0,10,0.0,16431,231062930214484,42,40.974998474121094,20.200398118839317,0.14999,16,0.0,0.0,1575420030,,,,0,28.834150004278285,1,6.0,40.974998474121094,0.0,0.0,0.0,66.7128,I,1670715041000000
Raw,1711469445000,90448000000,18,52.23632448484337,-1395504572552000000,0.0,52.23632448484337,-273.47506052584293,0.0,0,34,0.0,16431,231062921186406,51,35.5,-199.18446636699178,0.14999,16,0.0,0.0,1575420030,,,,0,22.92727113987594,6,6.0,35.5,0.0,0.0,-5.57530758646231,66.7128,I,1670715041000000
Raw,1711469445000,90448000000,18,52.23632448484337,-1395504572552000000,0.0,52.23632448484337,-273.47506052584293,0.0,0,15,0.0,17,906550,487,5.0,709.5387700502149,0.14999,16,0.0,0.0,1602000000,,,,0,1.9615554741221306,3,6.0,19.0,0.0,0.0,122.55623208364699,66.7128,I,1670715041000000
Raw,1711469445000,90448000000,18,52.23632448484337,-1395504572552000000,0.0,52.23632448484337,-273.47506052584293,0.0,0,3,0.0,17,230337,316,5.0,-863.3788112345484,0.14999,16,0.0,0.0,1604812540,,,,0,12.29398151066717,3,6.0,25.0,0.0,0.0,122.55623208364699,66.7128,I,1670715041000000
Raw,1711469445000,90448000000,18,52.23632448484337,-1395504572552000000,0.0,52.23632448484337,-273.47506052584293,0.0,0,19,0.0,32995,69044923199036,396,5.0,-635.6961773627322,0.14999,16,0.0,0.0,1603687550,,,,0,6.463690391641528,3,6.0,22.0,0.0,0.0,122.55623208364699,66.7128,I,1670715041000000
Raw,1711469445000,90448000000,18,52.23632448484337,-1395504572552000000,0.0,52.23632448484337,-273.47506052584293,0.0,0,2,0.0,32995,69044930909722,51,5.0,-327.2799849812312,0.14999,16,0.0,0.0,1599750020,,,,0,24.792882611728917,3,6.0,37.0,0.0,0.0,122.55623208364699,66.7128,I,1670715041000000
Raw,1711469445000,90448000000,18,52.23632448484337,-1395504572552000000,0.0,52.23632448484337,-273.47506052584293,0.0,0,1,0.0,17,644972,316,26.5,400.6143293312901,0.14999,16,0.0,0.0,1602562560,,,,0,11.444385894678387,3,6.0,26.5,0.0,0.0,122.55623208364699,66.7128,I,1670715041000000
Raw,1711469445000,90448000000,18,52.23632448484337,-1395504572552000000,0.0,52.23632448484337,-273.47506052584293,0.0,0,16,0.0,32995,69044929213517,316,5.0,259.230823001725,0.14999,16,0.0,0.0,1601437440,,,,0,11.715842038463862,3,6.0,25.0,0.0,0.0,122.55623208364699,66.7128,I,1670715041000000
Raw,1711469445000,90448000000,18,52.23632448484337,-1395504572552000000,0.0,52.23632448484337,-273.47506052584293,0.0,0,9,0.0,32995,69044924309501,316,5.0,-458.27955500607914,0.14999,16,0.0,0.0,1600875010,,,,0,12.916839272326918,3,6.0,24.0,0.0,0.0,122.55623208364699,66.7128,I,1670715041000000
Raw,1711469445000,90448000000,18,52.23632448484337,-1395504572552000000,0.0,52.23632448484337,-273.47506052584293,0.0,0,18,0.0,32995,69044932855851,58,5.0,-348.03223434667166,0.14999,16,0.0,0.0,1600312450,,,,0,22.06823758976598,3,6.0,35.0,0.0,0.0,122.55623208364699,66.7128,I,1670715041000000
Raw,1711469445000,90448000000,18,52.23632448484337,-1395504572552000000,0.0,52.23632448484337,-273.47506052584293,0.0,0,26,0.0,16905,231048914958498,316,19.96299934387207,-79.1867446899414,0.14999,16,0.0,0.0,1561097980,,,,0,6.527766917269094,5,6.0,19.96299934387207,0.0,0.0,186.09715057906797,66.7128,I,1670715041000000
Raw,1711469445000,90448000000,18,52.23632448484337,-1395504572552000000,0.0,52.23632448484337,-273.47506052584293,0.0,0,16,0.0,16431,231062922960991,74,31.309999465942383,589.2227546565989,0.14999,16,0.0,0.0,1575420030,,,,0,18.111584941089014,1,6.0,31.309999465942383,0.0,0.0,0.0,66.7128,I,1670715041000000
Raw,1711469445000,90448000000,18,52.23632448484337,-1395504572552000000,0.0,52.23632448484337,-273.47506052584293,0.0,0,20,0.0,16905,231048921591012,235,28.125,-578.754638671875,0.14999,16,0.0,0.0,1561097980,,,,0,15.415715115489876,5,6.0,28.125,0.0,0.0,186.09715057906797,66.7128,I,1670715041000000
Fix,NLP,45.0084197000,7.6873506000,290.6000061035156,,20.903,,1711469445663,,,1670715759000000,1.0,0,,,
Fix,FLP,45.0084312000,7.6874123000,290.6000061035156,0.17759731,4.329,20.830084,1711469445663,0.17917642,45.0,1670715759000000,1.0,0,,,
Status,1711469445000,48,0,1,27,1575420030,49.60,117.0,76.0,1,0,0,44.6
Status,1711469445000,48,1,1,10,1575420030,46.00,83.0,65.0,1,0,0,41.0
Status,1711469445000,48,2,1,8,1575420030,44.50,305.0,63.0,1,0,0,39.5
Status,1711469445000,48,3,1,21,1575420030,32.80,271.0,38.0,1,0,0,27.8
Status,1711469445000,48,4,2,123,1575420030,32.00,158.0,35.0,0,0,0,27.0
Status,1711469445000,48,5,1,23,1575420030,30.40,49.0,33.0,1,0,0,25.4
Status,1711469445000,48,6,1,16,1575420030,34.30,188.0,31.0,1,0,0,29.3
Status,1711469445000,48,7,1,2,1575420030,29.70,266.0,23.0,1,0,0,24.7
Status,1711469445000,48,8,1,32,1575420030,27.40,125.0,15.0,1,0,0,22.4
Status,1711469445000,48,9,1,26,1575420030,0.00,175.0,4.0,0,0,0,0.0
Status,1711469445000,48,10,1,18,1575420030,0.00,72.0,3.0,0,0,0,0.0
Status,1711469445000,48,11,1,7,1575420030,0.00,287.0,2.0,0,0,0,0.0
Status,1711469445000,48,12,1,30,1575420030,0.00,315.0,1.0,0,0,0,0.0
Status,1711469445000,48,13,3,17,1602000000,30.60,51.0,53.0,1,0,0,25.6
Status,1711469445000,48,14,3,18,1602000000,44.50,317.0,52.0,1,0,0,39.5
Status,1711469445000,48,15,3,2,1602000000,36.30,93.0,44.0,1,0,0,31.3
Status,1711469445000,48,16,3,16,1602000000,38.80,268.0,36.0,1,0,0,33.8
Status,1711469445000,48,17,3,1,1602000000,29.20,34.0,24.0,1,0,0,24.2
Status,1711469445000,48,18,3,3,1602000000,29.70,152.0,22.0,1,0,0,24.7
Status,1711469445000,48,19,3,9,1602000000,30.30,327.0,19.0,1,0,0,25.3
Status,1711469445000,48,20,3,19,1602000000,26.40,285.0,17.0,1,0,0,21.4
Status,1711469445000,48,21,3,15,1602000000,26.90,214.0,15.0,1,0,0,21.9
Status,1711469445000,48,22,3,24,1602000000,0.00,85.0,8.0,0,0,0,0.0
Status,1711469445000,48,23,6,34,1575420030,30.60,290.0,68.0,1,0,0,25.6
Status,1711469445000,48,24,6,30,1575420030,29.50,263.0,51.0,1,0,0,24.5
Status,1711469445000,48,25,6,36,1575420030,0.00,57.0,49.0,0,0,0,0.0
Status,1711469445000,48,26,6,2,1575420030,0.00,193.0,32.0,0,0,0,0.0
Status,1711469445000,48,27,6,9,1575420030,0.00,84.0,21.0,0,0,0,0.0
Status,1711469445000,48,28,6,27,1575420030,0.00,319.0,20.0,0,0,0,0.0
Status,1711469445000,48,29,6,15,1575420030,0.00,260.0,19.0,0,0,0,0.0
Status,1711469445000,48,30,6,5,1575420030,0.00,136.0,11.0,0,0,0,0.0
Status,1711469445000,48,31,6,4,1575420030,0.00,36.0,10.0,0,0,0,0.0
Status,1711469445000,48,32,6,11,1575420030,0.00,71.0,3.0,0,0,0,0.0
Status,1711469445000,48,33,5,29,1561097980,41.90,316.0,70.0,1,0,0,36.9
Status,1711469445000,48,34,5,30,1561097980,34.80,91.0,46.0,1,0,0,29.8
Status,1711469445000,48,35,5,32,1561097980,47.00,70.0,41.0,1,0,0,42.0
Status,1711469445000,48,36,5,20,1561097980,33.10,148.0,38.0,1,0,0,28.099998
Status,1711469445000,48,37,5,45,1561097980,0.00,249.0,22.0,0,0,0,0.0
Status,1711469445000,48,38,5,5,1561097980,0.00,119.0,19.0,0,0,0,0.0
Status,1711469445000,48,39,5,13,1561097980,22.70,43.0,18.0,1,0,0,17.7
Status,1711469445000,48,40,5,26,1561097980,25.10,305.0,17.0,1,0,0,20.1
Status,1711469445000,48,41,5,56,1561097980,0.00,57.0,8.0,0,0,0,0.0
Status,1711469445000,48,42,5,19,1561097980,0.00,184.0,5.0,0,0,0,0.0
Status,1711469445000,48,43,5,41,1561097980,0.00,29.0,5.0,0,0,0,0.0
Status,1711469445000,48,44,5,60,1561097980,0.00,101.0,5.0,0,0,0,0.0
Status,1711469445000,48,45,5,8,1561097980,0.00,39.0,4.0,0,0,0,0.0
Status,1711469445000,48,46,5,36,1561097980,0.00,204.0,3.0,0,0,0,0.0
Status,1711469445000,48,47,5,2,1561097980,0.00,98.0,2.0,0,0,0,0.0
Fix,GPS,45.0084016667,7.6873900000,288.6,0.0,1.8,212.75,1711469446000,0.8,179.9,1670716041000000,20.8,0,,,
Fix,FLP,45.0084314000,7.6874123000,290.6000061035156,0.1974007,4.3,23.67494,1711469445970,0.20597361,45.0,1670716066556698,1.00282,0,,,
Raw,1711469446000,91448000000,18,53.81729733736187,-1395504572552000000,0.0,53.81729733736187,-271.1024804544572,0.0,0,21,0.0,16431,231063927028371,235,27.816999435424805,-438.78701150249253,0.14999,16,0.0,0.0,1575420030,,,,0,13.799588934301916,1,6.0,27.816999435424805,0.0,0.0,0.0,66.7128,I,1670716041000000
Raw,1711469446000,91448000000,18,53.81729733736187,-1395504572552000000,0.0,53.81729733736187,-271.1024804544572,0.0,0,8,0.0,16431,231063931174681,42,39.486000061035156,-340.90663158110635,0.14999,16,0.0,0.0,1575420030,,,,0,27.251440785149214,1,6.0,39.486000061035156,0.0,0.0,0.0,66.7128,I,1670716041000000
Raw,1711469446000,91448000000,18,53.81729733736187,-1395504572552000000,0.0,53.81729733736187,-271.1024804544572,0.0,0,23,0.0,16431,231063924761453,316,25.356000900268555,430.1254437594484,0.14999,16,0.0,0.0,1575420030,,,,0,10.507360106856893,1,6.0,25.356000900268555,0.0,0.0,0.0,66.7128,I,1670716041000000
Raw,1711469446000,91448000000,18,53.81729733736187,-1395504572552000000,0.0,53.81729733736187,-271.1024804544572,0.0,0,27,0.0,16431,231063932204418,28,44.55500030517578,127.18286448577796,0.14999,16,0.0,0.0,1575420030,,,,0,32.58343452597603,1,6.0,44.55500030517578,0.0,0.0,0.0,66.7128,I,1670716041000000
Raw,1711469446000,91448000000,18,53.81729733736187,-1395504572552000000,0.0,53.81729733736187,-271.1024804544572,0.0,0,13,0.0,16905,231049867400673,797,17.700000762939453,126.48369598388672,0.14999,16,0.0,0.0,1561097980,,,,0,0.3659299142397341,5,6.0,17.700000762939453,0.0,0.0,185.47521751846077,66.7128,I,1670716041000000
Raw,1711469446000,91448000000,18,53.81729733736187,-1395504572552000000,0.0,53.81729733736187,-271.1024804544572,0.0,0,32,0.0,16431,231063918464765,487,22.4060001373291,-613.4951864978757,0.14999,16,0.0,0.0,1575420030,,,,0,2.54855993341614,1,6.0,22.4060001373291,0.0,0.0,0.0,66.7128,I,1670716041000000
Raw,1711469446000,91448000000,18,53.81729733736187,-1395504572552000000,0.0,53.81729733736187,-271.1024804544572,0.0,0,29,0.0,16431,231049927452127,51,36.900001525878906,-247.15737915039062,0.14999,16,0.0,0.0,1561097980,,,,0,24.430512351596704,5,6.0,36.900001525878906,0.0,0.0,185.47521751846077,66.7128,I,1670716041000000
Raw,1711469446000,91448000000,18,53.81729733736187,-1395504572552000000,0.0,53.81729733736187,-271.1024804544572,0.0,0,30,0.0,16431,231063918494425,316,24.5,29.942553779128406,0.14999,16,0.0,0.0,1575420030,,,,0,10.431500326514112,6,6.0,24.5,0.0,0.0,-5.234024723381205,66.7128,I,1670716041000000
Raw,1711469446000,91448000000,18,53.81729733736187,-1395504572552000000,0.0,53.81729733736187,-271.1024804544572,0.0,0,32,0.0,16905,231049921548066,42,42.0099983215332,23.53939437866211,0.14999,16,0.0,0.0,1561097980,,,,0,28.02338815087701,5,6.0,42.0099983215332,0.0,0.0,185.47521751846077,66.7128,I,1670716041000000
Raw,1711469446000,91448000000,18,53.81729733736187,-1395504572552000000,0.0,53.81729733736187,-271.1024804544572,0.0,0,2,0.0,16431,231063921322327,316,24.70599937438965,-550.224212795403,0.14999,16,0.0,0.0,1575420030,,,,0,9.59221029564339,1,6.0,24.70599937438965,0.0,0.0,0.0,66.7128,I,1670716041000000
Raw,1711469446000,91448000000,18,53.81729733736187,-1395504572552000000,0.0,53.81729733736187,-271.1024804544572,0.0,0,30,0.0,16905,231049923227263,235,29.795000076293945,273.5141906738281,0.14999,16,0.0,0.0,1561097980,,,,0,16.61323693253464,5,6.0,29.795000076293945,0.0,0.0,185.47521751846077,66.7128,I,1670716041000000
Raw,1711469446000,91448000000,18,53.81729733736187,-1395504572552000000,0.0,53.81729733736187,-271.1024804544572,0.0,0,10,0.0,16431,231063930214410,42,40.95899963378906,21.124827684596607,0.14999,16,0.0,0.0,1575420030,,,,0,28.81581566578097,1,6.0,40.95899963378906,0.0,0.0,0.0,66.7128,I,1670716041000000
Raw,1711469446000,91448000000,18,53.81729733736187,-1395504572552000000,0.0,53.81729733736187,-271.1024804544572,0.0,0,34,0.0,16431,231063921187064,235,25.600000381469727,-198.98692518126458,0.14999,16,0.0,0.0,1575420030,,,,0,11.867848986553195,6,6.0,25.600000381469727,0.0,0.0,-5.234024723381205,66.7128,I,1670716041000000
Raw,1711469446000,91448000000,18,53.81729733736187,-1395504572552000000,0.0,53.81729733736187,-271.1024804544572,0.0,0,15,0.0,17,904188,396,5.0,709.7324854288676,0.14999,16,0.0,0.0,1602000000,,,,0,6.9804674464291105,3,6.0,22.0,0.0,0.0,122.24768450726944,66.7128,I,1670716041000000
Raw,1711469446000,91448000000,18,53.81729733736187,-1395504572552000000,0.0,53.81729733736187,-271.1024804544572,0.0,0,3,0.0,17,233218,316,5.0,-862.7967680652913,0.14999,16,0.0,0.0,1604812540,,,,0,10.670785270072916,3,6.0,26.0,0.0,0.0,122.24768450726944,66.7128,I,1670716041000000
Raw,1711469446000,91448000000,18,53.81729733736187,-1395504572552000000,0.0,53.81729733736187,-271.1024804544572,0.0,0,19,0.0,32995,69045923201175,396,5.0,-635.9790510703439,0.14999,16,0.0,0.0,1603687550,,,,0,7.261935482026634,3,6.0,22.0,0.0,0.0,122.24768450726944,66.7128,I,1670716041000000
Raw,1711469446000,91448000000,18,53.81729733736187,-1395504572552000000,0.0,53.81729733736187,-271.1024804544572,0.0,0,2,0.0,32995,69045930910813,74,5.0,-325.9013216840572,0.14999,16,0.0,0.0,1599750020,,,,0,18.433456164996315,3,6.0,31.0,0.0,0.0,122.24768450726944,66.7128,I,1670716041000000
Raw,1711469446000,91448000000,18,53.81729733736187,-1395504572552000000,0.0,53.81729733736187,-271.1024804544572,0.0,0,1,0.0,17,643633,316,25.299999237060547,401.2318543986593,0.14999,16,0.0,0.0,1602562560,,,,0,8.375840406283636,3,6.0,25.299999237060547,0.0,0.0,122.24768450726944,66.7128,I,1670716041000000
Raw,1711469446000,91448000000,18,53.81729733736187,-1395504572552000000,0.0,53.81729733736187,-271.1024804544572,0.0,0,17,0.0,32995,69045932839208,316,5.0,170.30597523299608,0.14999,16,0.0,0.0,1604249980,,,,0,11.76708637375587,3,6.0,26.0,0.0,0.0,122.24768450726944,66.7128,I,1670716041000000
Raw,1711469446000,91448000000,18,53.81729733736187,-1395504572552000000,0.0,53.81729733736187,-271.1024804544572,0.0,0,16,0.0,32995,69045929212649,58,5.0,259.50218834599804,0.14999,16,0.0,0.0,1601437440,,,,0,21.11389999275348,3,6.0,34.0,0.0,0.0,122.24768450726944,66.7128,I,1670716041000000
Raw,1711469446000,91448000000,18,53.81729733736187,-1395504572552000000,0.0,53.81729733736187,-271.1024804544572,0.0,0,9,0.0,32995,69045924311023,316,5.0,-457.1105481033291,0.14999,16,0.0,0.0,1600875010,,,,0,11.4738796059985,3,6.0,26.0,0.0,0.0,122.24768450726944,66.7128,I,1670716041000000
Raw,1711469446000,91448000000,18,53.81729733736187,-1395504572552000000,0.0,53.81729733736187,-271.1024804544572,0.0,0,18,0.0,32995,69045932857011,42,5.0,-347.2630044979022,0.14999,16,0.0,0.0,1600312450,,,,0,27.140206798247647,3,6.0,40.0,0.0,0.0,122.24768450726944,66.7128,I,1670716041000000
Raw,1711469446000,91448000000,18,53.81729733736187,-1395504572552000000,0.0,53.81729733736187,-271.1024804544572,0.0,0,26,0.0,16905,231049914958775,396,20.069000244140625,-78.07067108154297,0.14999,16,0.0,0.0,1561097980,,,,0,7.266008583924515,5,6.0,20.069000244140625,0.0,0.0,185.47521751846077,66.7128,I,1670716041000000
Raw,1711469446000,91448000000,18,53.81729733736187,-1395504572552000000,0.0,53.81729733736187,-271.1024804544572,0.0,0,16,0.0,16431,231063922959025,235,29.257999420166016,590.1770105255633,0.14999,16,0.0,0.0,1575420030,,,,0,15.633765320746889,1,6.0,29.257999420166016,0.0,0.0,0.0,66.7128,I,1670716041000000
Raw,1711469446000,91448000000,18,53.81729733736187,-1395504572552000000,0.0,53.81729733736187,-271.1024804544572,0.0,0,20,0.0,16905,231049921592942,487,28.06800079345703,-578.2627563476562,0.14999,16,0.0,0.0,1561097980,,,,0,13.508928595313364,5,6.0,28.06800079345703,0.0,0.0,185.47521751846077,66.7128,I,1670716041000000
Status,1711469446000,48,0,1,27,1575420030,46.40,117.0,76.0,1,0,0,41.4
Status,1711469446000,48,1,1,10,1575420030,44.90,83.0,65.0,1,0,0,39.9
Status,1711469446000,48,2,1,8,1575420030,45.40,305.0,63.0,1,0,0,40.4
Status,1711469446000,48,3,1,21,1575420030,33.80,271.0,38.0,1,0,0,28.8
Status,1711469446000,48,4,2,123,1575420030,33.00,158.0,35.0,0,0,0,28.0
Status,1711469446000,48,5,1,23,1575420030,30.70,49.0,33.0,1,0,0,25.7
Status,1711469446000,48,6,1,16,1575420030,40.40,188.0,31.0,1,0,0,35.4
Status,1711469446000,48,7,1,2,1575420030,34.60,266.0,23.0,1,0,0,29.599998
Status,1711469446000,48,8,1,32,1575420030,27.30,125.0,15.0,1,0,0,22.3
Status,1711469446000,48,9,1,26,1575420030,0.00,175.0,4.0,0,0,0,0.0
Status,1711469446000,48,10,1,18,1575420030,0.00,72.0,3.0,0,0,0,0.0
Status,1711469446000,48,11,1,7,1575420030,0.00,287.0,2.0,0,0,0,0.0
Status,1711469446000,48,12,1,30,1575420030,0.00,315.0,1.0,0,0,0,0.0
Status,1711469446000,48,13,3,17,1602000000,31.60,51.0,53.0,1,0,0,26.6
Status,1711469446000,48,14,3,18,1602000000,43.90,317.0,52.0,1,0,0,38.9
Status,1711469446000,48,15,3,2,1602000000,36.50,93.0,44.0,1,0,0,31.5
Status,1711469446000,48,16,3,16,1602000000,41.10,268.0,36.0,1,0,0,36.1
Status,1711469446000,48,17,3,1,1602000000,34.50,34.0,24.0,1,0,0,29.5
Status,1711469446000,48,18,3,3,1602000000,29.90,152.0,22.0,1,0,0,24.9
Status,1711469446000,48,19,3,9,1602000000,33.50,327.0,19.0,1,0,0,28.5
Status,1711469446000,48,20,3,19,1602000000,26.50,285.0,17.0,1,0,0,21.5
Status,1711469446000,48,21,3,15,1602000000,26.80,214.0,15.0,1,0,0,21.8
Status,1711469446000,48,22,3,24,1602000000,0.00,85.0,8.0,0,0,0,0.0
Status,1711469446000,48,23,6,34,1575420030,41.50,290.0,68.0,1,0,0,36.5
Status,1711469446000,48,24,6,30,1575420030,33.00,263.0,51.0,1,0,0,28.0
Status,1711469446000,48,25,6,36,1575420030,0.00,57.0,49.0,0,0,0,0.0
Status,1711469446000,48,26,6,2,1575420030,0.00,193.0,32.0,0,0,0,0.0
Status,1711469446000,48,27,6,9,1575420030,0.00,84.0,21.0,0,0,0,0.0
Status,1711469446000,48,28,6,27,1575420030,0.00,319.0,20.0,0,0,0,0.0
Status,1711469446000,48,29,6,15,1575420030,0.00,260.0,19.0,0,0,0,0.0
Status,1711469446000,48,30,6,5,1575420030,0.00,136.0,11.0,0,0,0,0.0
Status,1711469446000,48,31,6,4,1575420030,0.00,36.0,10.0,0,0,0,0.0
Status,1711469446000,48,32,6,11,1575420030,0.00,71.0,3.0,0,0,0,0.0
Status,1711469446000,48,33,5,29,1561097980,37.80,316.0,70.0,1,0,0,32.8
Status,1711469446000,48,34,5,30,1561097980,34.80,91.0,46.0,1,0,0,29.8
Status,1711469446000,48,35,5,32,1561097980,44.20,70.0,41.0,1,0,0,39.2
Status,1711469446000,48,36,5,20,1561097980,33.00,148.0,38.0,1,0,0,28.0
Status,1711469446000,48,37,5,45,1561097980,0.00,249.0,22.0,0,0,0,0.0
Status,1711469446000,48,38,5,5,1561097980,0.00,119.0,19.0,0,0,0,0.0
Status,1711469446000,48,39,5,13,1561097980,22.70,43.0,18.0,1,0,0,17.7
