# 
# Header Description:
# 
# Version: v3.0.6.4 Platform: 13 Manufacturer: samsung Model: SM-A715F
# 
# Raw,utcTimeMillis,TimeNanos,LeapSecond,TimeUncertaintyNanos,FullBiasNanos,BiasNanos,BiasUncertaintyNanos,DriftNanosPerSecond,DriftUncertaintyNanosPerSecond,HardwareClockDiscontinuityCount,Svid,TimeOffsetNanos,State,ReceivedSvTimeNanos,ReceivedSvTimeUncertaintyNanos,Cn0DbHz,PseudorangeRateMetersPerSecond,PseudorangeRateUncertaintyMetersPerSecond,AccumulatedDeltaRangeState,AccumulatedDeltaRangeMeters,AccumulatedDeltaRangeUncertaintyMeters,CarrierFrequencyHz,CarrierCycles,CarrierPhase,CarrierPhaseUncertainty,MultipathIndicator,SnrInDb,ConstellationType,AgcDb,BasebandCn0DbHz,FullInterSignalBiasNanos,FullInterSignalBiasUncertaintyNanos,SatelliteInterSignalBiasNanos,SatelliteInterSignalBiasUncertaintyNanos,CodeType,ChipsetElapsedRealtimeNanos
# 
# UncalAccel,utcTimeMillis,elapsedRealtimeNanos,UncalAccelXMps2,UncalAccelYMps2,UncalAccelZMps2,BiasXMps2,BiasYMps2,BiasZMps2
# 
# Accel,utcTimeMillis,elapsedRealtimeNanos,AccelXMps2,AccelYMps2,AccelZMps2
# 
# UncalGyro,utcTimeMillis,elapsedRealtimeNanos,UncalGyroXRadPerSec,UncalGyroYRadPerSec,UncalGyroZRadPerSec,DriftXRadPerSec,DriftYRadPerSec,DriftZRadPerSec
# 
# Gyro,utcTimeMillis,elapsedRealtimeNanos,GyroXRadPerSec,GyroYRadPerSec,GyroZRadPerSec
# 
# UncalMag,utcTimeMillis,elapsedRealtimeNanos,UncalMagXMicroT,UncalMagYMicroT,UncalMagZMicroT,BiasXMicroT,BiasYMicroT,BiasZMicroT
# 
# Mag,utcTimeMillis,elapsedRealtimeNanos,MagXMicroT,MagYMicroT,MagZMicroT
# 
# OrientationDeg,utcTimeMillis,elapsedRealtimeNanos,yawDeg,rollDeg,pitchDeg
# 
# Fix,Provider,LatitudeDegrees,LongitudeDegrees,AltitudeMeters,SpeedMps,AccuracyMeters,BearingDegrees,UnixTimeMillis,SpeedAccuracyMps,BearingAccuracyDegrees,elapsedRealtimeNanos,VerticalAccuracyMeters,MockLocation,NumberOfUsedSignals,VerticalSpeedAccuracyMps,SolutionType
# 
# Nav,Svid,Type,Status,MessageId,Sub-messageId,Data(Bytes)
# 
# Status,UnixTimeMillis,SignalCount,SignalIndex,ConstellationType,Svid,CarrierFrequencyHz,Cn0DbHz,AzimuthDegrees,ElevationDegrees,UsedInFix,HasAlmanacData,HasEphemerisData,BasebandCn0DbHz
# 
# Agc,utcTimeMillis,TimeNanos,LeapSecond,TimeUncertaintyNanos,FullBiasNanos,BiasNanos,BiasUncertaintyNanos,DriftNanosPerSecond,DriftUncertaintyNanosPerSecond,HardwareClockDiscontinuityCount,AgcDb,CarrierFrequencyHz,ConstellationType
# 
Fix,FLP,36.6351834000,29.0834811000,236.70025634765625,0.17304675,3.881,70.44985,1712569474476,0.086023256,45.0,5947142859814,3.0,0,,,
Status,,30,0,1,5,1575420030,26.70,115.0,20.0,1,1,1,21.7
Status,,30,1,1,11,1575420030,37.30,43.0,26.0,1,1,1,32.3
Status,,30,2,1,12,1575420030,46.00,102.0,47.0,1,1,1,41.0
Status,,30,3,1,18,1575420030,37.40,202.0,23.0,1,1,1,32.4
Status,,30,4,1,20,1575420030,27.10,78.0,24.0,0,1,1,22.1
Status,,30,5,1,25,1575420030,40.50,63.0,77.0,1,1,1,35.5
Status,,30,6,1,28,1575420030,27.00,293.0,39.0,1,1,1,22.0
Status,,30,7,1,29,1575420030,35.90,298.0,63.0,1,1,1,30.9
Status,,30,8,1,31,1575420030,40.90,314.0,18.0,1,1,1,35.9
Status,,30,9,3,10,1602000000,33.40,330.0,54.0,0,1,0,28.4
Status,,30,10,3,9,1602000000,25.90,129.0,74.0,1,1,0,20.9
Status,,30,11,3,16,1602000000,34.20,140.0,18.0,1,1,1,29.2
Status,,30,12,3,20,1602000000,22.20,237.0,65.0,0,1,0,17.2
Status,,30,13,3,19,1602000000,21.30,26.0,42.0,0,1,0,16.3
Status,,30,14,5,2,1561097980,34.30,112.0,18.0,1,1,0,29.3
Status,,30,15,5,5,1561097980,34.80,136.0,35.0,1,1,0,29.8
Status,,30,16,5,8,1561097980,32.50,68.0,35.0,0,1,0,27.5
Status,,30,17,5,10,1561097980,28.60,84.0,15.0,1,1,0,23.6
Status,,30,18,5,13,1561097980,40.00,85.0,38.0,1,1,1,35.0
Status,,30,19,5,27,1561097980,33.90,36.0,61.0,0,1,0,28.9
Status,,30,20,5,28,1561097980,26.80,49.0,16.0,0,1,0,21.8
Status,,30,21,5,30,1561097980,37.10,248.0,59.0,1,1,1,32.1
Status,,30,22,2,136,1575420030,36.90,0.0,0.0,0,0,0,31.9
Status,,30,23,6,2,1575420030,36.40,310.0,34.0,1,1,0,31.4
Status,,30,24,6,10,1575420030,46.20,49.0,45.0,1,1,0,41.2
Status,,30,25,6,11,1575420030,29.40,85.0,70.0,0,1,0,24.4
Status,,30,26,6,12,1575420030,31.60,39.0,22.0,1,1,0,26.6
Status,,30,27,6,24,1575420030,44.70,111.0,32.0,1,1,0,39.7
Status,,30,28,6,25,1575420030,38.20,32.0,76.0,1,1,0,33.2
Status,,30,29,6,36,1575420030,41.60,192.0,45.0,1,1,0,36.6
Raw,1712569474440,6886805000000,18,,-1396597805635502047,0.7725448608398438,24.00571247562766,-8.098111438249028,10.688768634428321,106,10,0.0,49359,45874373457689,24,30.4,-459.4903259277344,0.6013000011444092,16,0.0,0.0,1598062460,,,,0,,3,0.61,27.4,,,,,,
Raw,1712569474440,6886805000000,18,,-1396597805635502047,0.7725448608398438,24.00571247562766,-8.098111438249028,10.688768634428321,106,16,0.0,49359,45874364627015,21,31.2,709.0043334960938,0.3172000050544739,16,0.0,0.0,1601437440,,,,0,,3,0.61,28.2,,,,,,
Raw,1712569474440,6886805000000,18,,-1396597805635502047,0.7725448608398438,24.00571247562766,-8.098111438249028,10.688768634428321,106,19,0.0,49359,45874370909961,142,18.3,586.737548828125,4.061500072479248,16,0.0,0.0,1603687550,,,,0,,3,0.61,15.3,,,,,,
Raw,1712569474440,6886805000000,18,,-1396597805635502047,0.7725448608398438,24.00571247562766,-8.098111438249028,10.688768634428321,106,5,0.0,81935,121492361845669,61,23.7,-473.1366882324219,1.0779999494552612,16,0.0,0.0,1575420030,,,,0,,1,1.88,20.7,,,,,,
Raw,1712569474440,6886805000000,18,,-1396597805635502047,0.7725448608398438,24.00571247562766,-8.098111438249028,10.688768634428321,106,11,0.0,81935,121492362548503,16,34.3,550.6692504882812,0.02969999983906746,16,0.0,0.0,1575420030,,,,0,,1,1.88,31.299999999999997,,,,,,
Raw,1712569474440,6886805000000,18,,-1396597805635502047,0.7725448608398438,24.00571247562766,-8.098111438249028,10.688768634428321,106,12,0.0,81935,121492368557852,6,43.0,374.35040283203125,0.03210000321269035,16,0.0,0.0,1575420030,,,,0,,1,1.88,40.0,,,,,,
Raw,1712569474440,6886805000000,18,,-1396597805635502047,0.7725448608398438,24.00571247562766,-8.098111438249028,10.688768634428321,106,18,0.0,81935,121492362008343,16,34.4,-668.7066650390625,0.02969999983906746,16,0.0,0.0,1575420030,,,,0,,1,1.88,31.4,,,,,,
Raw,1712569474440,6886805000000,18,,-1396597805635502047,0.7725448608398438,24.00571247562766,-8.098111438249028,10.688768634428321,106,20,0.0,81935,121492363131106,53,24.1,-105.20386505126953,1.0010000467300415,16,0.0,0.0,1575420030,,,,0,,1,1.88,21.1,,,,,,
Raw,1712569474440,6886805000000,18,,-1396597805635502047,0.7725448608398438,24.00571247562766,-8.098111438249028,10.688768634428321,106,25,0.0,81935,121492373706154,12,37.5,68.86455535888672,0.04340000078082085,16,0.0,0.0,1575420030,,,,0,,1,1.88,34.5,,,,,,
Raw,1712569474440,6886805000000,18,,-1396597805635502047,0.7725448608398438,24.00571247562766,-8.098111438249028,10.688768634428321,106,28,0.0,81935,121492366896029,53,24.0,-205.1270751953125,1.005500078201294,16,0.0,0.0,1575420030,,,,0,,1,1.88,21.0,,,,,,
Raw,1712569474440,6886805000000,18,,-1396597805635502047,0.7725448608398438,24.00571247562766,-8.098111438249028,10.688768634428321,106,29,0.0,81935,121492370842499,19,32.9,-127.31975555419922,0.056299999356269836,16,0.0,0.0,1575420030,,,,0,,1,1.88,29.9,,,,,,
Raw,1712569474440,6886805000000,18,,-1396597805635502047,0.7725448608398438,24.00571247562766,-8.098111438249028,10.688768634428321,106,31,0.0,81935,121492361293069,12,37.9,-477.4324035644531,0.02540000155568123,16,0.0,0.0,1575420030,,,,0,,1,1.88,34.9,,,,,,
Raw,1712569474440,6886805000000,18,,-1396597805635502047,0.7725448608398438,24.00571247562766,-8.098111438249028,10.688768634428321,106,2,0.0,16399,121478308872260,71,28.3,-12.493133544921875,11.893500328063965,16,0.0,0.0,1561097980,,,,0,,5,1.89,22.3,,,,,,
Raw,1712569474440,6886805000000,18,,-1396597805635502047,0.7725448608398438,24.00571247562766,-8.098111438249028,10.688768634428321,106,5,0.0,16399,121478312726059,71,28.8,-9.26300048828125,11.893500328063965,16,0.0,0.0,1561097980,,,,0,,5,1.89,22.8,,,,,,
Raw,1712569474440,6886805000000,18,,-1396597805635502047,0.7725448608398438,24.00571247562766,-8.098111438249028,10.688768634428321,106,8,0.0,16399,121478313027584,40,26.5,-166.65187072753906,0.6859999895095825,16,0.0,0.0,1561097980,,,,0,,5,1.89,20.5,,,,,,
Raw,1712569474440,6886805000000,18,,-1396597805635502047,0.7725448608398438,24.00571247562766,-8.098111438249028,10.688768634428321,106,10,0.0,16399,121478307767124,73,22.6,50.67921829223633,1.6770000457763672,16,0.0,0.0,1561097980,,,,0,,5,1.89,16.6,,,,,,
Raw,1712569474440,6886805000000,18,,-1396597805635502047,0.7725448608398438,24.00571247562766,-8.098111438249028,10.688768634428321,106,13,0.0,16399,121478313956440,16,34.0,-224.86996459960938,0.04620000347495079,16,0.0,0.0,1561097980,,,,0,,5,1.89,28.0,,,,,,
Raw,1712569474440,6886805000000,18,,-1396597805635502047,0.7725448608398438,24.00571247562766,-8.098111438249028,10.688768634428321,106,27,0.0,16399,121478367109180,35,27.9,278.07318115234375,0.6270000338554382,16,0.0,0.0,1561097980,,,,0,,5,1.89,21.9,,,,,,
Raw,1712569474440,6886805000000,18,,-1396597805635502047,0.7725448608398438,24.00571247562766,-8.098111438249028,10.688768634428321,106,30,0.0,16399,121478366429111,21,31.1,-239.73841857910156,0.12020000070333481,16,0.0,0.0,1561097980,,,,0,,5,1.89,25.1,,,,,,
Raw,1712569474440,6886805000000,18,,-1396597805635502047,0.7725448608398438,24.00571247562766,-8.098111438249028,10.688768634428321,106,2,0.0,89103,121492355605225,24,30.4,-402.50933837890625,0.4043000042438507,16,0.0,0.0,1575420030,,,,0,,6,1.83,24.4,,,,,,
Raw,1712569474440,6886805000000,18,,-1396597805635502047,0.7725448608398438,24.00571247562766,-8.098111438249028,10.688768634428321,106,10,0.0,89103,121492357560992,9,40.2,309.467041015625,0.0471000038087368,16,0.0,0.0,1575420030,,,,0,,6,1.83,34.2,,,,,,
Raw,1712569474440,6886805000000,18,,-1396597805635502047,0.7725448608398438,24.00571247562766,-8.098111438249028,10.688768634428321,106,11,0.0,89103,121492365155170,61,23.4,26.155864715576172,0.871999979019165,16,0.0,0.0,1575420030,,,,0,,6,1.83,17.4,,,,,,
Raw,1712569474440,6886805000000,18,,-1396597805635502047,0.7725448608398438,24.00571247562766,-8.098111438249028,10.688768634428321,106,12,0.0,89103,121492350888799,46,25.6,479.1784973144531,0.7684999704360962,16,0.0,0.0,1575420030,,,,0,,6,1.83,19.6,,,,,,
Raw,1712569474440,6886805000000,18,,-1396597805635502047,0.7725448608398438,24.00571247562766,-8.098111438249028,10.688768634428321,106,24,0.0,89103,121492354201681,11,38.7,350.7078552246094,0.04990000277757645,16,0.0,0.0,1575420030,,,,0,,6,1.83,32.7,,,,,,
Raw,1712569474440,6886805000000,18,,-1396597805635502047,0.7725448608398438,24.00571247562766,-8.098111438249028,10.688768634428321,106,25,0.0,89103,121492362592519,19,32.2,-45.168548583984375,0.06830000132322311,16,0.0,0.0,1575420030,,,,0,,6,1.83,26.200000000000003,,,,,,
Raw,1712569474440,6886805000000,18,,-1396597805635502047,0.7725448608398438,24.00571247562766,-8.098111438249028,10.688768634428321,106,36,0.0,89103,121492357847073,14,35.6,-456.43798828125,0.05130000412464142,16,0.0,0.0,1575420030,,,,0,,6,1.83,29.6,,,,,,
Fix,GPS,36.6351853500,29.0834795200,236.36016845703125,0.0,3.7900925,,1712569475000,0.086023256,,5948135241429,3.0,0,,,
Fix,FLP,36.6351853000,29.0834798000,236.36016845703125,0.13448496,3.881,10.916142,1712569475468,0.086023256,45.0,5948135241429,3.0,0,,,
Status,1712569475000,30,0,1,5,1575420030,33.00,115.0,20.0,1,1,1,28.0
Status,1712569475000,30,1,1,11,1575420030,39.30,43.0,26.0,1,1,1,34.3
Status,1712569475000,30,2,1,12,1575420030,46.00,102.0,47.0,1,1,1,41.0
Status,1712569475000,30,3,1,18,1575420030,41.70,202.0,23.0,1,1,1,36.7
Status,1712569475000,30,4,1,20,1575420030,30.20,78.0,24.0,0,1,1,25.2
Status,1712569475000,30,5,1,25,1575420030,41.60,63.0,77.0,1,1,1,36.6
Status,1712569475000,30,6,1,28,1575420030,32.10,293.0,39.0,1,1,1,27.1
Status,1712569475000,30,7,1,29,1575420030,37.60,298.0,63.0,1,1,1,32.6
Status,1712569475000,30,8,1,31,1575420030,39.60,314.0,18.0,1,1,1,34.6
Status,1712569475000,30,9,3,10,1602000000,31.00,330.0,54.0,0,1,0,26.0
Status,1712569475000,30,10,3,9,1602000000,29.10,129.0,74.0,1,1,0,24.1
Status,1712569475000,30,11,3,16,1602000000,35.90,140.0,18.0,1,1,1,30.9
Status,1712569475000,30,12,3,20,1602000000,22.20,237.0,65.0,0,1,0,17.2
Status,1712569475000,30,13,3,19,1602000000,26.60,26.0,42.0,0,1,0,21.6
Status,1712569475000,30,14,5,2,1561097980,34.30,112.0,18.0,1,1,0,29.3
Status,1712569475000,30,15,5,5,1561097980,34.80,136.0,35.0,1,1,0,29.8
Status,1712569475000,30,16,5,8,1561097980,33.40,68.0,35.0,1,1,0,28.4
Status,1712569475000,30,17,5,10,1561097980,30.00,84.0,15.0,1,1,0,25.0
Status,1712569475000,30,18,5,13,1561097980,40.80,85.0,38.0,1,1,1,35.8
Status,1712569475000,30,19,5,27,1561097980,38.80,36.0,61.0,0,1,0,33.8
Status,1712569475000,30,20,5,28,1561097980,29.30,49.0,16.0,0,1,0,24.3
Status,1712569475000,30,21,5,30,1561097980,39.00,248.0,59.0,1,1,1,34.0
Status,1712569475000,30,22,2,136,1575420030,36.60,0.0,0.0,0,0,0,31.6
Status,1712569475000,30,23,6,2,1575420030,36.70,310.0,34.0,1,1,0,31.7
Status,1712569475000,30,24,6,10,1575420030,45.70,49.0,45.0,1,1,0,40.7
Status,1712569475000,30,25,6,11,1575420030,32.50,85.0,70.0,0,1,0,27.5
Status,1712569475000,30,26,6,12,1575420030,33.10,39.0,22.0,1,1,0,28.1
Status,1712569475000,30,27,6,24,1575420030,44.90,111.0,32.0,1,1,0,39.9
Status,1712569475000,30,28,6,25,1575420030,38.40,32.0,76.0,1,1,0,33.4
Status,1712569475000,30,29,6,36,1575420030,40.90,192.0,45.0,1,1,0,35.9
Raw,1712569475440,6887805000000,18,,-1396597805635502061,0.7356510162353516,24.81088085914962,-11.116769380348158,10.736527510773323,106,10,0.0,49359,45875373459124,31,28.0,-457.2593994140625,0.9459999799728394,16,0.0,0.0,1598062460,,,,0,,3,0.53,25.0,,,,,,
Raw,1712569475440,6887805000000,18,,-1396597805635502061,0.7356510162353516,24.81088085914962,-11.116769380348158,10.736527510773323,106,9,0.0,49359,45875376400473,43,26.1,164.59909057617188,1.8205000162124634,16,0.0,0.0,1600875010,,,,0,,3,0.53,23.1,,,,,,
Raw,1712569475440,6887805000000,18,,-1396597805635502061,0.7356510162353516,24.81088085914962,-11.116769380348158,10.736527510773323,106,16,0.0,49359,45875364624662,19,32.9,711.3211059570312,0.24729999899864197,16,0.0,0.0,1601437440,,,,0,,3,0.53,29.9,,,,,,
Raw,1712569475440,6887805000000,18,,-1396597805635502061,0.7356510162353516,24.81088085914962,-11.116769380348158,10.736527510773323,106,19,0.0,49359,45875370908026,61,23.6,586.25146484375,1.2914999723434448,16,0.0,0.0,1603687550,,,,0,,3,0.53,20.6,,,,,,
Raw,1712569475440,6887805000000,18,,-1396597805635502061,0.7356510162353516,24.81088085914962,-11.116769380348158,10.736527510773323,106,5,0.0,81935,121493361847265,24,30.0,-470.642333984375,0.3833000063896179,16,0.0,0.0,1575420030,,,,0,,1,1.72,27.0,,,,,,
Raw,1712569475440,6887805000000,18,,-1396597805635502061,0.7356510162353516,24.81088085914962,-11.116769380348158,10.736527510773323,106,11,0.0,81935,121493362546644,13,36.3,552.8412475585938,0.028200000524520874,16,0.0,0.0,1575420030,,,,0,,1,1.72,33.3,,,,,,
Raw,1712569475440,6887805000000,18,,-1396597805635502061,0.7356510162353516,24.81088085914962,-11.116769380348158,10.736527510773323,106,12,0.0,81935,121493368556591,6,43.0,376.579833984375,0.03210000321269035,16,0.0,0.0,1575420030,,,,0,,1,1.72,40.0,,,,,,
Raw,1712569475440,6887805000000,18,,-1396597805635502061,0.7356510162353516,24.81088085914962,-11.116769380348158,10.736527510773323,106,18,0.0,81935,121493362010553,11,38.7,-666.328125,0.02590000070631504,16,0.0,0.0,1575420030,,,,0,,1,1.72,35.7,,,,,,
Raw,1712569475440,6887805000000,18,,-1396597805635502061,0.7356510162353516,24.81088085914962,-11.116769380348158,10.736527510773323,106,20,0.0,81935,121493363131467,35,27.2,-102.73955535888672,0.7910000085830688,16,0.0,0.0,1575420030,,,,0,,1,1.72,24.2,,,,,,
Raw,1712569475440,6887805000000,18,,-1396597805635502061,0.7356510162353516,24.81088085914962,-11.116769380348158,10.736527510773323,106,25,0.0,81935,121493373705921,11,38.6,71.18096160888672,0.04240000247955322,16,0.0,0.0,1575420030,,,,0,,1,1.72,35.6,,,,,,
Raw,1712569475440,6887805000000,18,,-1396597805635502061,0.7356510162353516,24.81088085914962,-11.116769380348158,10.736527510773323,106,28,0.0,81935,121493366896673,27,29.1,-203.19558715820312,0.6754999756813049,16,0.0,0.0,1575420030,,,,0,,1,1.72,26.1,,,,,,
Raw,1712569475440,6887805000000,18,,-1396597805635502061,0.7356510162353516,24.81088085914962,-11.116769380348158,10.736527510773323,106,29,0.0,81935,121493370842936,16,34.6,-124.95797729492188,0.04170000180602074,16,0.0,0.0,1575420030,,,,0,,1,1.72,31.6,,,,,,
Raw,1712569475440,6887805000000,18,,-1396597805635502061,0.7356510162353516,24.81088085914962,-11.116769380348158,10.736527510773323,106,31,0.0,81935,121493361294608,13,36.6,-475.06768798828125,0.02670000120997429,16,0.0,0.0,1575420030,,,,0,,1,1.72,33.6,,,,,,
Raw,1712569475440,6887805000000,18,,-1396597805635502061,0.7356510162353516,24.81088085914962,-11.116769380348158,10.736527510773323,106,8,0.0,16399,121479313028164,35,27.4,-164.84671020507812,0.6360000371932983,16,0.0,0.0,1561097980,,,,0,,5,1.7,21.4,,,,,,
Raw,1712569475440,6887805000000,18,,-1396597805635502061,0.7356510162353516,24.81088085914962,-11.116769380348158,10.736527510773323,106,10,0.0,16399,121479307766961,53,24.0,53.2237434387207,0.796999990940094,16,0.0,0.0,1561097980,,,,0,,5,1.7,18.0,,,,,,
Raw,1712569475440,6887805000000,18,,-1396597805635502061,0.7356510162353516,24.81088085914962,-11.116769380348158,10.736527510773323,106,13,0.0,16399,121479313957196,16,34.8,-222.65370178222656,0.04620000347495079,16,0.0,0.0,1561097980,,,,0,,5,1.7,28.799999999999997,,,,,,
Raw,1712569475440,6887805000000,18,,-1396597805635502061,0.7356510162353516,24.81088085914962,-11.116769380348158,10.736527510773323,106,27,0.0,16399,121479367108249,19,32.8,280.43646240234375,0.05180000141263008,16,0.0,0.0,1561097980,,,,0,,5,1.7,26.799999999999997,,,,,,
Raw,1712569475440,6887805000000,18,,-1396597805635502061,0.7356510162353516,24.81088085914962,-11.116769380348158,10.736527510773323,106,28,0.0,16399,121479355772313,77,23.3,549.0985107421875,3.11899995803833,16,0.0,0.0,1561097980,,,,0,,5,1.7,17.3,,,,,,
Raw,1712569475440,6887805000000,18,,-1396597805635502061,0.7356510162353516,24.81088085914962,-11.116769380348158,10.736527510773323,106,30,0.0,16399,121479366429902,17,33.0,-237.49609375,0.04230000078678131,16,0.0,0.0,1561097980,,,,0,,5,1.7,27.0,,,,,,
Raw,1712569475440,6887805000000,18,,-1396597805635502061,0.7356510162353516,24.81088085914962,-11.116769380348158,10.736527510773323,106,2,0.0,89103,121493355606536,24,30.7,-400.2447204589844,0.4043000042438507,16,0.0,0.0,1575420030,,,,0,,6,1.69,24.7,,,,,,
Raw,1712569475440,6887805000000,18,,-1396597805635502061,0.7356510162353516,24.81088085914962,-11.116769380348158,10.736527510773323,106,10,0.0,89103,121493357559948,10,39.7,311.7815246582031,0.047600001096725464,16,0.0,0.0,1575420030,,,,0,,6,1.69,33.7,,,,,,
Raw,1712569475440,6887805000000,18,,-1396597805635502061,0.7356510162353516,24.81088085914962,-11.116769380348158,10.736527510773323,106,11,0.0,89103,121493365155134,40,26.5,29.438430786132812,0.6919999718666077,16,0.0,0.0,1575420030,,,,0,,6,1.69,20.5,,,,,,
Raw,1712569475440,6887805000000,18,,-1396597805635502061,0.7356510162353516,24.81088085914962,-11.116769380348158,10.736527510773323,106,12,0.0,89103,121493350887261,35,27.1,481.7569885253906,0.6585000157356262,16,0.0,0.0,1575420030,,,,0,,6,1.69,21.1,,,,,,
Raw,1712569475440,6887805000000,18,,-1396597805635502061,0.7356510162353516,24.81088085914962,-11.116769380348158,10.736527510773323,106,24,0.0,89103,121493354200510,11,38.9,352.9996032714844,0.04990000277757645,16,0.0,0.0,1575420030,,,,0,,6,1.69,32.9,,,,,,
Raw,1712569475440,6887805000000,18,,-1396597805635502061,0.7356510162353516,24.81088085914962,-11.116769380348158,10.736527510773323,106,25,0.0,89103,121493362592651,19,32.4,-42.89512634277344,0.06830000132322311,16,0.0,0.0,1575420030,,,,0,,6,1.69,26.4,,,,,,
Raw,1712569475440,6887805000000,18,,-1396597805635502061,0.7356510162353516,24.81088085914962,-11.116769380348158,10.736527510773323,106,36,0.0,89103,121493357848589,16,34.9,-454.170654296875,0.05220000445842743,16,0.0,0.0,1575420030,,,,0,,6,1.69,28.9,,,,,,
Fix,GPS,36.6351838800,29.0834811000,236.400634765625,0.0,3.7900925,,1712569476000,1.1200446,,5949156986272,3.0,0,,,
Fix,FLP,36.6351841000,29.0834810000,236.400634765625,0.078755535,3.9,,1712569476490,1.1200446,,5949156986272,3.0,0,,,
Fix,NLP,36.6436413000,29.0821737000,,,2500.0,,1712569473517,,,5946183000000,,0,,,
Status,1712569476000,30,0,1,5,1575420030,42.00,115.0,20.0,1,1,1,37.0
Status,1712569476000,30,1,1,11,1575420030,41.90,43.0,26.0,1,1,1,36.9
Status,1712569476000,30,2,1,12,1575420030,44.70,102.0,47.0,1,1,1,39.7
Status,1712569476000,30,3,1,18,1575420030,41.30,202.0,23.0,1,1,1,36.3
Status,1712569476000,30,4,1,20,1575420030,38.60,78.0,24.0,1,1,1,33.6
Status,1712569476000,30,5,1,25,1575420030,39.90,63.0,77.0,1,1,1,34.9
Status,1712569476000,30,6,1,28,1575420030,40.10,293.0,39.0,1,1,1,35.1
Status,1712569476000,30,7,1,29,1575420030,37.80,298.0,63.0,1,1,1,32.8
Status,1712569476000,30,8,1,31,1575420030,35.40,314.0,18.0,1,1,1,30.4
Status,1712569476000,30,9,3,10,1602000000,32.30,330.0,54.0,0,1,0,27.3
Status,1712569476000,30,10,3,9,1602000000,34.90,129.0,74.0,1,1,0,29.9
Status,1712569476000,30,11,3,16,1602000000,37.50,140.0,18.0,1,1,1,32.5
Status,1712569476000,30,12,3,20,1602000000,22.10,237.0,65.0,0,1,0,17.1
Status,1712569476000,30,13,3,19,1602000000,27.50,26.0,42.0,0,1,0,22.5
Status,1712569476000,30,14,5,2,1561097980,34.30,112.0,18.0,1,1,0,29.3
Status,1712569476000,30,15,5,5,1561097980,39.30,136.0,35.0,1,1,0,34.3
Status,1712569476000,30,16,5,8,1561097980,40.90,68.0,35.0,1,1,0,35.9
Status,1712569476000,30,17,5,10,1561097980,31.30,84.0,15.0,1,1,0,26.3
Status,1712569476000,30,18,5,13,1561097980,40.00,85.0,38.0,1,1,1,35.0
Status,1712569476000,30,19,5,27,1561097980,38.90,36.0,61.0,0,1,0,33.9
Status,1712569476000,30,20,5,28,1561097980,34.30,49.0,16.0,0,1,0,29.3
Status,1712569476000,30,21,5,30,1561097980,41.00,248.0,59.0,1,1,1,36.0
Status,1712569476000,30,22,2,136,1575420030,40.20,0.0,0.0,0,0,0,35.2
Status,1712569476000,30,23,6,2,1575420030,42.80,310.0,34.0,1,1,0,37.8
Status,1712569476000,30,24,6,10,1575420030,44.40,49.0,45.0,1,1,0,39.4
Status,1712569476000,30,25,6,11,1575420030,37.40,85.0,70.0,0,1,0,32.4
Status,1712569476000,30,26,6,12,1575420030,37.80,39.0,22.0,1,1,0,32.8
Status,1712569476000,30,27,6,24,1575420030,41.90,111.0,32.0,1,1,0,36.9
Status,1712569476000,30,28,6,25,1575420030,39.60,32.0,76.0,1,1,0,34.6
Status,1712569476000,30,29,6,36,1575420030,44.80,192.0,45.0,1,1,0,39.8
Raw,1712569476440,6888805000000,18,,-1396597805635502054,0.2921619415283203,23.750189939164557,-3.489205704904377,9.629679187355867,106,10,0.0,49359,45876373460723,27,29.3,-458.0660705566406,0.8859999775886536,16,0.0,0.0,1598062460,,,,0,,3,0.49,26.3,,,,,,
Raw,1712569476440,6888805000000,18,,-1396597805635502054,0.2921619415283203,23.750189939164557,-3.489205704904377,9.629679187355867,106,9,0.0,49359,45876376399959,21,31.9,164.60382080078125,0.3352000117301941,16,0.0,0.0,1600875010,,,,0,,3,0.49,28.9,,,,,,
Raw,1712569476440,6888805000000,18,,-1396597805635502054,0.2921619415283203,23.750189939164557,-3.489205704904377,9.629679187355867,106,16,0.0,49359,45876364622277,16,34.5,710.4308471679688,0.23269999027252197,16,0.0,0.0,1601437440,,,,0,,3,0.49,31.5,,,,,,
Raw,1712569476440,6888805000000,18,,-1396597805635502054,0.2921619415283203,23.750189939164557,-3.489205704904377,9.629679187355867,106,20,0.0,49359,45876375213780,169,19.1,-243.00372314453125,6.199000358581543,16,0.0,0.0,1603124990,,,,0,,3,0.49,16.1,,,,,,
Raw,1712569476440,6888805000000,18,,-1396597805635502054,0.2921619415283203,23.750189939164557,-3.489205704904377,9.629679187355867,106,19,0.0,49359,45876370906325,53,24.5,586.3075561523438,1.2115000486373901,16,0.0,0.0,1603687550,,,,0,,3,0.49,21.5,,,,,,
Raw,1712569476440,6888805000000,18,,-1396597805635502054,0.2921619415283203,23.750189939164557,-3.489205704904377,9.629679187355867,106,5,0.0,81935,121494361848818,10,39.0,-471.4360656738281,0.023600000888109207,16,0.0,0.0,1575420030,,,,0,,1,1.61,36.0,,,,,,
Raw,1712569476440,6888805000000,18,,-1396597805635502054,0.2921619415283203,23.750189939164557,-3.489205704904377,9.629679187355867,106,11,0.0,81935,121494362544812,11,38.9,551.7285766601562,0.02590000070631504,16,0.0,0.0,1575420030,,,,0,,1,1.61,35.9,,,,,,
Raw,1712569476440,6888805000000,18,,-1396597805635502054,0.2921619415283203,23.750189939164557,-3.489205704904377,9.629679187355867,106,12,0.0,81935,121494368555350,8,41.7,375.6588134765625,0.03320000320672989,16,0.0,0.0,1575420030,,,,0,,1,1.61,38.7,,,,,,
Raw,1712569476440,6888805000000,18,,-1396597805635502054,0.2921619415283203,23.750189939164557,-3.489205704904377,9.629679187355867,106,18,0.0,81935,121494362012791,11,38.3,-667.414794921875,0.02590000070631504,16,0.0,0.0,1575420030,,,,0,,1,1.61,35.3,,,,,,
Raw,1712569476440,6888805000000,18,,-1396597805635502054,0.2921619415283203,23.750189939164557,-3.489205704904377,9.629679187355867,106,20,0.0,81935,121494363131818,14,35.6,-103.5041732788086,0.030300002545118332,16,0.0,0.0,1575420030,,,,0,,1,1.61,32.6,,,,,,
Raw,1712569476440,6888805000000,18,,-1396597805635502054,0.2921619415283203,23.750189939164557,-3.489205704904377,9.629679187355867,106,25,0.0,81935,121494373705705,13,36.9,69.90560913085938,0.044700004160404205,16,0.0,0.0,1575420030,,,,0,,1,1.61,33.9,,,,,,
Raw,1712569476440,6888805000000,18,,-1396597805635502054,0.2921619415283203,23.750189939164557,-3.489205704904377,9.629679187355867,106,28,0.0,81935,121494366897348,12,37.1,-204.68499755859375,0.03290000185370445,16,0.0,0.0,1575420030,,,,0,,1,1.61,34.1,,,,,,
Raw,1712569476440,6888805000000,18,,-1396597805635502054,0.2921619415283203,23.750189939164557,-3.489205704904377,9.629679187355867,106,29,0.0,81935,121494370843372,16,34.8,-125.80574035644531,0.04170000180602074,16,0.0,0.0,1575420030,,,,0,,1,1.61,31.799999999999997,,,,,,
Raw,1712569476440,6888805000000,18,,-1396597805635502054,0.2921619415283203,23.750189939164557,-3.489205704904377,9.629679187355867,106,31,0.0,81935,121494361296185,19,32.4,-476.13507080078125,0.04280000180006027,16,0.0,0.0,1575420030,,,,0,,1,1.61,29.4,,,,,,
Raw,1712569476440,6888805000000,18,,-1396597805635502054,0.2921619415283203,23.750189939164557,-3.489205704904377,9.629679187355867,106,5,0.0,16399,121480312726126,32,33.3,-5.645960807800293,8.471500396728516,16,0.0,0.0,1561097980,,,,0,,5,1.58,27.299999999999997,,,,,,
Raw,1712569476440,6888805000000,18,,-1396597805635502054,0.2921619415283203,23.750189939164557,-3.489205704904377,9.629679187355867,106,8,0.0,16399,121480313028723,16,34.9,-165.9286651611328,0.04620000347495079,16,0.0,0.0,1561097980,,,,0,,5,1.58,28.9,,,,,,
Raw,1712569476440,6888805000000,18,,-1396597805635502054,0.2921619415283203,23.750189939164557,-3.489205704904377,9.629679187355867,106,10,0.0,16399,121480307766790,46,25.3,52.34996795654297,0.7369999885559082,16,0.0,0.0,1561097980,,,,0,,5,1.58,19.3,,,,,,
Raw,1712569476440,6888805000000,18,,-1396597805635502054,0.2921619415283203,23.750189939164557,-3.489205704904377,9.629679187355867,106,13,0.0,16399,121480313957921,16,34.0,-223.3654327392578,0.04620000347495079,16,0.0,0.0,1561097980,,,,0,,5,1.58,28.0,,,,,,
Raw,1712569476440,6888805000000,18,,-1396597805635502054,0.2921619415283203,23.750189939164557,-3.489205704904377,9.629679187355867,106,27,0.0,16399,121480367107311,19,32.9,278.83990478515625,0.05180000141263008,16,0.0,0.0,1561097980,,,,0,,5,1.58,26.9,,,,,,
Raw,1712569476440,6888805000000,18,,-1396597805635502054,0.2921619415283203,23.750189939164557,-3.489205704904377,9.629679187355867,106,28,0.0,16399,121480355770480,31,28.3,549.309814453125,0.5989999771118164,16,0.0,0.0,1561097980,,,,0,,5,1.58,22.3,,,,,,
Raw,1712569476440,6888805000000,18,,-1396597805635502054,0.2921619415283203,23.750189939164557,-3.489205704904377,9.629679187355867,106,30,0.0,16399,121480366430706,14,35.0,-238.47816467285156,0.03480000048875809,16,0.0,0.0,1561097980,,,,0,,5,1.58,29.0,,,,,,
Raw,1712569476440,6888805000000,18,,-1396597805635502054,0.2921619415283203,23.750189939164557,-3.489205704904377,9.629679187355867,106,2,0.0,89103,121494355607905,13,36.8,-401.56341552734375,0.047700002789497375,16,0.0,0.0,1575420030,,,,0,,6,1.62,30.799999999999997,,,,,,
Raw,1712569476440,6888805000000,18,,-1396597805635502054,0.2921619415283203,23.750189939164557,-3.489205704904377,9.629679187355867,106,10,0.0,89103,121494357558908,11,38.4,310.99835205078125,0.04840000346302986,16,0.0,0.0,1575420030,,,,0,,6,1.62,32.4,,,,,,
Raw,1712569476440,6888805000000,18,,-1396597805635502054,0.2921619415283203,23.750189939164557,-3.489205704904377,9.629679187355867,106,11,0.0,89103,121494365155010,21,31.4,28.67637062072754,0.13670000433921814,16,0.0,0.0,1575420030,,,,0,,6,1.62,25.4,,,,,,
Raw,1712569476440,6888805000000,18,,-1396597805635502054,0.2921619415283203,23.750189939164557,-3.489205704904377,9.629679187355867,106,12,0.0,89103,121494350885619,21,31.8,480.5231018066406,0.15320000052452087,16,0.0,0.0,1575420030,,,,0,,6,1.62,25.8,,,,,,
Raw,1712569476440,6888805000000,18,,-1396597805635502054,0.2921619415283203,23.750189939164557,-3.489205704904377,9.629679187355867,106,24,0.0,89103,121494354199322,14,35.9,352.2867431640625,0.052800003439188004,16,0.0,0.0,1575420030,,,,0,,6,1.62,29.9,,,,,,
Raw,1712569476440,6888805000000,18,,-1396597805635502054,0.2921619415283203,23.750189939164557,-3.489205704904377,9.629679187355867,106,25,0.0,89103,121494362592791,17,33.6,-43.787513732910156,0.06030000001192093,16,0.0,0.0,1575420030,,,,0,,6,1.62,27.6,,,,,,
Raw,1712569476440,6888805000000,18,,-1396597805635502054,0.2921619415283203,23.750189939164557,-3.489205704904377,9.629679187355867,106,36,0.0,89103,121494357850111,11,38.8,-455.0867919921875,0.04840000346302986,16,0.0,0.0,1575420030,,,,0,,6,1.62,32.8,,,,,,
Fix,GPS,36.6351815500,29.0834769500,237.1317138671875,0.19,3.7900925,327.2,1712569477000,1.1490866,94.0606,5950147062470,3.0,0,,,
Fix,FLP,36.6351819000,29.0834774000,237.1317138671875,0.18741256,3.9,326.36145,1712569477481,1.1490866,94.0606,5950147062470,3.0,0,,,
Status,1712569477000,30,0,1,5,1575420030,40.60,115.0,20.0,1,1,1,35.6
Status,1712569477000,30,1,1,11,1575420030,37.80,43.0,26.0,1,1,1,32.8
Status,1712569477000,30,2,1,12,1575420030,42.70,102.0,47.0,1,1,1,37.7
Status,1712569477000,30,3,1,18,1575420030,41.80,202.0,23.0,1,1,1,36.8
Status,1712569477000,30,4,1,20,1575420030,44.00,78.0,24.0,1,1,1,39.0
Status,1712569477000,30,5,1,25,1575420030,42.40,63.0,77.0,1,1,1,37.4
Status,1712569477000,30,6,1,28,1575420030,38.80,293.0,39.0,1,1,1,33.8
Status,1712569477000,30,7,1,29,1575420030,41.90,298.0,63.0,1,1,1,36.9
Status,1712569477000,30,8,1,31,1575420030,41.00,314.0,18.0,1,1,1,36.0
Status,1712569477000,30,9,3,10,1602000000,36.10,330.0,54.0,0,1,0,31.1
Status,1712569477000,30,10,3,9,1602000000,35.90,129.0,74.0,1,1,0,30.9
Status,1712569477000,30,11,3,16,1602000000,33.30,140.0,18.0,1,1,1,28.3
Status,1712569477000,30,12,3,20,1602000000,22.10,237.0,65.0,0,1,0,17.1
Status,1712569477000,30,13,3,19,1602000000,26.60,26.0,42.0,0,1,0,21.6
Status,1712569477000,30,14,5,2,1561097980,36.50,112.0,18.0,1,1,0,31.5
Status,1712569477000,30,15,5,5,1561097980,40.90,136.0,35.0,1,1,0,35.9
Status,1712569477000,30,16,5,8,1561097980,39.70,68.0,35.0,1,1,0,34.7
Status,1712569477000,30,17,5,10,1561097980,31.30,84.0,15.0,1,1,0,26.3
Status,1712569477000,30,18,5,13,1561097980,44.00,85.0,38.0,1,1,1,39.0
Status,1712569477000,30,19,5,27,1561097980,41.00,36.0,61.0,0,1,0,36.0
Status,1712569477000,30,20,5,28,1561097980,37.10,49.0,16.0,0,1,0,32.1
Status,1712569477000,30,21,5,30,1561097980,48.40,248.0,59.0,1,1,1,43.4
Status,1712569477000,30,22,2,136,1575420030,43.90,0.0,0.0,0,0,0,38.9
Status,1712569477000,30,23,6,2,1575420030,43.60,310.0,34.0,1,1,0,38.6
Status,1712569477000,30,24,6,10,1575420030,37.90,49.0,45.0,1,1,0,32.9
Status,1712569477000,30,25,6,11,1575420030,39.50,85.0,70.0,0,1,0,34.5
Status,1712569477000,30,26,6,12,1575420030,30.10,39.0,22.0,1,1,0,25.1
Status,1712569477000,30,27,6,24,1575420030,41.90,111.0,32.0,1,1,0,36.9
Status,1712569477000,30,28,6,25,1575420030,37.50,32.0,76.0,1,1,0,32.5
Status,1712569477000,30,29,6,36,1575420030,48.60,192.0,45.0,1,1,0,43.6
Raw,1712569477440,6889805000000,18,,-1396597805635502062,0.1859302520751953,23.361291823675856,-6.986394418163893,11.201080064524453,106,10,0.0,49359,45877373462231,17,33.1,-458.39447021484375,0.25280001759529114,16,0.0,0.0,1598062460,,,,0,,3,0.54,30.1,,,,,,
Raw,1712569477440,6889805000000,18,,-1396597805635502062,0.1859302520751953,23.361291823675856,-6.986394418163893,11.201080064524453,106,9,0.0,49359,45877376399412,19,32.9,164.04905700683594,0.2653000056743622,16,0.0,0.0,1600875010,,,,0,,3,0.54,29.9,,,,,,
Raw,1712569477440,6889805000000,18,,-1396597805635502062,0.1859302520751953,23.361291823675856,-6.986394418163893,11.201080064524453,106,16,0.0,49359,45877364619869,24,30.3,709.8861083984375,0.5877999663352966,16,0.0,0.0,1601437440,,,,0,,3,0.54,27.3,,,,,,
Raw,1712569477440,6889805000000,18,,-1396597805635502062,0.1859302520751953,23.361291823675856,-6.986394418163893,11.201080064524453,106,19,0.0,49359,45877370904101,61,23.6,584.6063842773438,1.2914999723434448,16,0.0,0.0,1603687550,,,,0,,3,0.54,20.6,,,,,,
Raw,1712569477440,6889805000000,18,,-1396597805635502062,0.1859302520751953,23.361291823675856,-6.986394418163893,11.201080064524453,106,5,0.0,81935,121495361850398,12,37.6,-471.8308410644531,0.02540000155568123,16,0.0,0.0,1575420030,,,,0,,1,1.72,34.6,,,,,,
Raw,1712569477440,6889805000000,18,,-1396597805635502062,0.1859302520751953,23.361291823675856,-6.986394418163893,11.201080064524453,106,11,0.0,81935,121495362542989,16,34.8,551.4290161132812,0.02969999983906746,16,0.0,0.0,1575420030,,,,0,,1,1.72,31.799999999999997,,,,,,
Raw,1712569477440,6889805000000,18,,-1396597805635502062,0.1859302520751953,23.361291823675856,-6.986394418163893,11.201080064524453,106,12,0.0,81935,121495368554106,10,39.7,375.3028259277344,0.0341000035405159,16,0.0,0.0,1575420030,,,,0,,1,1.72,36.7,,,,,,
Raw,1712569477440,6889805000000,18,,-1396597805635502062,0.1859302520751953,23.361291823675856,-6.986394418163893,11.201080064524453,106,18,0.0,81935,121495362015019,11,38.8,-667.5870971679688,0.02590000070631504,16,0.0,0.0,1575420030,,,,0,,1,1.72,35.8,,,,,,
Raw,1712569477440,6889805000000,18,,-1396597805635502062,0.1859302520751953,23.361291823675856,-6.986394418163893,11.201080064524453,106,20,0.0,81935,121495363132170,8,41.0,-104.01889038085938,0.025700001046061516,16,0.0,0.0,1575420030,,,,0,,1,1.72,38.0,,,,,,
Raw,1712569477440,6889805000000,18,,-1396597805635502062,0.1859302520751953,23.361291823675856,-6.986394418163893,11.201080064524453,106,25,0.0,81935,121495373705473,10,39.4,69.74275970458984,0.041600003838539124,16,0.0,0.0,1575420030,,,,0,,1,1.72,36.4,,,,,,
Raw,1712569477440,6889805000000,18,,-1396597805635502062,0.1859302520751953,23.361291823675856,-6.986394418163893,11.201080064524453,106,28,0.0,81935,121495366898055,14,35.8,-205.02056884765625,0.03480000048875809,16,0.0,0.0,1575420030,,,,0,,1,1.72,32.8,,,,,,
Raw,1712569477440,6889805000000,18,,-1396597805635502062,0.1859302520751953,23.361291823675856,-6.986394418163893,11.201080064524453,106,29,0.0,81935,121495370843762,11,38.9,-126.57001495361328,0.03790000081062317,16,0.0,0.0,1575420030,,,,0,,1,1.72,35.9,,,,,,
Raw,1712569477440,6889805000000,18,,-1396597805635502062,0.1859302520751953,23.361291823675856,-6.986394418163893,11.201080064524453,106,31,0.0,81935,121495361297809,11,38.0,-476.5525817871094,0.024400001391768456,16,0.0,0.0,1575420030,,,,0,,1,1.72,35.0,,,,,,
Raw,1712569477440,6889805000000,18,,-1396597805635502062,0.1859302520751953,23.361291823675856,-6.986394418163893,11.201080064524453,106,2,0.0,16399,121481308872359,64,30.5,-11.408966064453125,11.72350025177002,16,0.0,0.0,1561097980,,,,0,,5,1.7,24.5,,,,,,
Raw,1712569477440,6889805000000,18,,-1396597805635502062,0.1859302520751953,23.361291823675856,-6.986394418163893,11.201080064524453,106,5,0.0,16399,121481312726146,16,34.9,-6.596557140350342,7.051000118255615,16,0.0,0.0,1561097980,,,,0,,5,1.7,28.9,,,,,,
Raw,1712569477440,6889805000000,18,,-1396597805635502062,0.1859302520751953,23.361291823675856,-6.986394418163893,11.201080064524453,106,8,0.0,16399,121481313029303,17,33.7,-166.754150390625,0.052799999713897705,16,0.0,0.0,1561097980,,,,0,,5,1.7,27.700000000000003,,,,,,
Raw,1712569477440,6889805000000,18,,-1396597805635502062,0.1859302520751953,23.361291823675856,-6.986394418163893,11.201080064524453,106,13,0.0,16399,121481313958661,11,38.0,-223.8994140625,0.04240000247955322,16,0.0,0.0,1561097980,,,,0,,5,1.7,32.0,,,,,,
Raw,1712569477440,6889805000000,18,,-1396597805635502062,0.1859302520751953,23.361291823675856,-6.986394418163893,11.201080064524453,106,27,0.0,16399,121481367106358,14,35.0,278.5833435058594,0.03629999980330467,16,0.0,0.0,1561097980,,,,0,,5,1.7,29.0,,,,,,
Raw,1712569477440,6889805000000,18,,-1396597805635502062,0.1859302520751953,23.361291823675856,-6.986394418163893,11.201080064524453,106,28,0.0,16399,121481355768642,21,31.1,548.9840087890625,0.13369999825954437,16,0.0,0.0,1561097980,,,,0,,5,1.7,25.1,,,,,,
Raw,1712569477440,6889805000000,18,,-1396597805635502062,0.1859302520751953,23.361291823675856,-6.986394418163893,11.201080064524453,106,30,0.0,16399,121481366431499,7,42.4,-238.80258178710938,0.029600001871585846,16,0.0,0.0,1561097980,,,,0,,5,1.7,36.4,,,,,,
Raw,1712569477440,6889805000000,18,,-1396597805635502062,0.1859302520751953,23.361291823675856,-6.986394418163893,11.201080064524453,106,2,0.0,89103,121495355609252,12,37.6,-401.9754943847656,0.04639999940991402,16,0.0,0.0,1575420030,,,,0,,6,1.69,31.6,,,,,,
Raw,1712569477440,6889805000000,18,,-1396597805635502062,0.1859302520751953,23.361291823675856,-6.986394418163893,11.201080064524453,106,10,0.0,89103,121495357557853,21,31.9,310.1760559082031,0.13670000433921814,16,0.0,0.0,1575420030,,,,0,,6,1.69,25.9,,,,,,
Raw,1712569477440,6889805000000,18,,-1396597805635502062,0.1859302520751953,23.361291823675856,-6.986394418163893,11.201080064524453,106,11,0.0,89103,121495365154892,17,33.5,27.990516662597656,0.05880000442266464,16,0.0,0.0,1575420030,,,,0,,6,1.69,27.5,,,,,,
Raw,1712569477440,6889805000000,18,,-1396597805635502062,0.1859302520751953,23.361291823675856,-6.986394418163893,11.201080064524453,106,12,0.0,89103,121495350884043,53,24.1,478.9501647949219,0.828499972820282,16,0.0,0.0,1575420030,,,,0,,6,1.69,18.1,,,,,,
Raw,1712569477440,6889805000000,18,,-1396597805635502062,0.1859302520751953,23.361291823675856,-6.986394418163893,11.201080064524453,106,24,0.0,89103,121495354198150,14,35.9,351.3863525390625,0.052800003439188004,16,0.0,0.0,1575420030,,,,0,,6,1.69,29.9,,,,,,
Raw,1712569477440,6889805000000,18,,-1396597805635502062,0.1859302520751953,23.361291823675856,-6.986394418163893,11.201080064524453,106,25,0.0,89103,121495362592911,21,31.5,-44.8265495300293,0.13819999992847443,16,0.0,0.0,1575420030,,,,0,,6,1.69,25.5,,,,,,
Raw,1712569477440,6889805000000,18,,-1396597805635502062,0.1859302520751953,23.361291823675856,-6.986394418163893,11.201080064524453,106,36,0.0,89103,121495357851636,7,42.6,-455.5738830566406,0.04610000178217888,16,0.0,0.0,1575420030,,,,0,,6,1.69,36.6,,,,,,
Fix,GPS,36.6351773700,29.0834732000,237.4219970703125,0.0,3.7900925,,1712569478000,0.086023256,,5951148219448,3.0,0,,,
Fix,FLP,36.6351783000,29.0834737000,237.4219970703125,0.18072318,3.9,324.217,1712569478481,0.086023256,45.0,5951148219448,3.0,0,,,
Status,1712569478000,30,0,1,5,1575420030,38.70,115.0,20.0,1,1,1,33.7
Status,1712569478000,30,1,1,11,1575420030,38.60,43.0,26.0,1,1,1,33.6
Status,1712569478000,30,2,1,12,1575420030,37.70,102.0,47.0,1,1,1,32.7
Status,1712569478000,30,3,1,18,1575420030,44.40,202.0,23.0,1,1,1,39.4
Status,1712569478000,30,4,1,20,1575420030,42.70,78.0,24.0,1,1,1,37.7
Status,1712569478000,30,5,1,25,1575420030,38.60,63.0,77.0,1,1,1,33.6
Status,1712569478000,30,6,1,28,1575420030,42.10,293.0,39.0,1,1,1,37.1
Status,1712569478000,30,7,1,29,1575420030,42.40,298.0,63.0,1,1,1,37.4
Status,1712569478000,30,8,1,31,1575420030,44.10,314.0,18.0,1,1,1,39.1
Status,1712569478000,30,9,3,10,1602000000,34.00,330.0,54.0,0,1,0,29.0
Status,1712569478000,30,10,3,9,1602000000,37.00,129.0,74.0,1,1,0,32.0
Status,1712569478000,30,11,3,16,1602000000,29.20,140.0,18.0,1,1,1,24.2
Status,1712569478000,30,12,3,20,1602000000,25.10,237.0,65.0,0,1,0,20.1
Status,1712569478000,30,13,3,19,1602000000,25.50,26.0,42.0,0,1,0,20.5
Status,1712569478000,30,14,5,2,1561097980,40.90,112.0,18.0,1,1,0,35.9
Status,1712569478000,30,15,5,5,1561097980,42.70,136.0,35.0,1,1,0,37.7
Status,1712569478000,30,16,5,8,1561097980,38.20,68.0,35.0,1,1,0,33.2
Status,1712569478000,30,17,5,10,1561097980,32.00,84.0,15.0,1,1,0,27.0
Status,1712569478000,30,18,5,13,1561097980,38.90,85.0,38.0,1,1,1,33.9
Status,1712569478000,30,19,5,27,1561097980,36.50,36.0,61.0,0,1,0,31.5
Status,1712569478000,30,20,5,28,1561097980,34.40,49.0,16.0,0,1,0,29.4
Status,1712569478000,30,21,5,30,1561097980,43.10,248.0,59.0,1,1,1,38.1
Status,1712569478000,30,22,2,136,1575420030,40.40,0.0,0.0,0,0,0,35.4
Status,1712569478000,30,23,6,2,1575420030,46.50,310.0,34.0,1,1,0,41.5
Status,1712569478000,30,24,6,10,1575420030,35.00,49.0,45.0,1,1,0,30.0
Status,1712569478000,30,25,6,11,1575420030,40.10,85.0,70.0,0,1,0,35.1
Status,1712569478000,30,26,6,12,1575420030,31.60,39.0,22.0,1,1,0,26.6
Status,1712569478000,30,27,6,24,1575420030,41.60,111.0,32.0,1,1,0,36.6
Status,1712569478000,30,28,6,25,1575420030,32.80,32.0,76.0,1,1,0,27.8
Status,1712569478000,30,29,6,36,1575420030,43.70,192.0,45.0,1,1,0,38.7
Raw,1712569478440,6890805000000,18,,-1396597805635502073,0.3676872253417969,21.788093363284133,-8.442069508940138,10.88640336309294,106,10,0.0,49359,45878373463766,21,31.0,-458.1725769042969,0.33070001006126404,16,0.0,0.0,1598062460,,,,0,,3,0.45,28.0,,,,,,
Raw,1712569478440,6890805000000,18,,-1396597805635502073,0.3676872253417969,21.788093363284133,-8.442069508940138,10.88640336309294,106,9,0.0,49359,45878376398873,16,34.0,164.589599609375,0.2506999969482422,16,0.0,0.0,1600875010,,,,0,,3,0.45,31.0,,,,,,
Raw,1712569478440,6890805000000,18,,-1396597805635502073,0.3676872253417969,21.788093363284133,-8.442069508940138,10.88640336309294,106,16,0.0,49359,45878364617415,40,26.2,709.6363525390625,1.0525000095367432,16,0.0,0.0,1601437440,,,,0,,3,0.45,23.2,,,,,,
Raw,1712569478440,6890805000000,18,,-1396597805635502073,0.3676872253417969,21.788093363284133,-8.442069508940138,10.88640336309294,106,20,0.0,49359,45878375215459,74,22.1,-242.15283203125,2.1389999389648438,16,0.0,0.0,1603124990,,,,0,,3,0.45,19.1,,,,,,
Raw,1712569478440,6890805000000,18,,-1396597805635502073,0.3676872253417969,21.788093363284133,-8.442069508940138,10.88640336309294,106,19,0.0,49359,45878370902203,70,22.5,585.4849853515625,1.381500005722046,16,0.0,0.0,1603687550,,,,0,,3,0.45,19.5,,,,,,
Raw,1712569478440,6890805000000,18,,-1396597805635502073,0.3676872253417969,21.788093363284133,-8.442069508940138,10.88640336309294,106,5,0.0,81935,121496361851980,14,35.7,-471.6304626464844,0.027300000190734863,16,0.0,0.0,1575420030,,,,0,,1,1.55,32.7,,,,,,
Raw,1712569478440,6890805000000,18,,-1396597805635502073,0.3676872253417969,21.788093363284133,-8.442069508940138,10.88640336309294,106,11,0.0,81935,121496362541072,14,35.6,551.8276977539062,0.02879999950528145,16,0.0,0.0,1575420030,,,,0,,1,1.55,32.6,,,,,,
Raw,1712569478440,6890805000000,18,,-1396597805635502073,0.3676872253417969,21.788093363284133,-8.442069508940138,10.88640336309294,106,12,0.0,81935,121496368552852,16,34.7,375.3869934082031,0.038700003176927567,16,0.0,0.0,1575420030,,,,0,,1,1.55,31.700000000000003,,,,,,
Raw,1712569478440,6890805000000,18,,-1396597805635502073,0.3676872253417969,21.788093363284133,-8.442069508940138,10.88640336309294,106,18,0.0,81935,121496362017242,8,41.4,-667.4630126953125,0.02419999986886978,16,0.0,0.0,1575420030,,,,0,,1,1.55,38.4,,,,,,
Raw,1712569478440,6890805000000,18,,-1396597805635502073,0.3676872253417969,21.788093363284133,-8.442069508940138,10.88640336309294,106,20,0.0,81935,121496363132537,10,39.7,-103.48316955566406,0.026600001379847527,16,0.0,0.0,1575420030,,,,0,,1,1.55,36.7,,,,,,
Raw,1712569478440,6890805000000,18,,-1396597805635502073,0.3676872253417969,21.788093363284133,-8.442069508940138,10.88640336309294,106,25,0.0,81935,121496373705270,14,35.6,70.19642639160156,0.04530000314116478,16,0.0,0.0,1575420030,,,,0,,1,1.55,32.6,,,,,,
Raw,1712569478440,6890805000000,18,,-1396597805635502073,0.3676872253417969,21.788093363284133,-8.442069508940138,10.88640336309294,106,28,0.0,81935,121496366898751,10,39.1,-204.7298126220703,0.03110000118613243,16,0.0,0.0,1575420030,,,,0,,1,1.55,36.1,,,,,,
Raw,1712569478440,6890805000000,18,,-1396597805635502073,0.3676872253417969,21.788093363284133,-8.442069508940138,10.88640336309294,106,29,0.0,81935,121496370844173,10,39.4,-126.1811294555664,0.03710000216960907,16,0.0,0.0,1575420030,,,,0,,1,1.55,36.4,,,,,,
Raw,1712569478440,6890805000000,18,,-1396597805635502073,0.3676872253417969,21.788093363284133,-8.442069508940138,10.88640336309294,106,31,0.0,81935,121496361299400,8,41.1,-476.32025146484375,0.022700000554323196,16,0.0,0.0,1575420030,,,,0,,1,1.55,38.1,,,,,,
Raw,1712569478440,6890805000000,18,,-1396597805635502073,0.3676872253417969,21.788093363284133,-8.442069508940138,10.88640336309294,106,2,0.0,16399,121482308872403,16,34.9,-9.534761428833008,7.051000118255615,16,0.0,0.0,1561097980,,,,0,,5,1.52,28.9,,,,,,
Raw,1712569478440,6890805000000,18,,-1396597805635502073,0.3676872253417969,21.788093363284133,-8.442069508940138,10.88640336309294,106,5,0.0,16399,121482312726169,14,36.7,-7.1246657371521,5.972299575805664,16,0.0,0.0,1561097980,,,,0,,5,1.52,30.700000000000003,,,,,,
Raw,1712569478440,6890805000000,18,,-1396597805635502073,0.3676872253417969,21.788093363284133,-8.442069508940138,10.88640336309294,106,8,0.0,16399,121482313029823,19,32.2,-166.44273376464844,0.06080000102519989,16,0.0,0.0,1561097980,,,,0,,5,1.52,26.200000000000003,,,,,,
Raw,1712569478440,6890805000000,18,,-1396597805635502073,0.3676872253417969,21.788093363284133,-8.442069508940138,10.88640336309294,106,10,0.0,16399,121482307766428,42,26.0,52.081111907958984,1.4270000457763672,16,0.0,0.0,1561097980,,,,0,,5,1.52,20.0,,,,,,
Raw,1712569478440,6890805000000,18,,-1396597805635502073,0.3676872253417969,21.788093363284133,-8.442069508940138,10.88640336309294,106,13,0.0,16399,121482313959395,19,32.9,-223.7630157470703,0.06080000102519989,16,0.0,0.0,1561097980,,,,0,,5,1.52,26.9,,,,,,
Raw,1712569478440,6890805000000,18,,-1396597805635502073,0.3676872253417969,21.788093363284133,-8.442069508940138,10.88640336309294,106,27,0.0,16399,121482367105420,24,30.5,279.0264892578125,0.392300009727478,16,0.0,0.0,1561097980,,,,0,,5,1.52,24.5,,,,,,
Raw,1712569478440,6890805000000,18,,-1396597805635502073,0.3676872253417969,21.788093363284133,-8.442069508940138,10.88640336309294,106,28,0.0,16399,121482355766813,31,28.4,549.52099609375,0.5989999771118164,16,0.0,0.0,1561097980,,,,0,,5,1.52,22.4,,,,,,
Raw,1712569478440,6890805000000,18,,-1396597805635502073,0.3676872253417969,21.788093363284133,-8.442069508940138,10.88640336309294,106,30,0.0,16399,121482366432309,12,37.1,-238.48948669433594,0.03290000185370445,16,0.0,0.0,1561097980,,,,0,,5,1.52,31.1,,,,,,
Raw,1712569478440,6890805000000,18,,-1396597805635502073,0.3676872253417969,21.788093363284133,-8.442069508940138,10.88640336309294,106,2,0.0,89103,121496355610576,9,40.5,-401.7165832519531,0.04410000145435333,16,0.0,0.0,1575420030,,,,0,,6,1.56,34.5,,,,,,
Raw,1712569478440,6890805000000,18,,-1396597805635502073,0.3676872253417969,21.788093363284133,-8.442069508940138,10.88640336309294,106,10,0.0,89103,121496357556883,27,29.0,310.38800048828125,0.5519999861717224,16,0.0,0.0,1575420030,,,,0,,6,1.56,23.0,,,,,,
Raw,1712569478440,6890805000000,18,,-1396597805635502073,0.3676872253417969,21.788093363284133,-8.442069508940138,10.88640336309294,106,11,0.0,89103,121496365154799,16,34.1,28.557186126708984,0.05220000445842743,16,0.0,0.0,1575420030,,,,0,,6,1.56,28.1,,,,,,
Raw,1712569478440,6890805000000,18,,-1396597805635502073,0.3676872253417969,21.788093363284133,-8.442069508940138,10.88640336309294,106,12,0.0,89103,121496350882402,46,25.6,479.65423583984375,0.7684999704360962,16,0.0,0.0,1575420030,,,,0,,6,1.56,19.6,,,,,,
Raw,1712569478440,6890805000000,18,,-1396597805635502073,0.3676872253417969,21.788093363284133,-8.442069508940138,10.88640336309294,106,24,0.0,89103,121496354196989,14,35.6,351.83807373046875,0.052800003439188004,16,0.0,0.0,1575420030,,,,0,,6,1.56,29.6,,,,,,
Raw,1712569478440,6890805000000,18,,-1396597805635502073,0.3676872253417969,21.788093363284133,-8.442069508940138,10.88640336309294,106,25,0.0,89103,121496362593111,40,26.8,-43.65336990356445,0.6934999823570251,16,0.0,0.0,1575420030,,,,0,,6,1.56,20.8,,,,,,
Raw,1712569478440,6890805000000,18,,-1396597805635502073,0.3676872253417969,21.788093363284133,-8.442069508940138,10.88640336309294,106,36,0.0,89103,121496357853139,12,37.7,-455.1365051269531,0.049400001764297485,16,0.0,0.0,1575420030,,,,0,,6,1.56,31.700000000000003,,,,,,
Fix,GPS,36.6351771300,29.0834718400,237.5455322265625,0.15,3.7900925,333.7,1712569479000,1.1200446,95.71087,5952136962625,3.0,0,,,
Fix,FLP,36.6351774000,29.0834719000,237.5455322265625,0.14894015,3.9,332.69177,1712569479470,1.1200446,95.71087,5952136962625,3.0,0,,,
Status,1712569479000,30,0,1,5,1575420030,42.60,115.0,20.0,1,1,1,37.6
Status,1712569479000,30,1,1,11,1575420030,37.40,43.0,26.0,1,1,1,32.4
Status,1712569479000,30,2,1,12,1575420030,36.60,102.0,47.0,1,1,1,31.6
Status,1712569479000,30,3,1,18,1575420030,34.40,202.0,23.0,1,1,1,29.4
Status,1712569479000,30,4,1,20,1575420030,32.20,78.0,24.0,1,1,1,27.2
Status,1712569479000,30,5,1,25,1575420030,38.50,63.0,77.0,1,1,1,33.5
Status,1712569479000,30,6,1,28,1575420030,43.50,293.0,39.0,1,1,1,38.5
Status,1712569479000,30,7,1,29,1575420030,42.70,298.0,63.0,1,1,1,37.7
Status,1712569479000,30,8,1,31,1575420030,47.20,314.0,18.0,1,1,1,42.2
Status,1712569479000,30,9,3,10,1602000000,35.50,330.0,54.0,0,1,0,30.5
Status,1712569479000,30,10,3,9,1602000000,36.20,129.0,74.0,1,1,0,31.2
Status,1712569479000,30,11,3,16,1602000000,32.20,140.0,18.0,1,1,1,27.2
Status,1712569479000,30,12,3,20,1602000000,25.10,237.0,65.0,0,1,0,20.1
Status,1712569479000,30,13,3,19,1602000000,28.90,26.0,42.0,0,1,0,23.9
Status,1712569479000,30,14,5,2,1561097980,38.60,112.0,18.0,1,1,0,33.6
Status,1712569479000,30,15,5,5,1561097980,42.10,136.0,35.0,1,1,0,37.1
Status,1712569479000,30,16,5,8,1561097980,33.60,68.0,35.0,1,1,0,28.6
Status,1712569479000,30,17,5,10,1561097980,32.70,84.0,15.0,1,1,0,27.7
Status,1712569479000,30,18,5,13,1561097980,38.50,85.0,38.0,1,1,1,33.5
Status,1712569479000,30,19,5,27,1561097980,44.40,36.0,61.0,0,1,0,39.4
Status,1712569479000,30,20,5,28,1561097980,30.40,49.0,16.0,0,1,0,25.4
Status,1712569479000,30,21,5,30,1561097980,44.50,248.0,59.0,1,1,1,39.5
Status,1712569479000,30,22,2,136,1575420030,36.70,0.0,0.0,0,0,0,31.7
Status,1712569479000,30,23,6,2,1575420030,48.20,310.0,34.0,1,1,0,43.2
Status,1712569479000,30,24,6,10,1575420030,41.50,49.0,45.0,1,1,0,36.5
Status,1712569479000,30,25,6,11,1575420030,37.60,85.0,70.0,0,1,0,32.6
Status,1712569479000,30,26,6,12,1575420030,36.00,39.0,22.0,1,1,0,31.0
Status,1712569479000,30,27,6,24,1575420030,38.90,111.0,32.0,1,1,0,33.9
Status,1712569479000,30,28,6,25,1575420030,38.80,32.0,76.0,1,1,0,33.8
Status,1712569479000,30,29,6,36,1575420030,38.20,192.0,45.0,1,1,0,33.2
Raw,1712569479440,6891805000000,18,,-1396597805635502082,0.8442230224609375,21.813813873450272,-8.07353016655656,9.533188808722613,106,10,0.0,49359,45879373465283,19,32.5,-458.59368896484375,0.26080000400543213,16,0.0,0.0,1598062460,,,,0,,3,0.6,29.5,,,,,,
Raw,1712569479440,6891805000000,18,,-1396597805635502082,0.8442230224609375,21.813813873450272,-8.07353016655656,9.533188808722613,106,9,0.0,49359,45879376398296,17,33.2,163.90676879882812,0.2573000192642212,16,0.0,0.0,1600875010,,,,0,,3,0.6,30.200000000000003,,,,,,
Raw,1712569479440,6891805000000,18,,-1396597805635502082,0.8442230224609375,21.813813873450272,-8.07353016655656,9.533188808722613,106,16,0.0,49359,45879364615013,27,29.2,709.8516845703125,0.872499942779541,16,0.0,0.0,1601437440,,,,0,,3,0.6,26.2,,,,,,
Raw,1712569479440,6891805000000,18,,-1396597805635502082,0.8442230224609375,21.813813873450272,-8.07353016655656,9.533188808722613,106,19,0.0,49359,45879370900317,46,25.9,584.6437377929688,1.131500005722046,16,0.0,0.0,1603687550,,,,0,,3,0.6,22.9,,,,,,
Raw,1712569479440,6891805000000,18,,-1396597805635502082,0.8442230224609375,21.813813873450272,-8.07353016655656,9.533188808722613,106,5,0.0,81935,121497361853555,10,39.6,-472.17156982421875,0.023600000888109207,16,0.0,0.0,1575420030,,,,0,,1,1.72,36.6,,,,,,
Raw,1712569479440,6891805000000,18,,-1396597805635502082,0.8442230224609375,21.813813873450272,-8.07353016655656,9.533188808722613,106,11,0.0,81935,121497362539274,16,34.4,550.934814453125,0.02969999983906746,16,0.0,0.0,1575420030,,,,0,,1,1.72,31.4,,,,,,
Raw,1712569479440,6891805000000,18,,-1396597805635502082,0.8442230224609375,21.813813873450272,-8.07353016655656,9.533188808722613,106,12,0.0,81935,121497368551574,17,33.6,375.0709533691406,0.04529999941587448,16,0.0,0.0,1575420030,,,,0,,1,1.72,30.6,,,,,,
Raw,1712569479440,6891805000000,18,,-1396597805635502082,0.8442230224609375,21.813813873450272,-8.07353016655656,9.533188808722613,106,18,0.0,81935,121497362019438,21,31.4,-667.7361450195312,0.11420000344514847,16,0.0,0.0,1575420030,,,,0,,1,1.72,28.4,,,,,,
Raw,1712569479440,6891805000000,18,,-1396597805635502082,0.8442230224609375,21.813813873450272,-8.07353016655656,9.533188808722613,106,20,0.0,81935,121497363132906,27,29.2,-103.78617095947266,0.6710000038146973,16,0.0,0.0,1575420030,,,,0,,1,1.72,26.2,,,,,,
Raw,1712569479440,6891805000000,18,,-1396597805635502082,0.8442230224609375,21.813813873450272,-8.07353016655656,9.533188808722613,106,25,0.0,81935,121497373705020,14,35.5,69.51963806152344,0.04530000314116478,16,0.0,0.0,1575420030,,,,0,,1,1.72,32.5,,,,,,
Raw,1712569479440,6891805000000,18,,-1396597805635502082,0.8442230224609375,21.813813873450272,-8.07353016655656,9.533188808722613,106,28,0.0,81935,121497366899423,9,40.5,-205.46136474609375,0.03060000203549862,16,0.0,0.0,1575420030,,,,0,,1,1.72,37.5,,,,,,
Raw,1712569479440,6891805000000,18,,-1396597805635502082,0.8442230224609375,21.813813873450272,-8.07353016655656,9.533188808722613,106,29,0.0,81935,121497370844602,10,39.7,-126.99923706054688,0.03710000216960907,16,0.0,0.0,1575420030,,,,0,,1,1.72,36.7,,,,,,
Raw,1712569479440,6891805000000,18,,-1396597805635502082,0.8442230224609375,21.813813873450272,-8.07353016655656,9.533188808722613,106,31,0.0,81935,121497361300995,6,44.2,-476.8494567871094,0.02110000140964985,16,0.0,0.0,1575420030,,,,0,,1,1.72,41.2,,,,,,
Raw,1712569479440,6891805000000,18,,-1396597805635502082,0.8442230224609375,21.813813873450272,-8.07353016655656,9.533188808722613,106,2,0.0,16399,121483308872429,20,32.6,-10.437346458435059,8.595999717712402,16,0.0,0.0,1561097980,,,,0,,5,1.74,26.6,,,,,,
Raw,1712569479440,6891805000000,18,,-1396597805635502082,0.8442230224609375,21.813813873450272,-8.07353016655656,9.533188808722613,106,5,0.0,16399,121483312726197,14,36.1,-8.123270034790039,5.972299575805664,16,0.0,0.0,1561097980,,,,0,,5,1.74,30.1,,,,,,
Raw,1712569479440,6891805000000,18,,-1396597805635502082,0.8442230224609375,21.813813873450272,-8.07353016655656,9.533188808722613,106,8,0.0,16399,121483313030397,35,27.6,-166.62306213378906,0.6360000371932983,16,0.0,0.0,1561097980,,,,0,,5,1.74,21.6,,,,,,
Raw,1712569479440,6891805000000,18,,-1396597805635502082,0.8442230224609375,21.813813873450272,-8.07353016655656,9.533188808722613,106,10,0.0,16399,121483307766254,40,26.7,50.87125778198242,0.6769999861717224,16,0.0,0.0,1561097980,,,,0,,5,1.74,20.7,,,,,,
Raw,1712569479440,6891805000000,18,,-1396597805635502082,0.8442230224609375,21.813813873450272,-8.07353016655656,9.533188808722613,106,13,0.0,16399,121483313960173,19,32.5,-224.38735961914062,0.06080000102519989,16,0.0,0.0,1561097980,,,,0,,5,1.74,26.5,,,,,,
Raw,1712569479440,6891805000000,18,,-1396597805635502082,0.8442230224609375,21.813813873450272,-8.07353016655656,9.533188808722613,106,27,0.0,16399,121483367104493,11,38.4,278.3291015625,0.033399999141693115,16,0.0,0.0,1561097980,,,,0,,5,1.74,32.4,,,,,,
Raw,1712569479440,6891805000000,18,,-1396597805635502082,0.8442230224609375,21.813813873450272,-8.07353016655656,9.533188808722613,106,28,0.0,16399,121483355765008,53,24.4,548.4071655273438,0.8089999556541443,16,0.0,0.0,1561097980,,,,0,,5,1.74,18.4,,,,,,
Raw,1712569479440,6891805000000,18,,-1396597805635502082,0.8442230224609375,21.813813873450272,-8.07353016655656,9.533188808722613,106,30,0.0,16399,121483366433118,11,38.5,-239.1011505126953,0.03189999982714653,16,0.0,0.0,1561097980,,,,0,,5,1.74,32.5,,,,,,
Raw,1712569479440,6891805000000,18,,-1396597805635502082,0.8442230224609375,21.813813873450272,-8.07353016655656,9.533188808722613,106,2,0.0,89103,121497355611924,7,42.2,-402.3307189941406,0.04309999942779541,16,0.0,0.0,1575420030,,,,0,,6,1.69,36.2,,,,,,
Raw,1712569479440,6891805000000,18,,-1396597805635502082,0.8442230224609375,21.813813873450272,-8.07353016655656,9.533188808722613,106,10,0.0,89103,121497357555810,14,35.5,309.76953125,0.3619999885559082,16,0.0,0.0,1575420030,,,,0,,6,1.69,29.5,,,,,,
Raw,1712569479440,6891805000000,18,,-1396597805635502082,0.8442230224609375,21.813813873450272,-8.07353016655656,9.533188808722613,106,11,0.0,89103,121497365154711,21,31.6,27.94637680053711,0.13670000433921814,16,0.0,0.0,1575420030,,,,0,,6,1.69,25.6,,,,,,
Raw,1712569479440,6891805000000,18,,-1396597805635502082,0.8442230224609375,21.813813873450272,-8.07353016655656,9.533188808722613,106,12,0.0,89103,121497350880809,24,30.0,479.6929931640625,0.423799991607666,16,0.0,0.0,1575420030,,,,0,,6,1.69,24.0,,,,,,
Raw,1712569479440,6891805000000,18,,-1396597805635502082,0.8442230224609375,21.813813873450272,-8.07353016655656,9.533188808722613,106,24,0.0,89103,121497354195810,19,32.9,351.675537109375,0.06830000132322311,16,0.0,0.0,1575420030,,,,0,,6,1.69,26.9,,,,,,
Raw,1712569479440,6891805000000,18,,-1396597805635502082,0.8442230224609375,21.813813873450272,-8.07353016655656,9.533188808722613,106,25,0.0,89103,121497362593243,19,32.8,-44.618560791015625,0.06830000132322311,16,0.0,0.0,1575420030,,,,0,,6,1.69,26.799999999999997,,,,,,
Raw,1712569479440,6891805000000,18,,-1396597805635502082,0.8442230224609375,21.813813873450272,-8.07353016655656,9.533188808722613,106,36,0.0,89103,121497357854677,19,32.2,-455.5809631347656,0.06680000573396683,16,0.0,0.0,1575420030,,,,0,,6,1.69,26.200000000000003,,,,,,
Fix,GPS,36.6351784100,29.0834717000,237.7567138671875,0.27,3.7900925,355.4,1712569480000,1.187013,90.68552,5953148501427,3.0,0,,,
Fix,FLP,36.6351784000,29.0834716000,237.7567138671875,0.26679236,3.9,354.9076,1712569480482,1.187013,90.68552,5953148501427,3.0,0,,,
Status,1712569480000,30,0,1,5,1575420030,32.10,115.0,20.0,1,1,1,27.1
Status,1712569480000,30,1,1,11,1575420030,41.20,43.0,26.0,1,1,1,36.2
Status,1712569480000,30,2,1,12,1575420030,35.60,102.0,47.0,1,1,1,30.6
Status,1712569480000,30,3,1,18,1575420030,35.10,202.0,23.0,1,1,1,30.1
Status,1712569480000,30,4,1,20,1575420030,35.60,78.0,24.0,1,1,1,30.6
Status,1712569480000,30,5,1,25,1575420030,31.60,63.0,77.0,1,1,1,26.6
Status,1712569480000,30,6,1,28,1575420030,48.70,293.0,39.0,1,1,1,43.7
Status,1712569480000,30,7,1,29,1575420030,44.70,298.0,63.0,1,1,1,39.7
Status,1712569480000,30,8,1,31,1575420030,42.10,314.0,18.0,1,1,1,37.1
Status,1712569480000,30,9,3,10,1602000000,34.30,330.0,54.0,0,1,0,29.3
Status,1712569480000,30,10,3,9,1602000000,32.20,129.0,74.0,1,1,0,27.2
Status,1712569480000,30,11,3,16,1602000000,35.30,140.0,18.0,1,1,1,30.3
Status,1712569480000,30,12,3,20,1602000000,25.10,237.0,65.0,0,1,0,20.1
Status,1712569480000,30,13,3,19,1602000000,31.70,26.0,42.0,1,1,0,26.7
Status,1712569480000,30,14,5,2,1561097980,38.60,112.0,18.0,1,1,0,33.6
Status,1712569480000,30,15,5,5,1561097980,42.10,136.0,35.0,1,1,0,37.1
Status,1712569480000,30,16,5,8,1561097980,36.80,68.0,35.0,1,1,0,31.8
Status,1712569480000,30,17,5,10,1561097980,32.70,84.0,15.0,1,1,0,27.7
Status,1712569480000,30,18,5,13,1561097980,41.60,85.0,38.0,1,1,1,36.6
