# 
# Header Description:
# 
# Version: v3.0.6.4 Platform: 13 Manufacturer: samsung Model: SM-A715F
# 
# Raw,utcTimeMillis,TimeNanos,LeapSecond,TimeUncertaintyNanos,FullBiasNanos,BiasNanos,BiasUncertaintyNanos,DriftNanosPerSecond,DriftUncertaintyNanosPerSecond,HardwareClockDiscontinuityCount,Svid,TimeOffsetNanos,State,ReceivedSvTimeNanos,ReceivedSvTimeUncertaintyNanos,Cn0DbHz,PseudorangeRateMetersPerSecond,PseudorangeRateUncertaintyMetersPerSecond,AccumulatedDeltaRangeState,AccumulatedDeltaRangeMeters,AccumulatedDeltaRangeUncertaintyMeters,CarrierFrequencyHz,CarrierCycles,CarrierPhase,CarrierPhaseUncertainty,MultipathIndicator,SnrInDb,ConstellationType,AgcDb,BasebandCn0DbHz,FullInterSignalBiasNanos,FullInterSignalBiasUncertaintyNanos,SatelliteInterSignalBiasNanos,SatelliteInterSignalBiasUncertaintyNanos,CodeType,ChipsetElapsedRealtimeNanos
# 
# UncalAccel,utcTimeMillis,elapsedRealtimeNanos,UncalAccelXMps2,UncalAccelYMps2,UncalAccelZMps2,BiasXMps2,BiasYMps2,BiasZMps2
# 
# Accel,utcTimeMillis,elapsedRealtimeNanos,AccelXMps2,AccelYMps2,AccelZMps2
# 
# UncalGyro,utcTimeMillis,elapsedRealtimeNanos,UncalGyroXRadPerSec,UncalGyroYRadPerSec,UncalGyroZRadPerSec,DriftXRadPerSec,DriftYRadPerSec,DriftZRadPerSec
# 
# Gyro,utcTimeMillis,elapsedRealtimeNanos,GyroXRadPerSec,GyroYRadPerSec,GyroZRadPerSec
# 
# UncalMag,utcTimeMillis,elapsedRealtimeNanos,UncalMagXMicroT,UncalMagYMicroT,UncalMagZMicroT,BiasXMicroT,BiasYMicroT,BiasZMicroT
# 
# Mag,utcTimeMillis,elapsedRealtimeNanos,MagXMicroT,MagYMicroT,MagZMicroT
# 
# OrientationDeg,utcTimeMillis,elapsedRealtimeNanos,yawDeg,rollDeg,pitchDeg
# 
# Fix,Provider,LatitudeDegrees,LongitudeDegrees,AltitudeMeters,SpeedMps,AccuracyMeters,BearingDegrees,UnixTimeMillis,SpeedAccuracyMps,BearingAccuracyDegrees,elapsedRealtimeNanos,VerticalAccuracyMeters,MockLocation,NumberOfUsedSignals,VerticalSpeedAccuracyMps,SolutionType
# 
# Nav,Svid,Type,Status,MessageId,Sub-messageId,Data(Bytes)
# 
# Status,UnixTimeMillis,SignalCount,SignalIndex,ConstellationType,Svid,CarrierFrequencyHz,Cn0DbHz,AzimuthDegrees,ElevationDegrees,UsedInFix,HasAlmanacData,HasEphemerisData,BasebandCn0DbHz
# 
# Agc,utcTimeMillis,TimeNanos,LeapSecond,TimeUncertaintyNanos,FullBiasNanos,BiasNanos,BiasUncertaintyNanos,DriftNanosPerSecond,DriftUncertaintyNanosPerSecond,HardwareClockDiscontinuityCount,AgcDb,CarrierFrequencyHz,ConstellationType
# 
Fix,FLP,36.5452667000,29.1228854000,31.299999237060547,0.39883912,3.878,226.36435,1712576567472,0.086023256,45.0,13040139868555,1.5045154,0,,,
Status,,38,0,1,5,1575420030,36.00,54.0,29.0,1,1,1,31.0
Status,,38,1,1,16,1575420030,29.30,316.0,13.0,0,1,1,24.3
Status,,38,2,1,18,1575420030,36.60,258.0,76.0,1,1,1,31.6
Status,,38,3,1,23,1575420030,44.80,170.0,24.0,1,1,1,39.8
Status,,38,4,1,25,1575420030,41.20,147.0,30.0,1,1,1,36.2
Status,,38,5,1,26,1575420030,37.20,305.0,45.0,1,1,1,32.2
Status,,38,6,1,28,1575420030,39.80,230.0,22.0,1,1,1,34.8
Status,,38,7,1,29,1575420030,44.90,54.0,52.0,1,1,1,39.9
Status,,38,8,1,31,1575420030,38.80,261.0,28.0,1,1,1,33.8
Status,,38,9,1,12,1575420030,0.00,139.0,3.0,0,1,1,0.0
Status,,38,10,1,15,1575420030,0.00,0.0,0.0,0,1,0,0.0
Status,,38,11,1,20,1575420030,0.00,35.0,4.0,0,1,1,0.0
Status,,38,12,3,10,1602000000,31.30,192.0,50.0,0,1,0,26.3
Status,,38,13,3,22,1602000000,40.30,250.0,9.0,1,1,0,35.3
Status,,38,14,3,9,1602000000,41.70,168.0,11.0,1,1,1,36.7
Status,,38,15,3,11,1602000000,35.60,303.0,54.0,1,1,1,30.6
Status,,38,16,3,20,1602000000,31.00,22.0,44.0,1,1,0,26.0
Status,,38,17,3,21,1602000000,37.00,286.0,49.0,1,1,1,32.0
Status,,38,18,3,4,1602000000,31.10,40.0,10.0,1,1,0,26.1
Status,,38,19,3,12,1602000000,0.00,333.0,3.0,0,1,0,0.0
Status,,38,20,3,5,1602000000,0.00,90.0,14.0,0,1,0,0.0
Status,,38,21,5,5,1561097980,43.70,135.0,37.0,1,1,0,38.7
Status,,38,22,5,8,1561097980,40.60,40.0,35.0,1,1,1,35.6
Status,,38,23,5,13,1561097980,44.50,53.0,47.0,1,1,1,39.5
Status,,38,24,5,27,1561097980,37.50,61.0,21.0,1,1,1,32.5
Status,,38,25,5,29,1561097980,41.80,277.0,39.0,1,1,1,36.8
Status,,38,26,5,30,1561097980,46.20,18.0,63.0,1,1,1,41.2
Status,,38,27,5,2,1561097980,0.00,111.0,19.0,0,1,0,0.0
Status,,38,28,5,10,1561097980,0.00,109.0,9.0,0,1,0,0.0
Status,,38,29,5,20,1561097980,0.00,158.0,4.0,0,1,0,0.0
Status,,38,30,2,136,1575420030,42.50,0.0,0.0,0,0,0,37.5
Status,,38,31,6,2,1575420030,31.90,295.0,73.0,1,1,0,26.9
Status,,38,32,6,11,1575420030,41.20,42.0,35.0,1,1,1,36.2
Status,,38,33,6,25,1575420030,46.90,147.0,48.0,1,1,0,41.9
Status,,38,34,6,30,1575420030,43.10,316.0,20.0,1,1,0,38.1
Status,,38,35,6,34,1575420030,41.60,233.0,35.0,1,1,0,36.6
Status,,38,36,6,36,1575420030,35.70,327.0,82.0,1,1,0,30.7
Status,,38,37,6,10,1575420030,0.00,45.0,8.0,0,1,0,0.0
Raw,1712576567437,13979802000000,18,,-1396597805635252505,-0.6302547454833984,24.536730052204803,-7.742423005609491,9.768542814461936,807,10,0.0,49359,52967369479203,31,28.3,551.2832641601562,0.9399999380111694,16,0.0,0.0,1598062460,,,,0,,3,0.42,25.3,,,,,,
Raw,1712576567437,13979802000000,18,,-1396597805635252505,-0.6302547454833984,24.536730052204803,-7.742423005609491,9.768542814461936,807,22,0.0,49359,52967358464383,12,37.3,-538.7050170898438,0.250900000333786,16,0.0,0.0,1600312450,,,,0,,3,0.42,34.3,,,,,,
Raw,1712576567437,13979802000000,18,,-1396597805635252505,-0.6302547454833984,24.536730052204803,-7.742423005609491,9.768542814461936,807,9,0.0,49359,52967359342710,11,38.7,843.2830200195312,0.2513999938964844,16,0.0,0.0,1600875010,,,,0,,3,0.42,35.7,,,,,,
Raw,1712576567437,13979802000000,18,,-1396597805635252505,-0.6302547454833984,24.536730052204803,-7.742423005609491,9.768542814461936,807,11,0.0,49359,52967370418661,19,32.6,-262.7146301269531,0.2563000023365021,16,0.0,0.0,1602000000,,,,0,,3,0.42,29.6,,,,,,
Raw,1712576567437,13979802000000,18,,-1396597805635252505,-0.6302547454833984,24.536730052204803,-7.742423005609491,9.768542814461936,807,20,0.0,49359,52967368209867,31,28.0,422.6687927246094,0.9384999871253967,16,0.0,0.0,1603124990,,,,0,,3,0.42,25.0,,,,,,
Raw,1712576567437,13979802000000,18,,-1396597805635252505,-0.6302547454833984,24.536730052204803,-7.742423005609491,9.768542814461936,807,21,0.0,49359,52967369368898,16,34.0,-177.04953002929688,0.2401999980211258,16,0.0,0.0,1604249980,,,,0,,3,0.42,31.0,,,,,,
Raw,1712576567437,13979802000000,18,,-1396597805635252505,-0.6302547454833984,24.536730052204803,-7.742423005609491,9.768542814461936,807,4,0.0,49359,52967358881188,31,28.1,17.94599723815918,0.953499972820282,16,0.0,0.0,1605374980,,,,0,,3,0.42,25.1,,,,,,
Raw,1712576567437,13979802000000,18,,-1396597805635252505,-0.6302547454833984,24.536730052204803,-7.742423005609491,9.768542814461936,807,5,0.0,81935,128585361479442,17,33.0,303.8878479003906,0.03480000048875809,16,0.0,0.0,1575420030,,,,0,,1,0.3,30.0,,,,,,
Raw,1712576567437,13979802000000,18,,-1396597805635252505,-0.6302547454833984,24.536730052204803,-7.742423005609491,9.768542814461936,807,16,0.0,81935,128585356834867,40,26.3,-651.9176025390625,0.8704999685287476,16,0.0,0.0,1575420030,,,,0,,1,0.3,23.3,,,,,,
Raw,1712576567437,13979802000000,18,,-1396597805635252505,-0.6302547454833984,24.536730052204803,-7.742423005609491,9.768542814461936,807,18,0.0,81935,128585368631165,17,33.6,-103.80269622802734,0.04529999941587448,16,0.0,0.0,1575420030,,,,0,,1,0.3,30.6,,,,,,
Raw,1712576567437,13979802000000,18,,-1396597805635252505,-0.6302547454833984,24.536730052204803,-7.742423005609491,9.768542814461936,807,23,0.0,81935,128585359777819,8,41.8,-656.2698364257812,0.019700000062584877,16,0.0,0.0,1575420030,,,,0,,1,0.3,38.8,,,,,,
Raw,1712576567437,13979802000000,18,,-1396597805635252505,-0.6302547454833984,24.536730052204803,-7.742423005609491,9.768542814461936,807,25,0.0,81935,128585361487173,11,38.2,638.170166015625,0.024400001391768456,16,0.0,0.0,1575420030,,,,0,,1,0.3,35.2,,,,,,
Raw,1712576567437,13979802000000,18,,-1396597805635252505,-0.6302547454833984,24.536730052204803,-7.742423005609491,9.768542814461936,807,26,0.0,81935,128585365480922,16,34.2,-372.5832214355469,0.03420000150799751,16,0.0,0.0,1575420030,,,,0,,1,0.3,31.200000000000003,,,,,,
Raw,1712576567437,13979802000000,18,,-1396597805635252505,-0.6302547454833984,24.536730052204803,-7.742423005609491,9.768542814461936,807,28,0.0,81935,128585358858777,13,36.8,507.6367492675781,0.05220000445842743,16,0.0,0.0,1575420030,,,,0,,1,0.3,33.8,,,,,,
Raw,1712576567437,13979802000000,18,,-1396597805635252505,-0.6302547454833984,24.536730052204803,-7.742423005609491,9.768542814461936,807,29,0.0,81935,128585366199196,8,41.9,217.8612823486328,0.03020000085234642,16,0.0,0.0,1575420030,,,,0,,1,0.3,38.9,,,,,,
Raw,1712576567437,13979802000000,18,,-1396597805635252505,-0.6302547454833984,24.536730052204803,-7.742423005609491,9.768542814461936,807,31,0.0,81935,128585360121105,14,35.8,301.3226013183594,0.025800000876188278,16,0.0,0.0,1575420030,,,,0,,1,0.3,32.8,,,,,,
Raw,1712576567437,13979802000000,18,,-1396597805635252505,-0.6302547454833984,24.536730052204803,-7.742423005609491,9.768542814461936,807,5,0.0,16399,128571309662111,12,37.7,-8.027250289916992,5.490499973297119,16,0.0,0.0,1561097980,,,,0,,5,0.71,31.700000000000003,,,,,,
Raw,1712576567437,13979802000000,18,,-1396597805635252505,-0.6302547454833984,24.536730052204803,-7.742423005609491,9.768542814461936,807,8,0.0,16399,128571310128655,16,34.6,116.57427978515625,0.04170000180602074,16,0.0,0.0,1561097980,,,,0,,5,0.71,28.6,,,,,,
Raw,1712576567437,13979802000000,18,,-1396597805635252505,-0.6302547454833984,24.536730052204803,-7.742423005609491,9.768542814461936,807,13,0.0,16399,128571312728356,11,38.5,42.88462448120117,0.04090000316500664,16,0.0,0.0,1561097980,,,,0,,5,0.71,32.5,,,,,,
Raw,1712576567437,13979802000000,18,,-1396597805635252505,-0.6302547454833984,24.536730052204803,-7.742423005609491,9.768542814461936,807,27,0.0,16399,128571354471735,21,31.5,444.1509704589844,0.13220000267028809,16,0.0,0.0,1561097980,,,,0,,5,0.71,25.5,,,,,,
Raw,1712576567437,13979802000000,18,,-1396597805635252505,-0.6302547454833984,24.536730052204803,-7.742423005609491,9.768542814461936,807,29,0.0,16399,128571359565726,14,35.8,-305.74334716796875,0.024300001561641693,16,0.0,0.0,1561097980,,,,0,,5,0.71,29.799999999999997,,,,,,
Raw,1712576567437,13979802000000,18,,-1396597805635252505,-0.6302547454833984,24.536730052204803,-7.742423005609491,9.768542814461936,807,30,0.0,16399,128571363769157,9,40.2,139.71826171875,0.026100002229213715,16,0.0,0.0,1561097980,,,,0,,5,0.71,34.2,,,,,,
Raw,1712576567437,13979802000000,18,,-1396597805635252505,-0.6302547454833984,24.536730052204803,-7.742423005609491,9.768542814461936,807,2,0.0,89103,128585359224358,46,25.9,-106.0601806640625,0.7549999952316284,16,0.0,0.0,1575420030,,,,0,,6,0.27,19.9,,,,,,
Raw,1712576567437,13979802000000,18,,-1396597805635252505,-0.6302547454833984,24.536730052204803,-7.742423005609491,9.768542814461936,807,11,0.0,89103,128585355395693,14,35.2,431.9512939453125,0.05430000275373459,16,0.0,0.0,1575420030,,,,0,,6,0.27,29.200000000000003,,,,,,
Raw,1712576567437,13979802000000,18,,-1396597805635252505,-0.6302547454833984,24.536730052204803,-7.742423005609491,9.768542814461936,807,25,0.0,89103,128585355512798,9,40.9,383.13580322265625,0.04410000145435333,16,0.0,0.0,1575420030,,,,0,,6,0.27,34.9,,,,,,
Raw,1712576567437,13979802000000,18,,-1396597805635252505,-0.6302547454833984,24.536730052204803,-7.742423005609491,9.768542814461936,807,30,0.0,89103,128585348008759,12,37.1,-494.1900634765625,0.0478999987244606,16,0.0,0.0,1575420030,,,,0,,6,0.27,31.1,,,,,,
Raw,1712576567437,13979802000000,18,,-1396597805635252505,-0.6302547454833984,24.536730052204803,-7.742423005609491,9.768542814461936,807,34,0.0,89103,128585352339040,14,35.6,-387.0073547363281,0.049800001084804535,16,0.0,0.0,1575420030,,,,0,,6,0.27,29.6,,,,,,
Raw,1712576567437,13979802000000,18,,-1396597805635252505,-0.6302547454833984,24.536730052204803,-7.742423005609491,9.768542814461936,807,36,0.0,89103,128585359423782,27,29.7,45.898834228515625,0.5550000071525574,16,0.0,0.0,1575420030,,,,0,,6,0.27,23.7,,,,,,
Fix,GPS,36.5452633700,29.1228837300,20.2515869140625,0.0,3.7900925,,1712576568000,0.086023256,,13041116345690,3.0,0,,,
Fix,FLP,36.5452635000,29.1228836000,31.299999237060547,0.3965277,3.881,212.95238,1712576568450,0.086023256,45.0,13041116345690,1.5142802,0,,,
Status,1712576568000,38,0,1,5,1575420030,44.00,54.0,29.0,1,1,1,39.0
Status,1712576568000,38,1,1,16,1575420030,44.70,316.0,13.0,1,1,1,39.7
Status,1712576568000,38,2,1,18,1575420030,40.90,258.0,76.0,1,1,1,35.9
Status,1712576568000,38,3,1,23,1575420030,44.70,170.0,24.0,1,1,1,39.7
Status,1712576568000,38,4,1,25,1575420030,42.60,147.0,30.0,1,1,1,37.6
Status,1712576568000,38,5,1,26,1575420030,40.90,305.0,45.0,1,1,1,35.9
Status,1712576568000,38,6,1,28,1575420030,37.40,230.0,22.0,1,1,1,32.4
Status,1712576568000,38,7,1,29,1575420030,41.70,54.0,52.0,1,1,1,36.7
Status,1712576568000,38,8,1,31,1575420030,40.90,261.0,28.0,1,1,1,35.9
Status,1712576568000,38,9,1,12,1575420030,0.00,139.0,3.0,0,1,1,0.0
Status,1712576568000,38,10,1,15,1575420030,0.00,0.0,0.0,0,1,0,0.0
Status,1712576568000,38,11,1,20,1575420030,0.00,35.0,4.0,0,1,1,0.0
Status,1712576568000,38,12,3,10,1602000000,34.60,192.0,50.0,0,1,0,29.6
Status,1712576568000,38,13,3,22,1602000000,36.60,250.0,9.0,1,1,0,31.6
Status,1712576568000,38,14,3,9,1602000000,38.00,168.0,11.0,1,1,1,33.0
Status,1712576568000,38,15,3,11,1602000000,38.30,303.0,54.0,1,1,1,33.3
Status,1712576568000,38,16,3,20,1602000000,30.00,22.0,44.0,1,1,0,25.0
Status,1712576568000,38,17,3,21,1602000000,40.10,286.0,49.0,1,1,1,35.1
Status,1712576568000,38,18,3,4,1602000000,33.10,40.0,10.0,1,1,0,28.1
Status,1712576568000,38,19,3,12,1602000000,0.00,333.0,3.0,0,1,0,0.0
Status,1712576568000,38,20,3,5,1602000000,0.00,90.0,14.0,0,1,0,0.0
Status,1712576568000,38,21,5,5,1561097980,41.80,135.0,37.0,1,1,0,36.8
Status,1712576568000,38,22,5,8,1561097980,41.00,40.0,35.0,1,1,1,36.0
Status,1712576568000,38,23,5,13,1561097980,40.30,53.0,47.0,1,1,1,35.3
Status,1712576568000,38,24,5,27,1561097980,44.60,61.0,21.0,1,1,1,39.6
Status,1712576568000,38,25,5,29,1561097980,43.30,277.0,39.0,1,1,1,38.3
Status,1712576568000,38,26,5,30,1561097980,44.00,18.0,63.0,1,1,1,39.0
Status,1712576568000,38,27,5,2,1561097980,0.00,111.0,19.0,0,1,0,0.0
Status,1712576568000,38,28,5,10,1561097980,0.00,109.0,9.0,0,1,0,0.0
Status,1712576568000,38,29,5,20,1561097980,0.00,158.0,4.0,0,1,0,0.0
Status,1712576568000,38,30,2,136,1575420030,37.70,0.0,0.0,0,0,0,32.7
Status,1712576568000,38,31,6,2,1575420030,41.70,295.0,73.0,1,1,0,36.7
Status,1712576568000,38,32,6,11,1575420030,40.80,42.0,35.0,1,1,1,35.8
Status,1712576568000,38,33,6,25,1575420030,45.50,147.0,48.0,1,1,0,40.5
Status,1712576568000,38,34,6,30,1575420030,42.00,316.0,20.0,1,1,0,37.0
Status,1712576568000,38,35,6,34,1575420030,40.80,233.0,35.0,1,1,0,35.8
Status,1712576568000,38,36,6,36,1575420030,41.10,327.0,82.0,1,1,0,36.1
Status,1712576568000,38,37,6,10,1575420030,0.00,45.0,8.0,0,1,0,0.0
Raw,1712576568437,13980802000000,18,,-1396597805635252504,-0.3487548828125,26.27065623528324,-3.010438934767166,10.665363580045803,807,10,0.0,49359,52968369477215,21,31.6,550.8731689453125,0.3246999979019165,16,0.0,0.0,1598062460,,,,0,,3,0.47,28.6,,,,,,
Raw,1712576568437,13980802000000,18,,-1396597805635252504,-0.3487548828125,26.27065623528324,-3.010438934767166,10.665363580045803,807,22,0.0,49359,52968358466134,17,33.6,-538.6187744140625,0.26030001044273376,16,0.0,0.0,1600312450,,,,0,,3,0.47,30.6,,,,,,
Raw,1712576568437,13980802000000,18,,-1396597805635252504,-0.3487548828125,26.27065623528324,-3.010438934767166,10.665363580045803,807,9,0.0,49359,52968359339877,14,35.0,842.37451171875,0.25429999828338623,16,0.0,0.0,1600875010,,,,0,,3,0.47,32.0,,,,,,
Raw,1712576568437,13980802000000,18,,-1396597805635252504,-0.3487548828125,26.27065623528324,-3.010438934767166,10.665363580045803,807,11,0.0,49359,52968370419517,14,35.3,-262.5459289550781,0.24079999327659607,16,0.0,0.0,1602000000,,,,0,,3,0.47,32.3,,,,,,
Raw,1712576568437,13980802000000,18,,-1396597805635252504,-0.3487548828125,26.27065623528324,-3.010438934767166,10.665363580045803,807,20,0.0,49359,52968368208498,35,27.0,422.1826171875,0.9984999895095825,16,0.0,0.0,1603124990,,,,0,,3,0.47,24.0,,,,,,
Raw,1712576568437,13980802000000,18,,-1396597805635252504,-0.3487548828125,26.27065623528324,-3.010438934767166,10.665363580045803,807,21,0.0,49359,52968369369483,12,37.1,-177.19381713867188,0.23740001022815704,16,0.0,0.0,1604249980,,,,0,,3,0.47,34.1,,,,,,
Raw,1712576568437,13980802000000,18,,-1396597805635252504,-0.3487548828125,26.27065623528324,-3.010438934767166,10.665363580045803,807,4,0.0,49359,52968358881302,24,30.1,18.198251724243164,0.6087999939918518,16,0.0,0.0,1605374980,,,,0,,3,0.47,27.1,,,,,,
Raw,1712576568437,13980802000000,18,,-1396597805635252504,-0.3487548828125,26.27065623528324,-3.010438934767166,10.665363580045803,807,5,0.0,81935,128586361478437,8,41.0,303.6604919433594,0.022700000554323196,16,0.0,0.0,1575420030,,,,0,,1,0.27,38.0,,,,,,
Raw,1712576568437,13980802000000,18,,-1396597805635252504,-0.3487548828125,26.27065623528324,-3.010438934767166,10.665363580045803,807,16,0.0,81935,128586356837054,8,41.7,-651.4628295898438,0.04520000144839287,16,0.0,0.0,1575420030,,,,0,,1,0.27,38.7,,,,,,
Raw,1712576568437,13980802000000,18,,-1396597805635252504,-0.3487548828125,26.27065623528324,-3.010438934767166,10.665363580045803,807,18,0.0,81935,128586368631527,12,37.9,-103.58769989013672,0.03590000048279762,16,0.0,0.0,1575420030,,,,0,,1,0.27,34.9,,,,,,
Raw,1712576568437,13980802000000,18,,-1396597805635252504,-0.3487548828125,26.27065623528324,-3.010438934767166,10.665363580045803,807,23,0.0,81935,128586359780016,8,41.7,-657.1338500976562,0.019700000062584877,16,0.0,0.0,1575420030,,,,0,,1,0.27,38.7,,,,,,
Raw,1712576568437,13980802000000,18,,-1396597805635252504,-0.3487548828125,26.27065623528324,-3.010438934767166,10.665363580045803,807,25,0.0,81935,128586361485017,10,39.6,637.3744506835938,0.023600000888109207,16,0.0,0.0,1575420030,,,,0,,1,0.27,36.6,,,,,,
Raw,1712576568437,13980802000000,18,,-1396597805635252504,-0.3487548828125,26.27065623528324,-3.010438934767166,10.665363580045803,807,26,0.0,81935,128586365482166,12,37.9,-372.2535400390625,0.03139999881386757,16,0.0,0.0,1575420030,,,,0,,1,0.27,34.9,,,,,,
Raw,1712576568437,13980802000000,18,,-1396597805635252504,-0.3487548828125,26.27065623528324,-3.010438934767166,10.665363580045803,807,28,0.0,81935,128586358857057,16,34.4,507.42669677734375,0.053700003772974014,16,0.0,0.0,1575420030,,,,0,,1,0.27,31.4,,,,,,
Raw,1712576568437,13980802000000,18,,-1396597805635252504,-0.3487548828125,26.27065623528324,-3.010438934767166,10.665363580045803,807,29,0.0,81935,128586366198453,11,38.7,217.61038208007812,0.03189999982714653,16,0.0,0.0,1575420030,,,,0,,1,0.27,35.7,,,,,,
Raw,1712576568437,13980802000000,18,,-1396597805635252504,-0.3487548828125,26.27065623528324,-3.010438934767166,10.665363580045803,807,31,0.0,81935,128586360120092,12,37.9,301.2798767089844,0.023900000378489494,16,0.0,0.0,1575420030,,,,0,,1,0.27,34.9,,,,,,
Raw,1712576568437,13980802000000,18,,-1396597805635252504,-0.3487548828125,26.27065623528324,-3.010438934767166,10.665363580045803,807,5,0.0,16399,128572309662147,14,35.8,-5.88601016998291,6.367099761962891,16,0.0,0.0,1561097980,,,,0,,5,0.79,29.799999999999997,,,,,,
Raw,1712576568437,13980802000000,18,,-1396597805635252504,-0.3487548828125,26.27065623528324,-3.010438934767166,10.665363580045803,807,8,0.0,16399,128572310128267,14,35.0,116.40139770507812,0.040800001472234726,16,0.0,0.0,1561097980,,,,0,,5,0.79,29.0,,,,,,
Raw,1712576568437,13980802000000,18,,-1396597805635252504,-0.3487548828125,26.27065623528324,-3.010438934767166,10.665363580045803,807,13,0.0,16399,128572312728220,16,34.3,42.638214111328125,0.044700004160404205,16,0.0,0.0,1561097980,,,,0,,5,0.79,28.299999999999997,,,,,,
Raw,1712576568437,13980802000000,18,,-1396597805635252504,-0.3487548828125,26.27065623528324,-3.010438934767166,10.665363580045803,807,27,0.0,16399,128572354470257,11,38.6,443.9266052246094,0.04390000179409981,16,0.0,0.0,1561097980,,,,0,,5,0.79,32.6,,,,,,
Raw,1712576568437,13980802000000,18,,-1396597805635252504,-0.3487548828125,26.27065623528324,-3.010438934767166,10.665363580045803,807,29,0.0,16399,128572359566755,12,37.3,-305.8546447753906,0.02240000106394291,16,0.0,0.0,1561097980,,,,0,,5,0.79,31.299999999999997,,,,,,
Raw,1712576568437,13980802000000,18,,-1396597805635252504,-0.3487548828125,26.27065623528324,-3.010438934767166,10.665363580045803,807,30,0.0,16399,128572363768694,11,38.0,139.50112915039062,0.027400001883506775,16,0.0,0.0,1561097980,,,,0,,5,0.79,32.0,,,,,,
Raw,1712576568437,13980802000000,18,,-1396597805635252504,-0.3487548828125,26.27065623528324,-3.010438934767166,10.665363580045803,807,2,0.0,89103,128586359224704,14,35.7,-106.60958099365234,0.05430000275373459,16,0.0,0.0,1575420030,,,,0,,6,0.27,29.700000000000003,,,,,,
Raw,1712576568437,13980802000000,18,,-1396597805635252504,-0.3487548828125,26.27065623528324,-3.010438934767166,10.665363580045803,807,11,0.0,89103,128586355394252,16,34.8,431.83123779296875,0.0552000030875206,16,0.0,0.0,1575420030,,,,0,,6,0.27,28.799999999999997,,,,,,
Raw,1712576568437,13980802000000,18,,-1396597805635252504,-0.3487548828125,26.27065623528324,-3.010438934767166,10.665363580045803,807,25,0.0,89103,128586355511519,10,39.5,382.6251525878906,0.044600002467632294,16,0.0,0.0,1575420030,,,,0,,6,0.27,33.5,,,,,,
Raw,1712576568437,13980802000000,18,,-1396597805635252504,-0.3487548828125,26.27065623528324,-3.010438934767166,10.665363580045803,807,30,0.0,89103,128586348010403,13,36.0,-494.18359375,0.04919999837875366,16,0.0,0.0,1575420030,,,,0,,6,0.27,30.0,,,,,,
Raw,1712576568437,13980802000000,18,,-1396597805635252504,-0.3487548828125,26.27065623528324,-3.010438934767166,10.665363580045803,807,34,0.0,89103,128586352340328,16,34.8,-387.41204833984375,0.050700001418590546,16,0.0,0.0,1575420030,,,,0,,6,0.27,28.799999999999997,,,,,,
Raw,1712576568437,13980802000000,18,,-1396597805635252504,-0.3487548828125,26.27065623528324,-3.010438934767166,10.665363580045803,807,36,0.0,89103,128586359423640,14,35.1,45.67613220214844,0.05430000275373459,16,0.0,0.0,1575420030,,,,0,,6,0.27,29.1,,,,,,
Fix,GPS,36.5452590800,29.1228866900,20.73248291015625,0.56,3.7900925,264.3,1712576569000,0.85982555,44.977703,13042135255637,3.0,0,,,
Fix,FLP,36.5452594000,29.1228859000,31.299999237060547,0.555304,3.9,263.87076,1712576569468,0.85982555,44.977703,13042135255637,1.5244694,0,,,
Status,1712576569000,38,0,1,5,1575420030,43.90,54.0,29.0,1,1,1,38.9
Status,1712576569000,38,1,1,16,1575420030,45.60,316.0,13.0,1,1,1,40.6
Status,1712576569000,38,2,1,18,1575420030,38.30,258.0,76.0,1,1,1,33.3
Status,1712576569000,38,3,1,23,1575420030,40.60,170.0,24.0,1,1,1,35.6
Status,1712576569000,38,4,1,25,1575420030,38.80,147.0,30.0,1,1,1,33.8
Status,1712576569000,38,5,1,26,1575420030,43.00,305.0,45.0,1,1,1,38.0
Status,1712576569000,38,6,1,28,1575420030,37.20,230.0,22.0,1,1,1,32.2
Status,1712576569000,38,7,1,29,1575420030,42.50,54.0,52.0,1,1,1,37.5
Status,1712576569000,38,8,1,31,1575420030,44.40,261.0,28.0,1,1,1,39.4
Status,1712576569000,38,9,1,12,1575420030,0.00,139.0,3.0,0,1,1,0.0
Status,1712576569000,38,10,1,15,1575420030,0.00,0.0,0.0,0,1,0,0.0
Status,1712576569000,38,11,1,20,1575420030,0.00,35.0,4.0,0,1,1,0.0
Status,1712576569000,38,12,3,10,1602000000,30.70,192.0,50.0,0,1,0,25.7
Status,1712576569000,38,13,3,22,1602000000,38.80,250.0,9.0,1,1,0,33.8
Status,1712576569000,38,14,3,9,1602000000,37.10,168.0,11.0,1,1,1,32.1
Status,1712576569000,38,15,3,11,1602000000,43.50,303.0,54.0,1,1,1,38.5
Status,1712576569000,38,16,3,20,1602000000,28.20,22.0,44.0,1,1,0,23.2
Status,1712576569000,38,17,3,21,1602000000,43.80,286.0,49.0,1,1,1,38.8
Status,1712576569000,38,18,3,4,1602000000,28.60,40.0,10.0,1,1,0,23.6
Status,1712576569000,38,19,3,12,1602000000,0.00,333.0,3.0,0,1,0,0.0
Status,1712576569000,38,20,3,5,1602000000,0.00,90.0,14.0,0,1,0,0.0
Status,1712576569000,38,21,5,5,1561097980,41.80,135.0,37.0,1,1,0,36.8
Status,1712576569000,38,22,5,8,1561097980,36.60,40.0,35.0,1,1,1,31.6
Status,1712576569000,38,23,5,13,1561097980,40.70,53.0,47.0,1,1,1,35.7
Status,1712576569000,38,24,5,27,1561097980,47.80,61.0,21.0,1,1,1,42.8
Status,1712576569000,38,25,5,29,1561097980,48.50,277.0,39.0,1,1,1,43.5
Status,1712576569000,38,26,5,30,1561097980,42.20,18.0,63.0,1,1,1,37.2
Status,1712576569000,38,27,5,2,1561097980,0.00,111.0,19.0,0,1,0,0.0
Status,1712576569000,38,28,5,10,1561097980,0.00,109.0,9.0,0,1,0,0.0
Status,1712576569000,38,29,5,20,1561097980,0.00,158.0,4.0,0,1,0,0.0
Status,1712576569000,38,30,2,136,1575420030,39.10,0.0,0.0,0,0,0,34.1
Status,1712576569000,38,31,6,2,1575420030,42.80,295.0,73.0,1,1,0,37.8
Status,1712576569000,38,32,6,11,1575420030,38.10,42.0,35.0,1,1,1,33.1
Status,1712576569000,38,33,6,25,1575420030,40.30,147.0,48.0,1,1,0,35.3
Status,1712576569000,38,34,6,30,1575420030,43.30,316.0,20.0,1,1,0,38.3
Status,1712576569000,38,35,6,34,1575420030,40.20,233.0,35.0,1,1,0,35.2
Status,1712576569000,38,36,6,36,1575420030,41.00,327.0,82.0,1,1,0,36.0
Status,1712576569000,38,37,6,10,1575420030,0.00,45.0,8.0,0,1,0,0.0
Raw,1712576569437,13981802000000,18,,-1396597805635252502,-0.5010108947753906,28.88546441681683,-4.100426354031466,16.393312043922226,807,10,0.0,49359,52969369475451,35,27.7,549.7261962890625,1.0,16,0.0,0.0,1598062460,,,,0,,3,0.35,24.7,,,,,,
Raw,1712576569437,13981802000000,18,,-1396597805635252502,-0.5010108947753906,28.88546441681683,-4.100426354031466,16.393312043922226,807,22,0.0,49359,52969358468003,14,35.8,-540.7593383789062,0.25279998779296875,16,0.0,0.0,1600312450,,,,0,,3,0.35,32.8,,,,,,
Raw,1712576569437,13981802000000,18,,-1396597805635252502,-0.5010108947753906,28.88546441681683,-4.100426354031466,16.393312043922226,807,9,0.0,49359,52969359337064,16,34.1,841.6328125,0.25519999861717224,16,0.0,0.0,1600875010,,,,0,,3,0.35,31.1,,,,,,
Raw,1712576569437,13981802000000,18,,-1396597805635252502,-0.5010108947753906,28.88546441681683,-4.100426354031466,16.393312043922226,807,11,0.0,49359,52969370420381,9,40.5,-264.515869140625,0.23659999668598175,16,0.0,0.0,1602000000,,,,0,,3,0.35,37.5,,,,,,
Raw,1712576569437,13981802000000,18,,-1396597805635252502,-0.5010108947753906,28.88546441681683,-4.100426354031466,16.393312043922226,807,20,0.0,49359,52969368207073,46,25.2,421.0325012207031,1.128499984741211,16,0.0,0.0,1603124990,,,,0,,3,0.35,22.2,,,,,,
Raw,1712576569437,13981802000000,18,,-1396597805635252502,-0.5010108947753906,28.88546441681683,-4.100426354031466,16.393312043922226,807,21,0.0,49359,52969369370098,9,40.8,-178.89431762695312,0.23510000109672546,16,0.0,0.0,1604249980,,,,0,,3,0.35,37.8,,,,,,
Raw,1712576569437,13981802000000,18,,-1396597805635252502,-0.5010108947753906,28.88546441681683,-4.100426354031466,16.393312043922226,807,4,0.0,49359,52969358881044,46,25.6,18.41285514831543,1.1434999704360962,16,0.0,0.0,1605374980,,,,0,,3,0.35,22.6,,,,,,
Raw,1712576569437,13981802000000,18,,-1396597805635252502,-0.5010108947753906,28.88546441681683,-4.100426354031466,16.393312043922226,807,5,0.0,81935,128587361477430,9,40.9,302.9408874511719,0.023100001737475395,16,0.0,0.0,1575420030,,,,0,,1,0.24,37.9,,,,,,
Raw,1712576569437,13981802000000,18,,-1396597805635252502,-0.5010108947753906,28.88546441681683,-4.100426354031466,16.393312043922226,807,16,0.0,81935,128587356839239,7,42.6,-653.6198120117188,0.044599998742341995,16,0.0,0.0,1575420030,,,,0,,1,0.24,39.6,,,,,,
Raw,1712576569437,13981802000000,18,,-1396597805635252502,-0.5010108947753906,28.88546441681683,-4.100426354031466,16.393312043922226,807,18,0.0,81935,128587368631879,14,35.3,-104.9759292602539,0.037800002843141556,16,0.0,0.0,1575420030,,,,0,,1,0.24,32.3,,,,,,
Raw,1712576569437,13981802000000,18,,-1396597805635252502,-0.5010108947753906,28.88546441681683,-4.100426354031466,16.393312043922226,807,23,0.0,81935,128587359782195,12,37.6,-657.8021240234375,0.02240000106394291,16,0.0,0.0,1575420030,,,,0,,1,0.24,34.6,,,,,,
Raw,1712576569437,13981802000000,18,,-1396597805635252502,-0.5010108947753906,28.88546441681683,-4.100426354031466,16.393312043922226,807,25,0.0,81935,128587361482891,14,35.8,636.7747192382812,0.027300000190734863,16,0.0,0.0,1575420030,,,,0,,1,0.24,32.8,,,,,,
Raw,1712576569437,13981802000000,18,,-1396597805635252502,-0.5010108947753906,28.88546441681683,-4.100426354031466,16.393312043922226,807,26,0.0,81935,128587365483382,9,40.0,-374.2586669921875,0.029100000858306885,16,0.0,0.0,1575420030,,,,0,,1,0.24,37.0,,,,,,
Raw,1712576569437,13981802000000,18,,-1396597805635252502,-0.5010108947753906,28.88546441681683,-4.100426354031466,16.393312043922226,807,28,0.0,81935,128587358855337,16,34.2,505.6390380859375,0.053700003772974014,16,0.0,0.0,1575420030,,,,0,,1,0.24,31.200000000000003,,,,,,
Raw,1712576569437,13981802000000,18,,-1396597805635252502,-0.5010108947753906,28.88546441681683,-4.100426354031466,16.393312043922226,807,29,0.0,81935,128587366197723,10,39.5,216.56265258789062,0.03110000118613243,16,0.0,0.0,1575420030,,,,0,,1,0.24,36.5,,,,,,
Raw,1712576569437,13981802000000,18,,-1396597805635252502,-0.5010108947753906,28.88546441681683,-4.100426354031466,16.393312043922226,807,31,0.0,81935,128587360119117,8,41.4,299.435791015625,0.021199999377131462,16,0.0,0.0,1575420030,,,,0,,1,0.24,38.4,,,,,,
Raw,1712576569437,13981802000000,18,,-1396597805635252502,-0.5010108947753906,28.88546441681683,-4.100426354031466,16.393312043922226,807,8,0.0,16399,128573310127892,24,30.6,115.2613296508789,0.3968000113964081,16,0.0,0.0,1561097980,,,,0,,5,0.84,24.6,,,,,,
Raw,1712576569437,13981802000000,18,,-1396597805635252502,-0.5010108947753906,28.88546441681683,-4.100426354031466,16.393312043922226,807,13,0.0,16399,128573312728076,16,34.7,41.35651779174805,0.044700004160404205,16,0.0,0.0,1561097980,,,,0,,5,0.84,28.700000000000003,,,,,,
Raw,1712576569437,13981802000000,18,,-1396597805635252502,-0.5010108947753906,28.88546441681683,-4.100426354031466,16.393312043922226,807,27,0.0,16399,128573354468779,8,41.8,443.00555419921875,0.0422000028192997,16,0.0,0.0,1561097980,,,,0,,5,0.84,35.8,,,,,,
Raw,1712576569437,13981802000000,18,,-1396597805635252502,-0.5010108947753906,28.88546441681683,-4.100426354031466,16.393312043922226,807,29,0.0,16399,128573359567784,7,42.5,-307.6588134765625,0.019100001081824303,16,0.0,0.0,1561097980,,,,0,,5,0.84,36.5,,,,,,
Raw,1712576569437,13981802000000,18,,-1396597805635252502,-0.5010108947753906,28.88546441681683,-4.100426354031466,16.393312043922226,807,30,0.0,16399,128573363768229,13,36.2,138.1861114501953,0.02970000170171261,16,0.0,0.0,1561097980,,,,0,,5,0.84,30.200000000000003,,,,,,
Raw,1712576569437,13981802000000,18,,-1396597805635252502,-0.5010108947753906,28.88546441681683,-4.100426354031466,16.393312043922226,807,2,0.0,89103,128587359225060,13,36.8,-107.60673522949219,0.053700000047683716,16,0.0,0.0,1575420030,,,,0,,6,0.2,30.799999999999997,,,,,,
Raw,1712576569437,13981802000000,18,,-1396597805635252502,-0.5010108947753906,28.88546441681683,-4.100426354031466,16.393312043922226,807,11,0.0,89103,128587355392825,19,32.1,430.4324951171875,0.06980000436306,16,0.0,0.0,1575420030,,,,0,,6,0.2,26.1,,,,,,
Raw,1712576569437,13981802000000,18,,-1396597805635252502,-0.5010108947753906,28.88546441681683,-4.100426354031466,16.393312043922226,807,25,0.0,89103,128587355510246,16,34.3,381.5013732910156,0.04920000210404396,16,0.0,0.0,1575420030,,,,0,,6,0.2,28.299999999999997,,,,,,
Raw,1712576569437,13981802000000,18,,-1396597805635252502,-0.5010108947753906,28.88546441681683,-4.100426354031466,16.393312043922226,807,30,0.0,89103,128587348012052,12,37.3,-496.11572265625,0.0478999987244606,16,0.0,0.0,1575420030,,,,0,,6,0.2,31.299999999999997,,,,,,
Raw,1712576569437,13981802000000,18,,-1396597805635252502,-0.5010108947753906,28.88546441681683,-4.100426354031466,16.393312043922226,807,34,0.0,89103,128587352341635,16,34.2,-388.9954833984375,0.050700001418590546,16,0.0,0.0,1575420030,,,,0,,6,0.2,28.200000000000003,,,,,,
Raw,1712576569437,13981802000000,18,,-1396597805635252502,-0.5010108947753906,28.88546441681683,-4.100426354031466,16.393312043922226,807,36,0.0,89103,128587359423495,14,35.0,44.364192962646484,0.05430000275373459,16,0.0,0.0,1575420030,,,,0,,6,0.2,29.0,,,,,,
Fix,GPS,36.5452567900,29.1228838500,21.21636962890625,0.51,3.7900925,279.1,1712576570000,0.83216584,3.5861297,13043130662252,3.0,0,,,
Fix,FLP,36.5452571000,29.1228833000,31.299999237060547,0.5105088,3.9,278.9859,1712576570464,0.83216584,3.5861297,13043130662252,1.5344234,0,,,
Status,1712576570000,38,0,1,5,1575420030,43.10,54.0,29.0,1,1,1,38.1
Status,1712576570000,38,1,1,16,1575420030,39.70,316.0,13.0,1,1,1,34.7
Status,1712576570000,38,2,1,18,1575420030,41.20,258.0,76.0,1,1,1,36.2
Status,1712576570000,38,3,1,23,1575420030,44.70,170.0,24.0,1,1,1,39.7
Status,1712576570000,38,4,1,25,1575420030,45.00,147.0,30.0,1,1,1,40.0
Status,1712576570000,38,5,1,26,1575420030,37.80,305.0,45.0,1,1,1,32.8
Status,1712576570000,38,6,1,28,1575420030,39.70,230.0,22.0,1,1,1,34.7
Status,1712576570000,38,7,1,29,1575420030,44.80,54.0,52.0,1,1,1,39.8
Status,1712576570000,38,8,1,31,1575420030,39.70,261.0,28.0,1,1,1,34.7
Status,1712576570000,38,9,1,12,1575420030,0.00,139.0,3.0,0,1,1,0.0
Status,1712576570000,38,10,1,15,1575420030,0.00,0.0,0.0,0,1,0,0.0
Status,1712576570000,38,11,1,20,1575420030,0.00,35.0,4.0,0,1,1,0.0
Status,1712576570000,38,12,3,10,1602000000,34.90,192.0,50.0,0,1,0,29.9
Status,1712576570000,38,13,3,22,1602000000,39.50,250.0,9.0,1,1,0,34.5
Status,1712576570000,38,14,3,9,1602000000,40.60,168.0,11.0,1,1,1,35.6
Status,1712576570000,38,15,3,11,1602000000,35.90,303.0,54.0,1,1,1,30.9
Status,1712576570000,38,16,3,20,1602000000,28.30,22.0,44.0,1,1,0,23.3
Status,1712576570000,38,17,3,21,1602000000,37.30,286.0,49.0,1,1,1,32.3
Status,1712576570000,38,18,3,4,1602000000,39.60,40.0,10.0,1,1,0,34.6
Status,1712576570000,38,19,3,12,1602000000,0.00,333.0,3.0,0,1,0,0.0
Status,1712576570000,38,20,3,5,1602000000,0.00,90.0,14.0,0,1,0,0.0
Status,1712576570000,38,21,5,5,1561097980,41.30,135.0,37.0,1,1,0,36.3
Status,1712576570000,38,22,5,8,1561097980,41.90,40.0,35.0,1,1,1,36.9
Status,1712576570000,38,23,5,13,1561097980,45.10,53.0,47.0,1,1,1,40.1
Status,1712576570000,38,24,5,27,1561097980,45.50,61.0,21.0,1,1,1,40.5
Status,1712576570000,38,25,5,29,1561097980,43.50,277.0,39.0,1,1,1,38.5
Status,1712576570000,38,26,5,30,1561097980,43.70,18.0,63.0,1,1,1,38.7
Status,1712576570000,38,27,5,2,1561097980,0.00,111.0,19.0,0,1,0,0.0
Status,1712576570000,38,28,5,10,1561097980,0.00,109.0,9.0,0,1,0,0.0
Status,1712576570000,38,29,5,20,1561097980,0.00,158.0,4.0,0,1,0,0.0
Status,1712576570000,38,30,2,136,1575420030,41.50,0.0,0.0,0,0,0,36.5
Status,1712576570000,38,31,6,2,1575420030,40.40,295.0,73.0,1,1,0,35.4
Status,1712576570000,38,32,6,11,1575420030,41.70,42.0,35.0,1,1,1,36.7
Status,1712576570000,38,33,6,25,1575420030,47.40,147.0,48.0,1,1,0,42.4
Status,1712576570000,38,34,6,30,1575420030,41.90,316.0,20.0,1,1,0,36.9
Status,1712576570000,38,35,6,34,1575420030,42.90,233.0,35.0,1,1,0,37.9
Status,1712576570000,38,36,6,36,1575420030,39.80,327.0,82.0,1,1,0,34.8
Status,1712576570000,38,37,6,10,1575420030,0.00,45.0,8.0,0,1,0,0.0
Raw,1712576570437,13982802000000,18,,-1396597805635252511,-0.5609169006347656,21.063346139271744,-8.490208528540146,9.499841974359263,807,10,0.0,49359,52970369473572,21,31.9,553.4500122070312,0.7899999618530273,16,0.0,0.0,1598062460,,,,0,,3,0.36,28.9,,,,,,
Raw,1712576570437,13982802000000,18,,-1396597805635252511,-0.5609169006347656,21.063346139271744,-8.490208528540146,9.499841974359263,807,22,0.0,49359,52970358469818,13,36.5,-536.8802490234375,0.25220000743865967,16,0.0,0.0,1600312450,,,,0,,3,0.36,33.5,,,,,,
Raw,1712576570437,13982802000000,18,,-1396597805635252511,-0.5609169006347656,21.063346139271744,-8.490208528540146,9.499841974359263,807,9,0.0,49359,52970359334289,12,37.6,845.7310791015625,0.2524000108242035,16,0.0,0.0,1600875010,,,,0,,3,0.36,34.6,,,,,,
Raw,1712576570437,13982802000000,18,,-1396597805635252511,-0.5609169006347656,21.063346139271744,-8.490208528540146,9.499841974359263,807,11,0.0,49359,52970370421241,19,32.9,-260.8476867675781,0.2563000023365021,16,0.0,0.0,1602000000,,,,0,,3,0.36,29.9,,,,,,
Raw,1712576570437,13982802000000,18,,-1396597805635252511,-0.5609169006347656,21.063346139271744,-8.490208528540146,9.499841974359263,807,20,0.0,49359,52970368205657,46,25.3,424.0713195800781,1.128499984741211,16,0.0,0.0,1603124990,,,,0,,3,0.36,22.3,,,,,,
Raw,1712576570437,13982802000000,18,,-1396597805635252511,-0.5609169006347656,21.063346139271744,-8.490208528540146,9.499841974359263,807,21,0.0,49359,52970369370658,16,34.3,-175.1798858642578,0.2401999980211258,16,0.0,0.0,1604249980,,,,0,,3,0.36,31.299999999999997,,,,,,
Raw,1712576570437,13982802000000,18,,-1396597805635252511,-0.5609169006347656,21.063346139271744,-8.490208528540146,9.499841974359263,807,4,0.0,49359,52970358881071,13,36.6,19.978599548339844,0.25220000743865967,16,0.0,0.0,1605374980,,,,0,,3,0.36,33.6,,,,,,
Raw,1712576570437,13982802000000,18,,-1396597805635252511,-0.5609169006347656,21.063346139271744,-8.490208528540146,9.499841974359263,807,5,0.0,81935,128588361476429,9,40.1,305.67498779296875,0.023100001737475395,16,0.0,0.0,1575420030,,,,0,,1,0.19,37.1,,,,,,
Raw,1712576570437,13982802000000,18,,-1396597805635252511,-0.5609169006347656,21.063346139271744,-8.490208528540146,9.499841974359263,807,16,0.0,81935,128588356841411,13,36.7,-650.5278930664062,0.04919999837875366,16,0.0,0.0,1575420030,,,,0,,1,0.19,33.7,,,,,,
Raw,1712576570437,13982802000000,18,,-1396597805635252511,-0.5609169006347656,21.063346139271744,-8.490208528540146,9.499841974359263,807,18,0.0,81935,128588368632203,11,38.2,-101.8130111694336,0.03490000218153,16,0.0,0.0,1575420030,,,,0,,1,0.19,35.2,,,,,,
Raw,1712576570437,13982802000000,18,,-1396597805635252511,-0.5609169006347656,21.063346139271744,-8.490208528540146,9.499841974359263,807,23,0.0,81935,128588359784422,8,41.7,-653.878173828125,0.019700000062584877,16,0.0,0.0,1575420030,,,,0,,1,0.19,38.7,,,,,,
Raw,1712576570437,13982802000000,18,,-1396597805635252511,-0.5609169006347656,21.063346139271744,-8.490208528540146,9.499841974359263,807,25,0.0,81935,128588361480791,7,42.0,640.5205688476562,0.022100001573562622,16,0.0,0.0,1575420030,,,,0,,1,0.19,39.0,,,,,,
Raw,1712576570437,13982802000000,18,,-1396597805635252511,-0.5609169006347656,21.063346139271744,-8.490208528540146,9.499841974359263,807,26,0.0,81935,128588365484611,16,34.8,-370.7997741699219,0.03420000150799751,16,0.0,0.0,1575420030,,,,0,,1,0.19,31.799999999999997,,,,,,
Raw,1712576570437,13982802000000,18,,-1396597805635252511,-0.5609169006347656,21.063346139271744,-8.490208528540146,9.499841974359263,807,28,0.0,81935,128588358853644,13,36.7,509.49114990234375,0.05220000445842743,16,0.0,0.0,1575420030,,,,0,,1,0.19,33.7,,,,,,
Raw,1712576570437,13982802000000,18,,-1396597805635252511,-0.5609169006347656,21.063346139271744,-8.490208528540146,9.499841974359263,807,29,0.0,81935,128588366197009,8,41.8,219.5489501953125,0.03020000085234642,16,0.0,0.0,1575420030,,,,0,,1,0.19,38.8,,,,,,
Raw,1712576570437,13982802000000,18,,-1396597805635252511,-0.5609169006347656,21.063346139271744,-8.490208528540146,9.499841974359263,807,31,0.0,81935,128588360118085,13,36.7,303.0869140625,0.025200000032782555,16,0.0,0.0,1575420030,,,,0,,1,0.19,33.7,,,,,,
Raw,1712576570437,13982802000000,18,,-1396597805635252511,-0.5609169006347656,21.063346139271744,-8.490208528540146,9.499841974359263,807,5,0.0,16399,128574309662185,26,35.3,-2.8613884449005127,7.117099761962891,16,0.0,0.0,1561097980,,,,0,,5,0.71,29.299999999999997,,,,,,
Raw,1712576570437,13982802000000,18,,-1396597805635252511,-0.5609169006347656,21.063346139271744,-8.490208528540146,9.499841974359263,807,8,0.0,16399,128574310127478,14,35.9,118.01426696777344,0.040800001472234726,16,0.0,0.0,1561097980,,,,0,,5,0.71,29.9,,,,,,
Raw,1712576570437,13982802000000,18,,-1396597805635252511,-0.5609169006347656,21.063346139271744,-8.490208528540146,9.499841974359263,807,13,0.0,16399,128574312727930,10,39.1,44.4801139831543,0.04010000079870224,16,0.0,0.0,1561097980,,,,0,,5,0.71,33.1,,,,,,
Raw,1712576570437,13982802000000,18,,-1396597805635252511,-0.5609169006347656,21.063346139271744,-8.490208528540146,9.499841974359263,807,27,0.0,16399,128574354467301,10,39.5,445.9438781738281,0.04309999942779541,16,0.0,0.0,1561097980,,,,0,,5,0.71,33.5,,,,,,
Raw,1712576570437,13982802000000,18,,-1396597805635252511,-0.5609169006347656,21.063346139271744,-8.490208528540146,9.499841974359263,807,29,0.0,16399,128574359568791,12,37.5,-304.338134765625,0.02240000106394291,16,0.0,0.0,1561097980,,,,0,,5,0.71,31.5,,,,,,
Raw,1712576570437,13982802000000,18,,-1396597805635252511,-0.5609169006347656,21.063346139271744,-8.490208528540146,9.499841974359263,807,30,0.0,16399,128574363767758,12,37.7,141.41793823242188,0.028400002047419548,16,0.0,0.0,1561097980,,,,0,,5,0.71,31.700000000000003,,,,,,
Raw,1712576570437,13982802000000,18,,-1396597805635252511,-0.5609169006347656,21.063346139271744,-8.490208528540146,9.499841974359263,807,2,0.0,89103,128588359225412,16,34.4,-104.1929931640625,0.0552000030875206,16,0.0,0.0,1575420030,,,,0,,6,0.2,28.4,,,,,,
Raw,1712576570437,13982802000000,18,,-1396597805635252511,-0.5609169006347656,21.063346139271744,-8.490208528540146,9.499841974359263,807,11,0.0,89103,128588355391393,14,35.7,433.3895568847656,0.05430000275373459,16,0.0,0.0,1575420030,,,,0,,6,0.2,29.700000000000003,,,,,,
Raw,1712576570437,13982802000000,18,,-1396597805635252511,-0.5609169006347656,21.063346139271744,-8.490208528540146,9.499841974359263,807,25,0.0,89103,128588355508966,8,41.4,385.2349548339844,0.04370000213384628,16,0.0,0.0,1575420030,,,,0,,6,0.2,35.4,,,,,,
Raw,1712576570437,13982802000000,18,,-1396597805635252511,-0.5609169006347656,21.063346139271744,-8.490208528540146,9.499841974359263,807,30,0.0,89103,128588348013712,14,35.9,-493.1682434082031,0.049800001084804535,16,0.0,0.0,1575420030,,,,0,,6,0.2,29.9,,,,,,
Raw,1712576570437,13982802000000,18,,-1396597805635252511,-0.5609169006347656,21.063346139271744,-8.490208528540146,9.499841974359263,807,34,0.0,89103,128588352342910,13,36.9,-385.4253845214844,0.04919999837875366,16,0.0,0.0,1575420030,,,,0,,6,0.2,30.9,,,,,,
Raw,1712576570437,13982802000000,18,,-1396597805635252511,-0.5609169006347656,21.063346139271744,-8.490208528540146,9.499841974359263,807,36,0.0,89103,128588359423309,17,33.8,47.98063659667969,0.06180000305175781,16,0.0,0.0,1575420030,,,,0,,6,0.2,27.799999999999997,,,,,,
Fix,GPS,36.5452608100,29.1228817700,20.56622314453125,0.47,3.7900925,262.5,1712576571000,0.8348653,8.188349,13044135990532,3.0,0,,,
Fix,FLP,36.5452603000,29.1228811000,31.299999237060547,0.47040522,3.9,262.0126,1712576571468,0.8348653,8.188349,13044135990532,1.5444766,0,,,
Status,1712576571000,38,0,1,5,1575420030,45.40,54.0,29.0,1,1,1,40.4
Status,1712576571000,38,1,1,16,1575420030,37.50,316.0,13.0,1,1,1,32.5
Status,1712576571000,38,2,1,18,1575420030,45.00,258.0,76.0,1,1,1,40.0
Status,1712576571000,38,3,1,23,1575420030,49.10,170.0,24.0,1,1,1,44.1
Status,1712576571000,38,4,1,25,1575420030,43.90,147.0,30.0,1,1,1,38.9
Status,1712576571000,38,5,1,26,1575420030,42.40,305.0,45.0,1,1,1,37.4
Status,1712576571000,38,6,1,28,1575420030,44.50,230.0,22.0,1,1,1,39.5
Status,1712576571000,38,7,1,29,1575420030,42.00,54.0,52.0,1,1,1,37.0
Status,1712576571000,38,8,1,31,1575420030,42.80,261.0,28.0,1,1,1,37.8
Status,1712576571000,38,9,1,12,1575420030,0.00,139.0,3.0,0,1,1,0.0
Status,1712576571000,38,10,1,15,1575420030,0.00,0.0,0.0,0,1,0,0.0
Status,1712576571000,38,11,1,20,1575420030,0.00,35.0,4.0,0,1,1,0.0
Status,1712576571000,38,12,3,10,1602000000,39.10,192.0,50.0,0,1,0,34.1
Status,1712576571000,38,13,3,22,1602000000,45.90,250.0,9.0,1,1,0,40.9
Status,1712576571000,38,14,3,9,1602000000,46.50,168.0,11.0,1,1,1,41.5
Status,1712576571000,38,15,3,11,1602000000,37.00,303.0,54.0,1,1,1,32.0
Status,1712576571000,38,16,3,20,1602000000,25.90,22.0,44.0,1,1,0,20.9
Status,1712576571000,38,17,3,21,1602000000,36.40,286.0,49.0,1,1,1,31.4
Status,1712576571000,38,18,3,4,1602000000,41.20,40.0,10.0,1,1,0,36.2
Status,1712576571000,38,19,3,12,1602000000,0.00,333.0,3.0,0,1,0,0.0
Status,1712576571000,38,20,3,5,1602000000,0.00,90.0,14.0,0,1,0,0.0
Status,1712576571000,38,21,5,5,1561097980,42.30,135.0,37.0,1,1,0,37.3
Status,1712576571000,38,22,5,8,1561097980,42.00,40.0,35.0,1,1,1,37.0
Status,1712576571000,38,23,5,13,1561097980,43.40,53.0,47.0,1,1,1,38.4
Status,1712576571000,38,24,5,27,1561097980,48.40,61.0,21.0,1,1,1,43.4
Status,1712576571000,38,25,5,29,1561097980,44.30,277.0,39.0,1,1,1,39.3
Status,1712576571000,38,26,5,30,1561097980,40.50,18.0,63.0,1,1,1,35.5
Status,1712576571000,38,27,5,2,1561097980,0.00,111.0,19.0,0,1,0,0.0
Status,1712576571000,38,28,5,10,1561097980,0.00,109.0,9.0,0,1,0,0.0
Status,1712576571000,38,29,5,20,1561097980,0.00,158.0,4.0,0,1,0,0.0
Status,1712576571000,38,30,2,136,1575420030,46.90,0.0,0.0,0,0,0,41.9
Status,1712576571000,38,31,6,2,1575420030,44.90,295.0,73.0,1,1,0,39.9
Status,1712576571000,38,32,6,11,1575420030,38.80,42.0,35.0,1,1,1,33.8
Status,1712576571000,38,33,6,25,1575420030,46.50,147.0,48.0,1,1,0,41.5
Status,1712576571000,38,34,6,30,1575420030,43.50,316.0,20.0,1,1,0,38.5
Status,1712576571000,38,35,6,34,1575420030,46.30,233.0,35.0,1,1,0,41.3
Status,1712576571000,38,36,6,36,1575420030,43.30,327.0,82.0,1,1,0,38.3
Status,1712576571000,38,37,6,10,1575420030,0.00,45.0,8.0,0,1,0,0.0
Raw,1712576571437,13983802000000,18,,-1396597805635252506,-0.3157081604003906,20.0841277546715,2.160022884592187,10.490527108057488,807,10,0.0,49359,52971369471751,13,36.1,552.9338989257812,0.2387000024318695,16,0.0,0.0,1598062460,,,,0,,3,0.41,33.1,,,,,,
Raw,1712576571437,13983802000000,18,,-1396597805635252506,-0.3157081604003906,20.0841277546715,2.160022884592187,10.490527108057488,807,22,0.0,49359,52971358471597,7,42.9,-537.4276733398438,0.2476000040769577,16,0.0,0.0,1600312450,,,,0,,3,0.41,39.9,,,,,,
Raw,1712576571437,13983802000000,18,,-1396597805635252506,-0.3157081604003906,20.0841277546715,2.160022884592187,10.490527108057488,807,9,0.0,49359,52971359331447,6,43.5,844.5589599609375,0.24860000610351562,16,0.0,0.0,1600875010,,,,0,,3,0.41,40.5,,,,,,
Raw,1712576571437,13983802000000,18,,-1396597805635252506,-0.3157081604003906,20.0841277546715,2.160022884592187,10.490527108057488,807,11,0.0,49359,52971370422103,16,34.0,-260.85357666015625,0.24169999361038208,16,0.0,0.0,1602000000,,,,0,,3,0.41,31.0,,,,,,
Raw,1712576571437,13983802000000,18,,-1396597805635252506,-0.3157081604003906,20.0841277546715,2.160022884592187,10.490527108057488,807,20,0.0,49359,52971368204122,70,22.9,421.8459777832031,1.378499984741211,16,0.0,0.0,1603124990,,,,0,,3,0.41,19.9,,,,,,
Raw,1712576571437,13983802000000,18,,-1396597805635252506,-0.3157081604003906,20.0841277546715,2.160022884592187,10.490527108057488,807,21,0.0,49359,52971369371227,17,33.4,-175.86041259765625,0.2468000054359436,16,0.0,0.0,1604249980,,,,0,,3,0.41,30.4,,,,,,
Raw,1712576571437,13983802000000,18,,-1396597805635252506,-0.3157081604003906,20.0841277546715,2.160022884592187,10.490527108057488,807,4,0.0,49359,52971358881031,11,38.2,19.433141708374023,0.24990001320838928,16,0.0,0.0,1605374980,,,,0,,3,0.41,35.2,,,,,,
Raw,1712576571437,13983802000000,18,,-1396597805635252506,-0.3157081604003906,20.0841277546715,2.160022884592187,10.490527108057488,807,5,0.0,81935,128589361475376,7,42.4,305.15869140625,0.022100001573562622,16,0.0,0.0,1575420030,,,,0,,1,0.16,39.4,,,,,,
Raw,1712576571437,13983802000000,18,,-1396597805635252506,-0.3157081604003906,20.0841277546715,2.160022884592187,10.490527108057488,807,16,0.0,81935,128589356843574,16,34.5,-650.8750610351562,0.050700001418590546,16,0.0,0.0,1575420030,,,,0,,1,0.16,31.5,,,,,,
Raw,1712576571437,13983802000000,18,,-1396597805635252506,-0.3157081604003906,20.0841277546715,2.160022884592187,10.490527108057488,807,18,0.0,81935,128589368632552,7,42.0,-102.44757843017578,0.032600000500679016,16,0.0,0.0,1575420030,,,,0,,1,0.16,39.0,,,,,,
Raw,1712576571437,13983802000000,18,,-1396597805635252506,-0.3157081604003906,20.0841277546715,2.160022884592187,10.490527108057488,807,23,0.0,81935,128589359786590,5,46.1,-654.931640625,0.01759999990463257,16,0.0,0.0,1575420030,,,,0,,1,0.16,43.1,,,,,,
Raw,1712576571437,13983802000000,18,,-1396597805635252506,-0.3157081604003906,20.0841277546715,2.160022884592187,10.490527108057488,807,25,0.0,81935,128589361478646,9,40.9,639.5465698242188,0.023100001737475395,16,0.0,0.0,1575420030,,,,0,,1,0.16,37.9,,,,,,
Raw,1712576571437,13983802000000,18,,-1396597805635252506,-0.3157081604003906,20.0841277546715,2.160022884592187,10.490527108057488,807,26,0.0,81935,128589365485878,10,39.4,-371.41632080078125,0.029600000008940697,16,0.0,0.0,1575420030,,,,0,,1,0.16,36.4,,,,,,
Raw,1712576571437,13983802000000,18,,-1396597805635252506,-0.3157081604003906,20.0841277546715,2.160022884592187,10.490527108057488,807,28,0.0,81935,128589358851928,8,41.5,508.93157958984375,0.04820000380277634,16,0.0,0.0,1575420030,,,,0,,1,0.16,38.5,,,,,,
Raw,1712576571437,13983802000000,18,,-1396597805635252506,-0.3157081604003906,20.0841277546715,2.160022884592187,10.490527108057488,807,29,0.0,81935,128589366196271,10,39.0,218.86761474609375,0.03110000118613243,16,0.0,0.0,1575420030,,,,0,,1,0.16,36.0,,,,,,
Raw,1712576571437,13983802000000,18,,-1396597805635252506,-0.3157081604003906,20.0841277546715,2.160022884592187,10.490527108057488,807,31,0.0,81935,128589360117083,10,39.8,302.59991455078125,0.022099999710917473,16,0.0,0.0,1575420030,,,,0,,1,0.16,36.8,,,,,,
Raw,1712576571437,13983802000000,18,,-1396597805635252506,-0.3157081604003906,20.0841277546715,2.160022884592187,10.490527108057488,807,5,0.0,16399,128575309662220,13,36.3,-5.223474502563477,5.928799629211426,16,0.0,0.0,1561097980,,,,0,,5,0.79,30.299999999999997,,,,,,
Raw,1712576571437,13983802000000,18,,-1396597805635252506,-0.3157081604003906,20.0841277546715,2.160022884592187,10.490527108057488,807,8,0.0,16399,128575310127083,13,36.0,117.62265014648438,0.04020000249147415,16,0.0,0.0,1561097980,,,,0,,5,0.79,30.0,,,,,,
Raw,1712576571437,13983802000000,18,,-1396597805635252506,-0.3157081604003906,20.0841277546715,2.160022884592187,10.490527108057488,807,13,0.0,16399,128575312727780,12,37.4,43.90399169921875,0.04190000146627426,16,0.0,0.0,1561097980,,,,0,,5,0.79,31.4,,,,,,
Raw,1712576571437,13983802000000,18,,-1396597805635252506,-0.3157081604003906,20.0841277546715,2.160022884592187,10.490527108057488,807,27,0.0,16399,128575354465808,7,42.4,445.0404052734375,0.041600000113248825,16,0.0,0.0,1561097980,,,,0,,5,0.79,36.4,,,,,,
Raw,1712576571437,13983802000000,18,,-1396597805635252506,-0.3157081604003906,20.0841277546715,2.160022884592187,10.490527108057488,807,29,0.0,16399,128575359569821,11,38.3,-304.7101745605469,0.021400000900030136,16,0.0,0.0,1561097980,,,,0,,5,0.79,32.3,,,,,,
Raw,1712576571437,13983802000000,18,,-1396597805635252506,-0.3157081604003906,20.0841277546715,2.160022884592187,10.490527108057488,807,30,0.0,16399,128575363767303,16,34.5,140.6747589111328,0.031200002878904343,16,0.0,0.0,1561097980,,,,0,,5,0.79,28.5,,,,,,
Raw,1712576571437,13983802000000,18,,-1396597805635252506,-0.3157081604003906,20.0841277546715,2.160022884592187,10.490527108057488,807,2,0.0,89103,128589359225758,11,38.9,-104.68329620361328,0.05140000209212303,16,0.0,0.0,1575420030,,,,0,,6,0.13,32.9,,,,,,
Raw,1712576571437,13983802000000,18,,-1396597805635252506,-0.3157081604003906,20.0841277546715,2.160022884592187,10.490527108057488,807,11,0.0,89103,128589355389932,19,32.8,432.92724609375,0.06980000436306,16,0.0,0.0,1575420030,,,,0,,6,0.13,26.799999999999997,,,,,,
Raw,1712576571437,13983802000000,18,,-1396597805635252506,-0.3157081604003906,20.0841277546715,2.160022884592187,10.490527108057488,807,25,0.0,89103,128589355507678,9,40.5,384.82354736328125,0.04410000145435333,16,0.0,0.0,1575420030,,,,0,,6,0.13,34.5,,,,,,
Raw,1712576571437,13983802000000,18,,-1396597805635252506,-0.3157081604003906,20.0841277546715,2.160022884592187,10.490527108057488,807,30,0.0,89103,128589348015345,12,37.5,-493.3530578613281,0.0478999987244606,16,0.0,0.0,1575420030,,,,0,,6,0.13,31.5,,,,,,
Raw,1712576571437,13983802000000,18,,-1396597805635252506,-0.3157081604003906,20.0841277546715,2.160022884592187,10.490527108057488,807,34,0.0,89103,128589352344208,9,40.3,-385.4202575683594,0.04560000076889992,16,0.0,0.0,1575420030,,,,0,,6,0.13,34.3,,,,,,
Raw,1712576571437,13983802000000,18,,-1396597805635252506,-0.3157081604003906,20.0841277546715,2.160022884592187,10.490527108057488,807,36,0.0,89103,128589359423180,12,37.3,47.15925979614258,0.052400000393390656,16,0.0,0.0,1575420030,,,,0,,6,0.13,31.299999999999997,,,,,,
Fix,GPS,36.5452633600,29.1228811700,20.6920166015625,0.22,3.7900925,275.8,1712576572000,0.85702974,8.577898,13045125105792,3.0,0,,,
Fix,NLP,36.5456981000,29.1230893000,31.299999237060547,,44.893,,1712576568740,,,13041407000000,1.3387173,0,,,
Fix,FLP,36.5452628000,29.1228804000,31.299999237060547,0.22308263,3.9,274.92813,1712576572459,0.85702974,8.577898,13045125105792,1.5543678,0,,,
Status,1712576572000,38,0,1,5,1575420030,46.30,54.0,29.0,1,1,1,41.3
Status,1712576572000,38,1,1,16,1575420030,33.90,316.0,13.0,1,1,1,28.9
Status,1712576572000,38,2,1,18,1575420030,44.60,258.0,76.0,1,1,1,39.6
Status,1712576572000,38,3,1,23,1575420030,49.50,170.0,24.0,1,1,1,44.5
Status,1712576572000,38,4,1,25,1575420030,44.80,147.0,30.0,1,1,1,39.8
Status,1712576572000,38,5,1,26,1575420030,38.20,305.0,45.0,1,1,1,33.2
Status,1712576572000,38,6,1,28,1575420030,43.70,230.0,22.0,1,1,1,38.7
Status,1712576572000,38,7,1,29,1575420030,44.50,54.0,52.0,1,1,1,39.5
Status,1712576572000,38,8,1,31,1575420030,41.60,261.0,28.0,1,1,1,36.6
Status,1712576572000,38,9,1,12,1575420030,0.00,139.0,3.0,0,1,1,0.0
Status,1712576572000,38,10,1,15,1575420030,0.00,0.0,0.0,0,1,0,0.0
Status,1712576572000,38,11,1,20,1575420030,0.00,35.0,4.0,0,1,1,0.0
Status,1712576572000,38,12,3,10,1602000000,40.70,192.0,50.0,0,1,0,35.7
Status,1712576572000,38,13,3,22,1602000000,46.50,250.0,9.0,1,1,0,41.5
Status,1712576572000,38,14,3,9,1602000000,46.50,168.0,11.0,1,1,1,41.5
Status,1712576572000,38,15,3,11,1602000000,35.40,303.0,54.0,1,1,1,30.4
Status,1712576572000,38,16,3,20,1602000000,25.90,22.0,44.0,1,1,0,20.9
Status,1712576572000,38,17,3,21,1602000000,40.30,286.0,49.0,1,1,1,35.3
Status,1712576572000,38,18,3,4,1602000000,41.60,40.0,10.0,1,1,0,36.6
Status,1712576572000,38,19,3,12,1602000000,0.00,333.0,3.0,0,1,0,0.0
Status,1712576572000,38,20,3,5,1602000000,0.00,90.0,14.0,0,1,0,0.0
Status,1712576572000,38,21,5,5,1561097980,44.80,135.0,37.0,1,1,0,39.8
Status,1712576572000,38,22,5,8,1561097980,40.10,40.0,35.0,1,1,1,35.1
Status,1712576572000,38,23,5,13,1561097980,43.90,53.0,47.0,1,1,1,38.9
Status,1712576572000,38,24,5,27,1561097980,46.40,61.0,21.0,1,1,1,41.4
Status,1712576572000,38,25,5,29,1561097980,47.00,277.0,39.0,1,1,1,42.0
Status,1712576572000,38,26,5,30,1561097980,41.70,18.0,63.0,1,1,1,36.7
Status,1712576572000,38,27,5,2,1561097980,0.00,111.0,19.0,0,1,0,0.0
Status,1712576572000,38,28,5,10,1561097980,0.00,109.0,9.0,0,1,0,0.0
Status,1712576572000,38,29,5,20,1561097980,0.00,158.0,4.0,0,1,0,0.0
Status,1712576572000,38,30,2,136,1575420030,44.60,0.0,0.0,0,0,0,39.6
Status,1712576572000,38,31,6,2,1575420030,42.60,295.0,73.0,1,1,0,37.6
Status,1712576572000,38,32,6,11,1575420030,39.40,42.0,35.0,1,1,1,34.4
Status,1712576572000,38,33,6,25,1575420030,47.80,147.0,48.0,1,1,0,42.8
Status,1712576572000,38,34,6,30,1575420030,47.40,316.0,20.0,1,1,0,42.4
Status,1712576572000,38,35,6,34,1575420030,44.70,233.0,35.0,1,1,0,39.7
Status,1712576572000,38,36,6,36,1575420030,43.00,327.0,82.0,1,1,0,38.0
Status,1712576572000,38,37,6,10,1575420030,0.00,45.0,8.0,0,1,0,0.0
Raw,1712576572437,13984802000000,18,,-1396597805635252505,-0.09381294250488281,19.64175680768676,-0.05190527038390215,10.843743814260705,807,10,0.0,49359,52972369469859,12,37.7,550.9751586914062,0.23740001022815704,16,0.0,0.0,1598062460,,,,0,,3,0.42,34.7,,,,,,
Raw,1712576572437,13984802000000,18,,-1396597805635252505,-0.09381294250488281,19.64175680768676,-0.05190527038390215,10.843743814260705,807,22,0.0,49359,52972358473423,6,43.5,-539.7822265625,0.24710001051425934,16,0.0,0.0,1600312450,,,,0,,3,0.42,40.5,,,,,,
Raw,1712576572437,13984802000000,18,,-1396597805635252505,-0.09381294250488281,19.64175680768676,-0.05190527038390215,10.843743814260705,807,9,0.0,49359,52972359328635,6,43.5,842.6851196289062,0.24860000610351562,16,0.0,0.0,1600875010,,,,0,,3,0.42,40.5,,,,,,
Raw,1712576572437,13984802000000,18,,-1396597805635252505,-0.09381294250488281,19.64175680768676,-0.05190527038390215,10.843743814260705,807,11,0.0,49359,52972370422990,19,32.4,-262.8450012207031,0.2563000023365021,16,0.0,0.0,1602000000,,,,0,,3,0.42,29.4,,,,,,
Raw,1712576572437,13984802000000,18,,-1396597805635252505,-0.09381294250488281,19.64175680768676,-0.05190527038390215,10.843743814260705,807,21,0.0,49359,52972369371837,12,37.3,-177.87319946289062,0.23740001022815704,16,0.0,0.0,1604249980,,,,0,,3,0.42,34.3,,,,,,
Raw,1712576572437,13984802000000,18,,-1396597805635252505,-0.09381294250488281,19.64175680768676,-0.05190527038390215,10.843743814260705,807,4,0.0,49359,52972358880962,11,38.6,18.377105712890625,0.24990001320838928,16,0.0,0.0,1605374980,,,,0,,3,0.42,35.6,,,,,,
Raw,1712576572437,13984802000000,18,,-1396597805635252505,-0.09381294250488281,19.64175680768676,-0.05190527038390215,10.843743814260705,807,5,0.0,81935,128590361474385,6,43.3,303.9713134765625,0.02160000056028366,16,0.0,0.0,1575420030,,,,0,,1,0.13,40.3,,,,,,
Raw,1712576572437,13984802000000,18,,-1396597805635252505,-0.09381294250488281,19.64175680768676,-0.05190527038390215,10.843743814260705,807,16,0.0,81935,128590356845737,24,30.9,-652.7086181640625,0.4057999849319458,16,0.0,0.0,1575420030,,,,0,,1,0.13,27.9,,,,,,
Raw,1712576572437,13984802000000,18,,-1396597805635252505,-0.09381294250488281,19.64175680768676,-0.05190527038390215,10.843743814260705,807,18,0.0,81935,128590368632903,8,41.6,-104.17997741699219,0.03320000320672989,16,0.0,0.0,1575420030,,,,0,,1,0.13,38.6,,,,,,
Raw,1712576572437,13984802000000,18,,-1396597805635252505,-0.09381294250488281,19.64175680768676,-0.05190527038390215,10.843743814260705,807,23,0.0,81935,128590359788791,5,46.5,-656.9168701171875,0.01759999990463257,16,0.0,0.0,1575420030,,,,0,,1,0.13,43.5,,,,,,
Raw,1712576572437,13984802000000,18,,-1396597805635252505,-0.09381294250488281,19.64175680768676,-0.05190527038390215,10.843743814260705,807,25,0.0,81935,128590361476504,8,41.8,637.7816162109375,0.022700000554323196,16,0.0,0.0,1575420030,,,,0,,1,0.13,38.8,,,,,,
Raw,1712576572437,13984802000000,18,,-1396597805635252505,-0.09381294250488281,19.64175680768676,-0.05190527038390215,10.843743814260705,807,26,0.0,81935,128590365487099,14,35.2,-373.01800537109375,0.0333000011742115,16,0.0,0.0,1575420030,,,,0,,1,0.13,32.2,,,,,,
Raw,1712576572437,13984802000000,18,,-1396597805635252505,-0.09381294250488281,19.64175680768676,-0.05190527038390215,10.843743814260705,807,28,0.0,81935,128590358850219,9,40.7,506.8177795410156,0.048600003123283386,16,0.0,0.0,1575420030,,,,0,,1,0.13,37.7,,,,,,
Raw,1712576572437,13984802000000,18,,-1396597805635252505,-0.09381294250488281,19.64175680768676,-0.05190527038390215,10.843743814260705,807,29,0.0,81935,128590366195535,8,41.5,217.4241943359375,0.03020000085234642,16,0.0,0.0,1575420030,,,,0,,1,0.13,38.5,,,,,,
Raw,1712576572437,13984802000000,18,,-1396597805635252505,-0.09381294250488281,19.64175680768676,-0.05190527038390215,10.843743814260705,807,31,0.0,81935,128590360116073,11,38.6,300.61199951171875,0.02290000021457672,16,0.0,0.0,1575420030,,,,0,,1,0.13,35.6,,,,,,
Raw,1712576572437,13984802000000,18,,-1396597805635252505,-0.09381294250488281,19.64175680768676,-0.05190527038390215,10.843743814260705,807,5,0.0,16399,128576309662240,11,38.8,-6.846208095550537,5.299299716949463,16,0.0,0.0,1561097980,,,,0,,5,0.79,32.8,,,,,,
Raw,1712576572437,13984802000000,18,,-1396597805635252505,-0.09381294250488281,19.64175680768676,-0.05190527038390215,10.843743814260705,807,8,0.0,16399,128576310126705,16,34.1,116.10624694824219,0.04170000180602074,16,0.0,0.0,1561097980,,,,0,,5,0.79,28.1,,,,,,
